,Latitude,Longitude,Name,Place_id,Type
0,43.529742,5.447427,Aix-en-Provence,ChIJWRK5BKONyRIRo4i2yL5TuVw,"[u'locality', u'political']"
0,43.5356836,5.4032141,Atelier MartineH,ChIJIycckzCNyRIR8IvVV6_uCaQ,"[u'point_of_interest', u'establishment']"
0,43.539757,5.40814,Agence immobilière Korine Olivier Aix en Provence St Mitre,ChIJK1W6wSSNyRIRLMMn5_Kh2Y8,"[u'real_estate_agency', u'general_contractor', u'point_of_interest', u'establishment']"
0,43.5383936,5.4058343,Clinique La Jauberte,ChIJu18DujuNyRIRqjo5iLxAjn0,"[u'hospital', u'health', u'point_of_interest', u'establishment']"
0,43.535135,5.407808,Lotre Restaurant,ChIJQxATuTuNyRIRgUbt17-s04w,"[u'restaurant', u'food', u'point_of_interest', u'establishment']"
0,43.5299698,5.4040388,Crédit Agricole Alpes Provence,ChIJqxeuDziNyRIRsO__5TXyGe8,"[u'bank', u'finance', u'point_of_interest', u'establishment']"
0,43.538833,5.404426,Nocibé,ChIJLQvIQxaNyRIRPFV0OeynFlo,"[u'beauty_salon', u'spa', u'health', u'clothing_store', u'store', u'point_of_interest', u'establishment']"
0,43.5388336,5.4044268,Camaïeu,ChIJP3XIQxaNyRIRldQar5Bb-KE,"[u'clothing_store', u'store', u'point_of_interest', u'establishment']"
0,43.5352124,5.3944516,L'Etal des Granettes,ChIJe2JQnjONyRIRG7TlmN5t_oM,"[u'cafe', u'bar', u'restaurant', u'food', u'point_of_interest', u'establishment']"
0,43.5355066,5.4045362,H.b.a,ChIJ4Z5odjqNyRIRZqyOlnjFmL0,"[u'car_dealer', u'store', u'point_of_interest', u'establishment']"
0,43.5301331,5.4024198,Imagine L'Aventure,ChIJCwwNrTeNyRIR4n-PgOwXM7s,"[u'travel_agency', u'point_of_interest', u'establishment']"
0,43.5388336,5.4044268,Vente Villas,ChIJq6qqqjqNyRIRqUvFg87Gbww,"[u'real_estate_agency', u'point_of_interest', u'establishment']"
0,43.5370383,5.393858,Sarl WOOD for you,ChIJC-DoKs3yyRIRf_zeveheCVE,"[u'furniture_store', u'home_goods_store', u'store', u'point_of_interest', u'establishment']"
0,43.538895,5.405284,Prolians - Quincanor,ChIJB2sO3zvtyRIRgPsJxh89XnU,"[u'hardware_store', u'clothing_store', u'store', u'point_of_interest', u'establishment']"
0,43.5392103,5.3931767,joelCorre.com,ChIJj-sYQs3yyRIRa61dJrBCm5Q,"[u'point_of_interest', u'establishment']"
0,43.538849,5.404447,AIX Motoculture,ChIJzfRAcOaMyRIRJGFkiHx6oss,"[u'store', u'point_of_interest', u'establishment']"
0,43.5388336,5.4044268,ajc,ChIJe5dQ-jTzyRIRtiTZQcc54K4,"[u'electrician', u'point_of_interest', u'establishment']"
0,43.545032,5.399007,La Calèche,ChIJ00j0xCuNyRIRGmCBtlbYvG0,"[u'health', u'point_of_interest', u'establishment']"
0,43.5347883,5.4091732,BNP Paribas - Aix Les Deux Ormes,ChIJJWFBPjyNyRIRGwiC2prpL8M,"[u'bank', u'atm', u'finance', u'point_of_interest', u'establishment']"
0,43.536461,5.393914,Les Granettes,ChIJxQna0szyyRIRhcKT65c6FIs,"[u'sublocality_level_1', u'sublocality', u'political']"
0,43.5376865,5.393913,Schools Des Granettes,ChIJOTX0itLyyRIRFukWRc7dxKI,"[u'school', u'point_of_interest', u'establishment']"
0,43.5388336,5.4044268,Akerys Promotion,ChIJCXbVM0KNyRIRJc3EKsFp3Mo,"[u'general_contractor', u'point_of_interest', u'establishment']"
0,43.5344542,5.4099896,Crédit Agricole Alpes Provence,ChIJqxeuDziNyRIRaza86YI7_vs,"[u'bank', u'atm', u'finance', u'point_of_interest', u'establishment']"
0,43.5375799,5.393335,Cobiac,ChIJGwS76Z6NyRIRrCA-v4QX6wQ,"[u'point_of_interest', u'establishment']"
0,43.5388336,5.4044268,SCEvénements,ChIJy2XQUxeNyRIRof1UUSF9C3s,"[u'health', u'point_of_interest', u'establishment']"
0,43.5396989,5.4012489,Wws,ChIJqdBXOAaMyRIRJPAILNgq4UE,"[u'store', u'point_of_interest', u'establishment']"
0,43.534118,5.4105619,Clinique Vétérinaire des 2 Ormes,ChIJfamBGzyNyRIR_jK_d1lYSjE,"[u'veterinary_care', u'point_of_interest', u'establishment']"
0,43.535287,5.4029089,Hernandez Martine,ChIJi4xXbjqNyRIRdwtlMu8zINM,"[u'point_of_interest', u'establishment']"
0,43.5363161,5.4089568,Association AIX TAI CHI,ChIJuUWRdzuNyRIR7r6q5e3BmlE,"[u'point_of_interest', u'establishment']"
0,43.5328367,5.3986421,Lentian André,ChIJGQAhrDWNyRIRyRk6Qv-egJA,"[u'point_of_interest', u'establishment']"
0,43.5384776,5.3927753,Institut d'Oenologie,ChIJL8iHQc3yyRIR2p2yyAbxGCE,"[u'point_of_interest', u'establishment']"
0,43.534774,5.3961819,Fromagerie Castellano,ChIJy5tqnjONyRIRXex07ZYWt7E,"[u'food', u'point_of_interest', u'establishment']"
0,43.538833,5.404426,SKAMY,ChIJBQEAADCNyRIR28zMNC5Be90,"[u'point_of_interest', u'establishment']"
0,43.5388336,5.4044268,SARL Climan,ChIJq6qqqjqNyRIRlePiw7Icqs0,"[u'general_contractor', u'point_of_interest', u'establishment']"
0,43.5388336,5.4044268,Hotel Marketing 35 (Agence Sud),ChIJq6qqqjqNyRIR9TkQo71tjhw,"[u'point_of_interest', u'establishment']"
0,43.535474,5.393183,Gourmandises Aixoises / Goût de pain,ChIJbTiFlMzyyRIRD4inOFi4Q_4,"[u'bakery', u'restaurant', u'food', u'store', u'point_of_interest', u'establishment']"
0,43.5396989,5.4012489,Hydra Environnement,ChIJr3nFNi6NyRIR43i7uISSuRI,"[u'point_of_interest', u'establishment']"
0,43.5351093,5.3922482,Coopérative Vinicole Les Granettes Cave,ChIJI-ORmczyyRIRby0oKMM5uY8,"[u'point_of_interest', u'establishment']"
0,43.5388336,5.4044268,netpro13,ChIJq6qqqjqNyRIRSV003t2EqEs,"[u'point_of_interest', u'establishment']"
0,43.5388336,5.4044269,casino,ChIJFwKstr2NyRIRcRHi8M1j16c,"[u'casino', u'point_of_interest', u'establishment']"
0,43.538895,5.404512,Boutique Orange,ChIJhxN2Bs_yyRIRWGyo4f8XMxI,"[u'store', u'point_of_interest', u'establishment']"
0,43.5356726,5.4058876,A-Formation,ChIJLeJVQjqNyRIR3NmeRepKtUk,"[u'point_of_interest', u'establishment']"
0,43.5368916,5.4061726,Sci les Hauts de Fontfiguiere,ChIJp-3G8TqNyRIR_q7Nuyyx1L0,"[u'health', u'point_of_interest', u'establishment']"
0,43.5394129,5.4085605,Les Maisons de Manon,ChIJnYahpCSNyRIRhf1EL9NafII,"[u'general_contractor', u'point_of_interest', u'establishment']"
0,43.5405489,5.3915433,Association des Amis de la Bastide Granet,ChIJOTX0itLyyRIR72E4B97YixI,"[u'point_of_interest', u'establishment']"
0,43.5337351,5.4078869,Internet Consulting,ChIJsf3_eDmNyRIRX9J7Fi7eBRs,"[u'point_of_interest', u'establishment']"
0,43.5435867,5.3967762,Agence de Relooking Harmony,ChIJV1zeRJ2NyRIRcG_gDjmOK78,"[u'health', u'point_of_interest', u'establishment']"
0,43.5414802,5.4054023,JP Tomas Consulting,ChIJR1yVBSWNyRIRA4ulCGrI2HI,"[u'point_of_interest', u'establishment']"
0,43.5300992,5.4052419,Brice Guillemaud Pascale,ChIJSV3VEDiNyRIRKhvPVBltdXs,"[u'health', u'point_of_interest', u'establishment']"
0,43.5379831,5.4086424,H.a.t.,ChIJ-RgORjuNyRIRXtTKT9lcMsA,"[u'finance', u'point_of_interest', u'establishment']"
0,43.5379831,5.4086424,Soft Beverly,ChIJ-RgORjuNyRIRUtKkydUEALA,"[u'point_of_interest', u'establishment']"
0,43.5347883,5.4091732,BNP Paribas,ChIJcarK8zuNyRIR6TudNQSoK_A,"[u'bank', u'finance', u'point_of_interest', u'establishment']"
0,43.5347883,5.4091732,Just Hair Coiffure,ChIJcarK8zuNyRIRkPeytt4fvtE,"[u'hair_care', u'point_of_interest', u'establishment']"
0,43.5347883,5.4091732,Salon Frédéric Moreno,ChIJcarK8zuNyRIR7YRRXtjyUQU,"[u'hair_care', u'point_of_interest', u'establishment']"
0,43.534632,5.409945,Carnivor Boucherie AIX EN PROVENCE (13100),ChIJk2BBPjyNyRIRoCkhdUnVYwA,"[u'food', u'store', u'point_of_interest', u'establishment']"
0,43.536713,5.409298,Korine Olivier Gestion de Patrimoine,ChIJNw9mezuNyRIRxU-M6RqPFKU,"[u'point_of_interest', u'establishment']"
0,43.5346058,5.4091627,Carrefour Market Aix Les Deux Ormes,ChIJcarK8zuNyRIRmqary3L7sRY,"[u'grocery_or_supermarket', u'food', u'store', u'point_of_interest', u'establishment']"
0,43.5294073,5.4054061,Crédit Agricole Leasing & Factoring,ChIJpwW-CziNyRIRnAgvqQlibi4,"[u'point_of_interest', u'establishment']"
0,43.5343456,5.4098197,Société Activité Métallière,ChIJ4QauBzyNyRIR-FK2b7SObcQ,"[u'point_of_interest', u'establishment']"
0,43.5348046,5.4101813,BS Diffusion Aix en Provence,ChIJv18EQP6LyRIR0Y7YhBMggKo,"[u'home_goods_store', u'store', u'point_of_interest', u'establishment']"
0,43.5212904,5.4007245,Domaine de la Roseraie,ChIJsbG3yU6NyRIRxLtHEVFmQTc,"[u'lodging', u'point_of_interest', u'establishment']"
0,43.5277229,5.405252,Dr Dalmas Magali,ChIJ892C2nWNyRIRTqn9jO09f7M,"[u'dentist', u'health', u'point_of_interest', u'establishment']"
0,43.5251977,5.3990656,Diano Forano Expertise,ChIJg2XW_EuNyRIRgljtI9-JK_A,"[u'insurance_agency', u'point_of_interest', u'establishment']"
0,43.5280579,5.4054894,Résidence Les Académies Aixoises,ChIJ2YI_6keNyRIR82LmgTjqZyQ,"[u'point_of_interest', u'establishment']"
0,43.5259604,5.3977842,C.d.g.v. Sté,ChIJrRogVkiNyRIR_m57fPV-EB4,"[u'moving_company', u'storage', u'point_of_interest', u'establishment']"
0,43.5259604,5.3977842,Aixper13,ChIJrRogVkiNyRIRT35uoqY3eGY,"[u'plumber', u'general_contractor', u'electrician', u'car_repair', u'point_of_interest', u'establishment']"
0,43.5283527,5.4063907,Azur Paie,ChIJ1VBDZ0eNyRIRob2gBVtRv0M,"[u'point_of_interest', u'establishment']"
0,43.5271784,5.4048014,Loc Habitat,ChIJX4t4SQuNyRIRxM4mszFZFZ8,"[u'point_of_interest', u'establishment']"
0,43.5259604,5.3977842,Ostinato,ChIJrRogVkiNyRIRlpjeA7VCZAU,"[u'point_of_interest', u'establishment']"
0,43.5250075,5.3958037,Finitout's,ChIJ1SltY0uNyRIRAND_qk0z-oI,"[u'general_contractor', u'point_of_interest', u'establishment']"
0,43.528349,5.4061172,Communauté d'Agglomération Pays d'Aix,ChIJ907Pk0eNyRIRMFXY6SbzAus,"[u'local_government_office', u'point_of_interest', u'establishment']"
0,43.5255398,5.3993914,Christian Limar Immo,ChIJP9ErX0mNyRIRhZGEGyGoEnI,"[u'real_estate_agency', u'point_of_interest', u'establishment']"
0,43.527701,5.404818,Sonuts,ChIJ4zBkw0eNyRIRP3Baoi6wfPk,"[u'point_of_interest', u'establishment']"
0,43.5024315,5.3625516,Grand Sud,ChIJQxv3eRbtyRIRmCVYKX_yVBw,"[u'neighborhood', u'political']"
0,43.528349,5.4061172,C.G.L. (Compagnie Générale de Location),ChIJ907Pk0eNyRIRsJPgLxBKuX4,"[u'finance', u'point_of_interest', u'establishment']"
0,43.527558,5.40484,Sopeach,ChIJOeDOqZWNyRIRDXnkwXHgHuk,"[u'point_of_interest', u'establishment']"
0,43.5276948,5.4048229,Académies Aixoises,ChIJ20Ty20eNyRIRfhCR0Cz25ko,"[u'point_of_interest', u'establishment']"
0,43.527304,5.4051758,HQM - Formation prise de parole en public - Aix en Provence (13),ChIJX45gxkeNyRIRY653587CVXs,"[u'point_of_interest', u'establishment']"
0,43.527697,5.40536,HAD Clara Schumann,ChIJl1ktD_yNyRIRCRlHwLjrSRw,"[u'hospital', u'point_of_interest', u'establishment']"
0,43.5219006,5.3984511,Renault Christian,ChIJKfZJzk2NyRIRG46ADhxVbq8,"[u'point_of_interest', u'establishment']"
0,43.5274101,5.4062812,roadzilla,ChIJhW6RukeNyRIRueBPBBWvqcw,"[u'car_repair', u'store', u'point_of_interest', u'establishment']"
0,43.52857,5.406014,Bouygues Immobilier Espace de Vente Aix-en-Provence,ChIJnXzpjUeNyRIR8GKviAql0i8,"[u'general_contractor', u'point_of_interest', u'establishment']"
0,43.5267364,5.406702,Spark Motorsport,ChIJQbZUU0aNyRIRasOIbhKVWbw,"[u'car_repair', u'point_of_interest', u'establishment']"
0,43.524787,5.389039,Centre International des Arts en Mouvement,ChIJ0a91_LPyyRIRmyqunTn-15U,"[u'point_of_interest', u'establishment']"
0,43.530279,5.408882,Docteur Janine Sanchez,ChIJq222XD6NyRIRWfN_fHyaSG0,"[u'doctor', u'health', u'point_of_interest', u'establishment']"
0,43.5238603,5.4092345,GARAGE LA THUMINE AIX EN PROVENCE,ChIJBeFrBESNyRIRqKIj6mKp7qc,"[u'car_repair', u'point_of_interest', u'establishment']"
0,43.5315835,5.4084783,mod'a liza,ChIJC-I0-jiNyRIRwA2KM9rXRjY,"[u'point_of_interest', u'establishment']"
0,43.528349,5.4061172,Hamon Jean-François,ChIJ4wl3SQuNyRIR__NOjrmkqBI,"[u'point_of_interest', u'establishment']"
0,43.529498,5.4104776,Cameleopix,ChIJI6kgWz-NyRIR5VdikUIuBfs,"[u'point_of_interest', u'establishment']"
0,43.5238015,5.4001638,Svec Suzanne Svec Helene,ChIJFX43uU6NyRIRhw5elfS02jY,"[u'point_of_interest', u'establishment']"
0,43.5231024,5.4046402,Bourquardez Michel,ChIJ4ZcdO0mNyRIRoa1qwROlMH4,"[u'point_of_interest', u'establishment']"
0,43.5244442,5.396409,Cohen Hubert,ChIJgdErX0mNyRIRqeq9OpfldHw,"[u'point_of_interest', u'establishment']"
0,43.5259604,5.3977842,Garage La Petite Molière,ChIJ52MgVkiNyRIRRwejlIQ0udc,"[u'car_repair', u'point_of_interest', u'establishment']"
0,43.5259604,5.3977842,Monsieur Richard Equoy,ChIJ52MgVkiNyRIRMwrQEXXDmsM,"[u'electrician', u'point_of_interest', u'establishment']"
0,43.5259604,5.3977842,Soler Jean-Yves,ChIJvV_fv0uNyRIReamg0PSa4JY,"[u'point_of_interest', u'establishment']"
0,43.525526,5.3988428,Zanella Rolande,ChIJAWaC40uNyRIRnUN4ee7ru_I,"[u'accounting', u'finance', u'point_of_interest', u'establishment']"
0,43.5255331,5.3991557,La Petite Moliere,ChIJT7wN4kuNyRIRcTBLK6CStaY,"[u'point_of_interest', u'establishment']"
0,43.5254617,5.3988916,Gomez Francois Alain,ChIJ7WiC40uNyRIREPWMZzQJEt4,"[u'point_of_interest', u'establishment']"
0,43.5254591,5.3988935,SportNBox,ChIJiX6C40uNyRIR65tJb-gWOdY,"[u'point_of_interest', u'establishment']"
0,43.525378,5.3989863,A.a.b.p. Aux Artisans Boulang Patiss la,ChIJs5J040uNyRIRobHGkFh5PWk,"[u'bakery', u'food', u'store', u'point_of_interest', u'establishment']"
0,43.5253053,5.3988428,Sainte Beaume,ChIJu3hG40uNyRIRUGEc0KCB15M,"[u'point_of_interest', u'establishment']"
0,43.5253053,5.3988428,Souvelain Jean-Luc,ChIJu3hG40uNyRIRl6f9x5Ao3BA,"[u'point_of_interest', u'establishment']"
0,43.527015,5.4021735,Blanchard Jean-Claude,ChIJlw8gVkiNyRIRT7gAQXkwizw,"[u'general_contractor', u'point_of_interest', u'establishment']"
0,43.5290439,5.4016105,L'Immobilière d'à Côté,ChIJ_RWF00mNyRIRdVkUKy_kQ9s,"[u'point_of_interest', u'establishment']"
0,43.5244442,5.396409,Acanoki,ChIJgdErX0mNyRIRcPxGM2u0-jU,"[u'point_of_interest', u'establishment']"
0,43.5260164,5.3934932,La Molière,ChIJU0ad5bPyyRIRS5T14RDmmAs,"[u'point_of_interest', u'establishment']"
0,43.5301331,5.4024198,Vidal Jean-François,ChIJyQsNrTeNyRIR2dk-qboD1ro,"[u'point_of_interest', u'establishment']"
0,43.5225721,5.3992238,Les Amis D Albiolo,ChIJby2_9ajyyRIR9LQ4_aEmXN8,"[u'point_of_interest', u'establishment']"
0,43.5225721,5.3992238,Souyri Eric,ChIJxY0sPqzyyRIRiwj5RPfGJTs,"[u'point_of_interest', u'establishment']"
0,43.5225721,5.3992238,Godard Xavier Marie,ChIJ-22gFazyyRIRRf4OrgetaRw,"[u'point_of_interest', u'establishment']"
0,43.5315092,5.3993346,Ma Cuisine & Co,ChIJKQbeeDaNyRIRCiXc3GTj5J0,"[u'point_of_interest', u'establishment']"
0,43.5469257,5.3871144,Set Club,ChIJU2abgDaNyRIRd8JsOhu0T5E,"[u'store', u'point_of_interest', u'establishment']"
0,43.546937,5.3870503,Planète Forme,ChIJ-7zBWtTyyRIRhBw1N3hNI0k,"[u'gym', u'physiotherapist', u'beauty_salon', u'spa', u'health', u'point_of_interest', u'establishment']"
0,43.5436098,5.4051954,Institute Des Parons,ChIJST8pUi-NyRIRLtJP6FLdyw4,"[u'health', u'point_of_interest', u'establishment']"
0,43.5470341,5.3959076,Nogues Marie-Françoise,ChIJ0UBM9iqNyRIRcl2D26x_iss,"[u'health', u'point_of_interest', u'establishment']"
0,43.5436377,5.4083628,Borghino Michel Max,ChIJ-XeTxb3yyRIRENXl6bd5Djk,"[u'point_of_interest', u'establishment']"
0,43.546937,5.3870503,SET SQUASH,ChIJ-7zBWtTyyRIRHdNskHJb1FA,"[u'point_of_interest', u'establishment']"
0,43.5445223,5.4012293,Etholia,ChIJUUEnJSmNyRIR_KelLCshTiM,"[u'hardware_store', u'store', u'point_of_interest', u'establishment']"
0,43.5499718,5.3962269,PROVENCE EXPLORER,ChIJXwazdNWMyRIRJwTweO15FYU,"[u'travel_agency', u'point_of_interest', u'establishment']"
0,43.543645,5.404425,Les Parons,ChIJpQWqqiiNyRIRqAGohpB5FM8,"[u'sublocality_level_1', u'sublocality', u'political']"
0,43.5445223,5.4012293,pv-pro,ChIJ00HTPi6NyRIROAJS_CbLrFs,"[u'general_contractor', u'point_of_interest', u'establishment']"
0,43.5444343,5.3910031,Cabinet coaching,ChIJhXxVXdTyyRIRGv4VVdmhKoA,"[u'point_of_interest', u'establishment']"
0,43.545422,5.39253,Revier Construction,ChIJAZTP6tTyyRIR3a6ZnOTk4xc,"[u'premise', u'general_contractor', u'point_of_interest', u'establishment']"
0,43.546937,5.3870503,Le Resto d'Eté,ChIJ-7zBWtTyyRIRnkPqzhWDoKk,"[u'point_of_interest', u'establishment']"
0,43.547659,5.388368,Restaurant Le SET,ChIJ16jrFQpz5kcRh2VoplDfAYA,"[u'restaurant', u'food', u'point_of_interest', u'establishment']"
0,43.546937,5.3870503,Set Juniors - Kids holiday camps in Aix,ChIJ-7zBWtTyyRIRt8AGrDU4WOI,"[u'point_of_interest', u'establishment']"
0,43.542065,5.4088599,La jardinière,ChIJFV01trzyyRIRgHRv2knN5y8,"[u'grocery_or_supermarket', u'food', u'store', u'point_of_interest', u'establishment']"
0,43.546937,5.3870503,Set Padel,ChIJ-7zBWtTyyRIRA-AnlMCm30M,"[u'point_of_interest', u'establishment']"
0,43.547427,5.3873214,LE CLUB,ChIJ-7zBWtTyyRIRJbiK-KCyO5c,"[u'point_of_interest', u'establishment']"
0,43.546937,5.3870503,Aix Set Bridge,ChIJ-7zBWtTyyRIRs4GcEL37te0,"[u'point_of_interest', u'establishment']"
0,43.546937,5.3870503,Boschatel Florian Ostéopathe,ChIJ8QnDWtTyyRIRofRQyKOeXwk,"[u'health', u'point_of_interest', u'establishment']"
0,43.546937,5.3870503,Banaceur Jerome,ChIJ-7zBWtTyyRIRO_RislxOwE4,"[u'point_of_interest', u'establishment']"
0,43.546937,5.3870503,Set Tennis,ChIJSafDWtTyyRIROzvGuWUPGs8,"[u'point_of_interest', u'establishment']"
0,43.546937,5.3870503,Verlaque,ChIJSafDWtTyyRIRy9CTC_vq138,"[u'point_of_interest', u'establishment']"
0,43.5414247,5.3965831,Sci Colomba,ChIJRduUeyyNyRIR4eFElrda9eA,"[u'real_estate_agency', u'point_of_interest', u'establishment']"
0,43.54506,5.4009506,Puech Vincent Sebastien,ChIJ3Ys3FimNyRIRaDYdURECEYQ,"[u'travel_agency', u'point_of_interest', u'establishment']"
0,43.5449706,5.3990048,13090,ChIJy6nw4CuNyRIRXZ6Xh00r6Ho,"[u'health', u'point_of_interest', u'establishment']"
0,43.5457388,5.3970697,Sci Achy,ChIJsQvxriuNyRIRpehIHeLKMgw,"[u'real_estate_agency', u'point_of_interest', u'establishment']"
0,43.54506,5.4009506,Joannot Edmond,ChIJ3Ys3FimNyRIRH4zSv_G_rWg,"[u'point_of_interest', u'establishment']"
0,43.54506,5.4009506,Puech Pere Et Fils,ChIJ3Ys3FimNyRIRwb_rk9qyCiI,"[u'finance', u'point_of_interest', u'establishment']"
0,43.5451286,5.3959683,Aillaud Jean Daniel,ChIJp96QciuNyRIRFQZoQ1Yq-nU,"[u'point_of_interest', u'establishment']"
0,43.5435867,5.3967762,Karouby Thierry,ChIJV39PfCyNyRIRMKzsTu7GV0M,"[u'department_store', u'store', u'point_of_interest', u'establishment']"
0,43.5435867,5.3967762,Guignard Bosio Elise Charlotte,ChIJCwJ5qi2NyRIRR8-ZzF0jTTs,"[u'real_estate_agency', u'point_of_interest', u'establishment']"
0,43.535109,5.416356,MAIF,ChIJ35MmIhaNyRIRvfj84QzojGw,"[u'insurance_agency', u'health', u'point_of_interest', u'establishment']"
0,43.5350015,5.4111857,LCL,ChIJR7qZajyNyRIRSZL5Hclh6Bo,"[u'bank', u'atm', u'finance', u'point_of_interest', u'establishment']"
0,43.5346413,5.4110484,Société Générale,ChIJJWFBPjyNyRIR4OHytK9qjyY,"[u'bank', u'atm', u'finance', u'point_of_interest', u'establishment']"
0,43.532285,5.410594,Stage Reïki,ChIJ3Zpzxz6NyRIRVdfoBnms4XE,"[u'health', u'point_of_interest', u'establishment']"
0,43.5350361,5.4109634,Domino's Pizza Aix-en-Provence,ChIJR7qZajyNyRIRjQVOPScglc4,"[u'restaurant', u'food', u'point_of_interest', u'establishment']"
0,43.53406,5.415862,Goût de Pain Aix Jas de Bouffan,ChIJ1dHsAZiNyRIR3guIiMjC_LY,"[u'bakery', u'restaurant', u'food', u'store', u'point_of_interest', u'establishment']"
0,43.534883,5.410999,Zazai,ChIJR7qZajyNyRIRlJ2bX493hhM,"[u'restaurant', u'food', u'point_of_interest', u'establishment']"
0,43.532372,5.410696,Elodie Giraud ostéopathe D.O. Aix-en-Provence - ostéopathie douce,ChIJMRSuwD6NyRIRVQW4kyrwW4I,"[u'health', u'point_of_interest', u'establishment']"
0,43.5386682,5.4108847,Clinique Vétérinaire Karukéra,ChIJcyklWSONyRIRDVXowUB4_0o,"[u'veterinary_care', u'point_of_interest', u'establishment']"
0,43.5352539,5.4173747,Centre Auto Feu Vert Aix en Provence,ChIJ70yvwBONyRIRy6ZZOjcsUEM,"[u'car_repair', u'electronics_store', u'local_government_office', u'store', u'point_of_interest', u'establishment']"
0,43.5341494,5.4152676,Saint Mitre Immobilier,ChIJK1HaDhaNyRIRHYGb5cRXmS0,"[u'real_estate_agency', u'point_of_interest', u'establishment']"
0,43.534553,5.410732,Quick,ChIJv_-J3j2NyRIROkbUoEb86zI,"[u'restaurant', u'food', u'point_of_interest', u'establishment']"
0,43.5341494,5.4152676,Amazonite,ChIJCVfaDhaNyRIRMvJo-yQGhD8,"[u'point_of_interest', u'establishment']"
0,43.5337172,5.4194356,Casino Drive,ChIJq6qqqjqNyRIR9ancmNV9DKg,"[u'grocery_or_supermarket', u'food', u'store', u'point_of_interest', u'establishment']"
0,43.5350103,5.410931,coiff and co,ChIJR7qZajyNyRIRCfnqDStgnUU,"[u'hair_care', u'point_of_interest', u'establishment']"
0,43.534315,5.412617,"LABOSUD provence biologie, Laboratoire de biologie médicale O.Chapelle",ChIJKQpACD6NyRIR5tCzhDksTmM,"[u'health', u'point_of_interest', u'establishment']"
0,43.5322816,5.4107808,Aix Martial Arts Yiseishindo -,ChIJoTMLxz6NyRIRn4P7cqsJGDc,"[u'health', u'point_of_interest', u'establishment']"
0,43.532511,5.41067,massages bien être,ChIJMRSuwD6NyRIRA9NO-TL_eis,"[u'spa', u'health', u'point_of_interest', u'establishment']"
0,43.535998,5.414621,Tel and Com - Jas de Bouffan,ChIJNRS2QxaNyRIRyPPI7Vm7VOA,"[u'store', u'point_of_interest', u'establishment']"
0,43.5321495,5.4124963,Adis Social Center Les Amandiers,ChIJNy8u7j6NyRIR52YAvb1vIKc,"[u'point_of_interest', u'establishment']"
0,43.5322803,5.4107799,Sud Experts,ChIJWUgdAPKNyRIR1fgTmyObcNM,"[u'accounting', u'finance', u'point_of_interest', u'establishment']"
0,43.5343368,5.4110575,Optic 2000,ChIJG8Rjzj2NyRIRN8xQI5c8Fgk,"[u'health', u'point_of_interest', u'establishment']"
0,43.5319144,5.4127253,Paroisse Saint François d'Assise,ChIJ73q-XD6NyRIRjpoRH1qAcv4,"[u'church', u'place_of_worship', u'point_of_interest', u'establishment']"
0,43.534844,5.416615,Grain de Malice,ChIJP3XIQxaNyRIRtmi35d90WWg,"[u'clothing_store', u'store', u'point_of_interest', u'establishment']"
0,43.5317821,5.4100393,Foyer Delta Sud,ChIJUTYc0T6NyRIRR_O6S-H-UsQ,"[u'point_of_interest', u'establishment']"
0,43.538245,5.415402,Pierre et Construction,ChIJfaoSNzyNyRIRlcIwipUcV0M,"[u'general_contractor', u'point_of_interest', u'establishment']"
0,43.5322803,5.4107799,Krauthammer International (Sa),ChIJVZBwwT6NyRIRZzhMuC5Szac,"[u'point_of_interest', u'establishment']"
0,43.5356508,5.4126576,Orc Communication Corporate Métiers,ChIJyaSp6jyNyRIRZ4fp3skQXdc,"[u'point_of_interest', u'establishment']"
0,43.5329099,5.410785,Salex,ChIJs0BxvD6NyRIR2mxi_pVK7-w,"[u'restaurant', u'food', u'point_of_interest', u'establishment']"
0,43.5371135,5.3855961,JEANSELME PAYSAGE,ChIJkU2KQjONyRIRRXT-kTUa9BQ,"[u'general_contractor', u'point_of_interest', u'establishment']"
0,43.5370305,5.3855544,Micromania,ChIJnRB2Bs_yyRIRFB0VtuuXAbE,"[u'point_of_interest', u'establishment']"
0,43.5368203,5.381852,Gilles JACOULET,ChIJWdufvMXyyRIRPIhnRzWqN44,"[u'point_of_interest', u'establishment']"
0,43.5424952,5.3821984,SARL LVC - Location & Transport,ChIJtw28ZQnzyRIR_8yUAdOWzG8,"[u'car_rental', u'point_of_interest', u'establishment']"
0,43.5410551,5.3795775,Néobat,ChIJxb9WE5mNyRIRTRWp5wVuet8,"[u'point_of_interest', u'establishment']"
0,43.5357723,5.39741,Gimenez Guy,ChIJedTsYTGNyRIRsk23OH5L6Xg,"[u'health', u'point_of_interest', u'establishment']"
0,43.516666,5.408722,VG Emballage,ChIJpSOz25_tyRIR0o5KgK83qbc,"[u'point_of_interest', u'establishment']"
0,43.5183884,5.3922677,Galerie du Lézard,ChIJHwDnLyuNyRIRFXW7rnRhwkQ,"[u'art_gallery', u'point_of_interest', u'establishment']"
0,43.516666,5.408722,Electricite Industrielle J. p. Fauche,ChIJ-S_P05_tyRIRI5J2alj0HVw,"[u'electrician', u'point_of_interest', u'establishment']"
0,43.5107059,5.4024602,Artecasa,ChIJETsI0FeNyRIRnRv6W8_znds,"[u'point_of_interest', u'establishment']"
0,43.5109109,5.4041094,Valcros Services,ChIJdR9O_KmSyRIRqMA_rJG3oMc,"[u'point_of_interest', u'establishment']"
0,43.5109407,5.4042869,Maison de retraite Aix-en-Provence - Les Opalines,ChIJHTiH9leNyRIRP_VtFsk3Kh0,"[u'meal_delivery', u'health', u'food', u'point_of_interest', u'establishment']"
0,43.510002,5.3950471,Société Française d'Habitations Economiques,ChIJ2V7B2IGNyRIR-CR5v5IgW8w,"[u'point_of_interest', u'establishment']"
0,43.5220549,5.4147525,Hotel ibis Styles Aix en Provence Mas des Oliviers,ChIJvYmLRkKNyRIR6qvjCfi0Hno,"[u'lodging', u'restaurant', u'food', u'point_of_interest', u'establishment']"
0,43.521659,5.4151655,Mas des Oliviers,ChIJvYmLRkKNyRIR3CP6WNW912I,"[u'lodging', u'point_of_interest', u'establishment']"
0,43.5274612,5.4133253,Mission Locale du Pays d Aix,ChIJha4rsTvtyRIRnZfJs0cCIiI,"[u'point_of_interest', u'establishment']"
0,43.5254709,5.4113849,pôle emploi Aix Thumine,ChIJM1W7hkGNyRIRkmf3h6gUJhc,"[u'point_of_interest', u'establishment']"
0,43.5262708,5.4138525,Maison Numérique,ChIJ7c2QNECNyRIRDgrQ1AnR8u0,"[u'point_of_interest', u'establishment']"
0,43.5266212,5.4173811,La Poste,ChIJOQ1ScGqNyRIRPaj_sGAHGgY,"[u'post_office', u'finance', u'point_of_interest', u'establishment']"
0,43.5240524,5.412368,itpa : Institut Tertiaire Par Alternance,ChIJeXXVM0KNyRIR0YXUCfQbQJQ,"[u'point_of_interest', u'establishment']"
0,43.5284447,5.4143502,School Joseph D'arbaud,ChIJM1W7hkGNyRIRnuCX1eI_MVI,"[u'school', u'point_of_interest', u'establishment']"
0,43.523114,5.381026,Irce Regional Institute Creation And Development Des Entreprises,ChIJU5a-6LzyyRIRVUnV9DEeArg,"[u'point_of_interest', u'establishment']"
0,43.5251177,5.390614,Hennessy Philippe,ChIJHdRRVkuNyRIRRrK702ZRyY0,"[u'food', u'point_of_interest', u'establishment']"
0,43.5247393,5.3924494,Eloïse Rousseau,ChIJN0bYZrPyyRIRTZmZSxGNKUY,"[u'point_of_interest', u'establishment']"
0,43.5246653,5.3924766,Galice Menuiserie,ChIJIV_YZrPyyRIRQ50RGu2LiaE,"[u'point_of_interest', u'establishment']"
0,43.5300116,5.3917583,Manoyan Jean-Pierre,ChIJ7WiC40uNyRIRPFlyDVr7y_U,"[u'accounting', u'finance', u'point_of_interest', u'establishment']"
0,43.5300116,5.3917583,Alibault Roger,ChIJx4W2g8ryyRIRiRhxcIpMRIM,"[u'point_of_interest', u'establishment']"
0,43.5300116,5.3917583,Bruni,ChIJAWaC40uNyRIR0FL3qdQ-CGU,"[u'point_of_interest', u'establishment']"
0,43.5320899,5.391849,Claveirole Guillaume,ChIJV1x1_cryyRIR71AVOxoH6sc,"[u'painter', u'point_of_interest', u'establishment']"
0,43.5319114,5.3949548,Vigoureux Franck,ChIJN66zJjWNyRIRPHeI0J3veuo,"[u'point_of_interest', u'establishment']"
0,43.526116,5.380688,COGIME,ChIJRYSo9rPyyRIRkTY0Y088daY,"[u'point_of_interest', u'establishment']"
0,43.5347172,5.3898755,Leonelli Barthelemy,ChIJNe6KCszyyRIRE9THcSh1I4s,"[u'food', u'point_of_interest', u'establishment']"
0,43.5348342,5.3904346,Intronati Omar,ChIJx5gpdMzyyRIRLOPVq9yUjEU,"[u'plumber', u'point_of_interest', u'establishment']"
0,43.5316342,5.3985986,Silvy Marie-Lise,ChIJEzDp0TWNyRIRVPZ2dL6k0Xk,"[u'health', u'point_of_interest', u'establishment']"
0,43.535081,5.392115,unnamed,ChIJZ838mszyyRIRlOkNawT4cdE,"[u'point_of_interest', u'establishment']"
0,43.5351537,5.3923339,Les Vignerons De Granet,ChIJC8zymczyyRIR6t1N9LnEIoY,"[u'point_of_interest', u'establishment']"
0,43.5315092,5.3993346,Bisson Patrick,ChIJKQbeeDaNyRIR4_Tjs-MEBp0,"[u'point_of_interest', u'establishment']"
0,43.5351946,5.3923827,Roche Jean-Francois Alain Julien,ChIJ-bzlmczyyRIRBnvBDSpdkGM,"[u'doctor', u'health', u'point_of_interest', u'establishment']"
0,43.531571,5.3995641,Crèches Multi-Accueils,ChIJ-ZfeezaNyRIR_uyW16mWPVI,"[u'point_of_interest', u'establishment']"
0,43.531571,5.3995641,Lecuyer Etanchéité,ChIJ-ZfeezaNyRIRVlnwN4652U4,"[u'general_contractor', u'point_of_interest', u'establishment']"
0,43.535709,5.389971,13090,ChIJv7jGFMzyyRIR286gvdxiYJo,"[u'church', u'place_of_worship', u'point_of_interest', u'establishment']"
0,43.5357374,5.3900773,De Cormis D Everlange Anne Francoise,ChIJy5vCaszyyRIRmK8GZ7kx420,"[u'point_of_interest', u'establishment']"
0,43.5183881,5.3921064,Pioline et Pourceaugnac,ChIJq2NZGq3yyRIR-EI3DJP28rw,"[u'lodging', u'point_of_interest', u'establishment']"
0,43.531465,5.4001881,Lafrogne Patrick,ChIJdS_VZTaNyRIRyBUV5D3DnUM,"[u'point_of_interest', u'establishment']"
0,43.5555781,5.3911379,Le 610,ChIJX5PIWSzzyRIR_TPDiDPfL7g,"[u'point_of_interest', u'establishment']"
0,43.5573345,5.3983651,Hot Brass,ChIJy_QLY9qMyRIR2quelLnp1_8,"[u'night_club', u'bar', u'point_of_interest', u'establishment']"
0,43.5563277,5.4024535,Clinique Les Feuillades,ChIJpefBac2MyRIR3SPCWMSDB8o,"[u'health', u'point_of_interest', u'establishment']"
0,43.5569541,5.4044527,Centre De Sibourg,ChIJpefBac2MyRIRdJqjsPD7mfc,"[u'hospital', u'point_of_interest', u'establishment']"
0,43.5522472,5.408317,Une Roulotte en Provence,ChIJAf2SadmMyRIRk54mkyACrMA,"[u'lodging', u'point_of_interest', u'establishment']"
0,43.5569541,5.4044527,Manger Attitude Feuillades,ChIJpefBac2MyRIR-O7B237BiPI,"[u'point_of_interest', u'establishment']"
0,43.556531,5.39942,Active Diag13 Diagnostics Immobilier au meilleur prix,ChIJwXTriNGMyRIRPm28x8leK8s,"[u'real_estate_agency', u'point_of_interest', u'establishment']"
0,43.5521877,5.3896918,Giusiano Vignerons,ChIJnZc9UyrzyRIRvheBXBT-Ud0,"[u'food', u'point_of_interest', u'establishment']"
0,43.5593331,5.3995376,Ecole pilote TAMA,ChIJG4j6DM6MyRIROdPj1wuTqWQ,"[u'point_of_interest', u'establishment']"
0,43.5563603,5.4027277,Crèche Capucine,ChIJiYlQhNCMyRIRqvcLU6G1HNg,"[u'school', u'point_of_interest', u'establishment']"
0,43.5569541,5.4044527,Creche Attitude Capucine,ChIJwb99oNqMyRIR_WdAZf3mcts,"[u'point_of_interest', u'establishment']"
0,43.5595015,5.3948119,Barrillon Stéfan,ChIJ3df8Rs2MyRIRn_UScOXgBZE,"[u'point_of_interest', u'establishment']"
0,43.5521877,5.3896918,Giusiano Gabriel Jean Matthieu,ChIJnZc9UyrzyRIRa7FPM65Vg8g,"[u'point_of_interest', u'establishment']"
0,43.5599645,5.405207,Girard,ChIJzXDlcMWMyRIRty89bVUQzOQ,"[u'point_of_interest', u'establishment']"
0,43.561463,5.391895,La Maison du Tennispart,ChIJeU8RTjLzyRIRUGs5-ODsT_g,"[u'restaurant', u'bar', u'food', u'point_of_interest', u'establishment']"
0,43.5624736,5.4024311,gilanfo création,ChIJ5TLcM8-MyRIR2ThEKFtH4ss,"[u'point_of_interest', u'establishment']"
0,43.5963366,5.4044268,Plateau de Puyricard,ChIJz9OzrFmLyRIR2fvxP1Ivcno,"[u'neighborhood', u'political']"
0,43.5617178,5.3919431,CALIFORNIA SUSHI & CO. Aix en Provence,ChIJ31rODzPzyRIRjkQWyw-JaNw,"[u'food', u'point_of_interest', u'establishment']"
0,43.5617178,5.3919431,DOMAINE D'AIX (Ex-TennisPart),ChIJK0CWEzPzyRIRLEF2rql2T7o,"[u'meal_delivery', u'restaurant', u'food', u'point_of_interest', u'establishment']"
0,43.5617178,5.3919431,PRESTA EVENTS Aix-en-Provence,ChIJ31rODzPzyRIR0QvyI3jv4XE,"[u'point_of_interest', u'establishment']"
0,43.5617178,5.3919431,FRESH RIVIERA Aix-en-Provence,ChIJ31rODzPzyRIRa2pAN6HBFj0,"[u'restaurant', u'meal_delivery', u'food', u'point_of_interest', u'establishment']"
0,43.5560592,5.4012419,Miretti David Francis,ChIJQYAuqdGMyRIRgPROV830q8s,"[u'general_contractor', u'point_of_interest', u'establishment']"
0,43.557085,5.398654,Le Nino,ChIJI0OOGNKMyRIRlGL6oslQY48,"[u'restaurant', u'food', u'point_of_interest', u'establishment']"
0,43.5573711,5.4007512,Simonin Alain,ChIJa7yVw9GMyRIRbjHv36-03Lc,"[u'point_of_interest', u'establishment']"
0,43.5575987,5.4005654,Vanhoutte Mur Anne Carole,ChIJk20g3NGMyRIR3jgyok4F6EQ,"[u'point_of_interest', u'establishment']"
0,43.5534798,5.4038471,Rouabah Rerdine,ChIJJfKWzdGMyRIR7L3VxD3O5pU,"[u'point_of_interest', u'establishment']"
0,43.558153,5.4002286,Sauvat Sebastien Thierry,ChIJc_UoHs6MyRIRCskVeinZtSM,"[u'point_of_interest', u'establishment']"
0,43.5490587,5.3972303,Sci G5 Ms,ChIJdx0ihtWMyRIR7wyO0rY3hZc,"[u'real_estate_agency', u'point_of_interest', u'establishment']"
0,43.5592314,5.3999258,Amci Protection,ChIJ6drvEs6MyRIRsNyxsD7qN34,"[u'point_of_interest', u'establishment']"
0,43.5589509,5.3958782,Sci Saint-Jean,ChIJJfKWzdGMyRIRtqHxJvz35OQ,"[u'real_estate_agency', u'point_of_interest', u'establishment']"
0,43.5593331,5.3995376,Ohanian,ChIJG4j6DM6MyRIRQ82DsoC2iko,"[u'point_of_interest', u'establishment']"
0,43.5589609,5.4016985,Peirone Yves,ChIJqYw8zM-MyRIR4_m9cCJnMrE,"[u'accounting', u'finance', u'point_of_interest', u'establishment']"
0,43.550036,5.3932079,Jorand Noel Marie Christine Raphaele,ChIJ-4ZIuCrzyRIR7nJeSWN_45k,"[u'health', u'point_of_interest', u'establishment']"
0,43.5569162,5.4062015,Saffy Romain,ChIJofKlw9qMyRIR-uitECtKslw,"[u'point_of_interest', u'establishment']"
0,43.555973,5.4072125,Grivot Jeannerot Veronique Marie,ChIJG3V9mdyMyRIRRYaqFmWcgrY,"[u'point_of_interest', u'establishment']"
0,43.5477978,5.3963895,Polverel Coline,ChIJ-SiyiyqNyRIROatdW4qmi8w,"[u'point_of_interest', u'establishment']"
0,43.5476041,5.3956839,S.c.e.f.,ChIJoSU6kyqNyRIR9Qq_5IqsF4k,"[u'point_of_interest', u'establishment']"
0,43.5610111,5.3998374,Saint-Martin Verguetiers,ChIJHSeehc6MyRIRTxDkw5P6AWU,"[u'real_estate_agency', u'point_of_interest', u'establishment']"
0,43.5601172,5.4037081,Scopa,ChIJa-wAf8-MyRIR1i7VqcH4oz0,"[u'point_of_interest', u'establishment']"
0,43.5473038,5.4010798,Sarl Manfredi,ChIJ84pUuCmNyRIR7UQ9cSnvXGI,"[u'general_contractor', u'point_of_interest', u'establishment']"
0,43.5502839,5.3902127,Gilbert Marie Christine,ChIJSS1_airzyRIRdsuSlZ5kOU4,"[u'point_of_interest', u'establishment']"
0,43.5584543,5.4065594,Medvedowski Alexandre,ChIJo2x2L8WMyRIRTvJ0fJ4J148,"[u'point_of_interest', u'establishment']"
0,43.5471641,5.3960033,Aix.tra.bat,ChIJG49K8CqNyRIRjoazPjjDCKQ,"[u'point_of_interest', u'establishment']"
0,43.559738,5.4049371,Lmc-immo,ChIJj5nycMWMyRIRP96hL5rKcUA,"[u'real_estate_agency', u'point_of_interest', u'establishment']"
0,43.5521811,5.4082635,Hiebel Nogues Sophie,ChIJ8fuSadmMyRIRtjGjXwmVwC0,"[u'point_of_interest', u'establishment']"
0,43.5470341,5.3959076,Soins Nogues Zayan,ChIJ0UBM9iqNyRIR9UpsoAc_SvE,"[u'point_of_interest', u'establishment']"
0,43.5470189,5.4012795,Millet Florence,ChIJVUXbsCmNyRIRzLSxCKzxeWM,"[u'real_estate_agency', u'point_of_interest', u'establishment']"
0,43.5600535,5.4049417,Bouze Philip Patrick Henri,ChIJCYIYzM-MyRIRkPk9kO7-Ozo,"[u'furniture_store', u'home_goods_store', u'store', u'point_of_interest', u'establishment']"
0,43.5600535,5.4049417,Bouze Vittorio,ChIJj5nycMWMyRIRskI4Df6-8wc,"[u'general_contractor', u'point_of_interest', u'establishment']"
0,43.5468811,5.401297,Picca Laurent,ChIJiwlOsCmNyRIRn12VZl_-WSo,"[u'general_contractor', u'point_of_interest', u'establishment']"
0,43.5508414,5.3889956,Marie-Cécile Gauguin,ChIJ4TVkJCrzyRIR25NEIAXtuLc,"[u'health', u'point_of_interest', u'establishment']"
0,43.5508356,5.3889909,Ibars Serra Feliu,ChIJ_19vJirzyRIRhzzmA62fWM8,"[u'point_of_interest', u'establishment']"
0,43.5577279,5.4081293,Jablonski Pierrick,ChIJzXfuNNuMyRIR5grUtI96evk,"[u'electrician', u'point_of_interest', u'establishment']"
0,43.5619469,5.4010771,Conseil Strat Financier St Martin,ChIJS7Yiw86MyRIRkA77iFcJ77Y,"[u'point_of_interest', u'establishment']"
0,43.5605052,5.3918274,Vegi Union,ChIJDXlY-jLzyRIRjFCBEBSYGxI,"[u'point_of_interest', u'establishment']"
0,43.5619657,5.4010576,Chardiny Marie Michele,ChIJtTrr3M6MyRIRf5-GgWPX2LM,"[u'point_of_interest', u'establishment']"
0,43.5619657,5.4010576,Michel Dominique,ChIJtTrr3M6MyRIRjac-gNgI2yg,"[u'point_of_interest', u'establishment']"
0,43.5517888,5.412493,Les Arnauds - Chambres d'hôtes - Bed and breakfast,ChIJZbYF3d6MyRIR0z8wY5o7ZW8,"[u'lodging', u'point_of_interest', u'establishment']"
0,43.5477726,5.4159486,La Campagne Vaissade,ChIJeyKX4R-NyRIR3-jEwNVg_B0,"[u'lodging', u'point_of_interest', u'establishment']"
0,43.544817,5.41036,Gueirard,ChIJnX7wOSGNyRIRYDI7_-c_TQc,"[u'sublocality_level_1', u'sublocality', u'political']"
0,43.5475085,5.4130494,caroline boyer | Artiste | photographe |,ChIJZVdd596MyRIRGihEFJtky5g,"[u'point_of_interest', u'establishment']"
0,43.5411408,5.4136621,Azoé,ChIJdd44ZyKNyRIReaehXV-F18o,"[u'point_of_interest', u'establishment']"
0,43.5477784,5.4158433,Grauer Guillaume,ChIJ8QaX4R-NyRIRq0KBrNZfLUU,"[u'furniture_store', u'home_goods_store', u'store', u'point_of_interest', u'establishment']"
0,43.5433582,5.4165096,Fleurs des Champs,ChIJpwddMR-NyRIR4eF-4nCT0kQ,"[u'point_of_interest', u'establishment']"
0,43.5390362,5.4117899,Scanaix : scanner vétérinaire,ChIJW4adLyONyRIRFqZ8F7dtL0s,"[u'veterinary_care', u'point_of_interest', u'establishment']"
0,43.5385914,5.4110124,TOP GARAGE,ChIJCzRdNSONyRIR5ZfD3KoJcwg,"[u'car_repair', u'point_of_interest', u'establishment']"
0,43.5444446,5.41959,Eti concept,ChIJqU7Hmx6NyRIR3C7EGYh4GVs,"[u'point_of_interest', u'establishment']"
0,43.5468771,5.4195057,Pardos Marketing,ChIJbalxER6NyRIR_ofF1YgU3gY,"[u'point_of_interest', u'establishment']"
0,43.5364597,5.4100489,Clara Onuki Chef à Domicile,ChIJh9mmhjyNyRIRVUzCM_2KQgc,"[u'food', u'point_of_interest', u'establishment']"
0,43.5402227,5.4071013,Cerutti Raymond,ChIJhQwc4iSNyRIROabU4_kGOpk,"[u'furniture_store', u'home_goods_store', u'store', u'point_of_interest', u'establishment']"
0,43.5443263,5.4106571,Audinet Bermond Janine,ChIJZYczQSGNyRIRcsZsZy0Khzo,"[u'point_of_interest', u'establishment']"
0,43.5478372,5.4074471,Aix Toitures,ChIJm3oGeyeNyRIRFN1cQqQ-6J8,"[u'point_of_interest', u'establishment']"
0,43.542093,5.4089778,Deloche Cecile,ChIJ6f96bSSNyRIRc-3vGl5R4uQ,"[u'point_of_interest', u'establishment']"
0,43.542065,5.4088599,Seimandi Gerard,ChIJkzhNsbzyyRIRItY9dpq1K4s,"[u'point_of_interest', u'establishment']"
0,43.542093,5.4089778,IRCE Jean-Marc,ChIJ6f96bSSNyRIRSn9R4gUf_wo,"[u'point_of_interest', u'establishment']"
0,43.5422461,5.4052606,Picca Antoine,ChIJRWxrkyWNyRIRRwQjfYQbsGo,"[u'point_of_interest', u'establishment']"
0,43.5423541,5.4048229,La Ruche Qui Dit Oui - Aix-en-Provence,ChIJ-8s6fiWNyRIRWsrOHrvbEF0,"[u'food', u'store', u'point_of_interest', u'establishment']"
0,43.5485978,5.4077831,Bio Invest's,ChIJ1_zlfdiMyRIRDXy-z37anTM,"[u'point_of_interest', u'establishment']"
0,43.5429903,5.4115103,Magrone Laure,ChIJF_XD2yONyRIR2e3FEzElijc,"[u'point_of_interest', u'establishment']"
0,43.548517,5.38066,Cabaret La Figonette,ChIJz0zT9NjyyRIR2omCAwd6FpE,"[u'bar', u'restaurant', u'food', u'point_of_interest', u'establishment']"
0,43.5686589,5.354234,Éguilles,ChIJ3f6pBw3zyRIR6gAWHy_Esjw,"[u'locality', u'political']"
0,43.5435835,5.3795577,dentalaix,ChIJWecwldvyyRIRM3XIsSJ1QrU,"[u'point_of_interest', u'establishment']"
0,43.5532296,5.3852223,Confection de Stores,ChIJB9d1xCjzyRIRdQUuAMOswJQ,"[u'furniture_store', u'home_goods_store', u'store', u'point_of_interest', u'establishment']"
0,43.5477056,5.3800789,Opale,ChIJM6Y59tjyyRIRsGfxjNaq1F8,"[u'finance', u'point_of_interest', u'establishment']"
0,43.5453563,5.3905197,Assistance Formation Prévention Sécurité,ChIJV-NjaNTyyRIRqmoEonq0Y7A,"[u'point_of_interest', u'establishment']"
0,43.5454639,5.3907946,Faravel Pierre Prospection,ChIJV2NVXdTyyRIRJy6XSzlACPs,"[u'point_of_interest', u'establishment']"
0,43.5439007,5.3902859,Broche Martine Marcelle,ChIJoy45jNPyyRIRFplaopbMMu0,"[u'point_of_interest', u'establishment']"
0,43.546294,5.391834,13090,ChIJgfJ4-9TyyRIR02uL3Wphlg0,"[u'point_of_interest', u'establishment']"
0,43.546937,5.3870503,Norme France,ChIJSafDWtTyyRIR_Nw3x2UC5uU,"[u'finance', u'point_of_interest', u'establishment']"
0,43.546937,5.3870503,AD Sport Conseil,ChIJ-7zBWtTyyRIRVYgMWlDV9dI,"[u'store', u'point_of_interest', u'establishment']"
0,43.546937,5.3870503,Lacaze & Leconte Real Estate,ChIJVXHEWtTyyRIRL94UmMT6urM,"[u'real_estate_agency', u'point_of_interest', u'establishment']"
0,43.546937,5.3870503,Nicot Florian,ChIJ-7zBWtTyyRIRpE-MfLGrjZA,"[u'point_of_interest', u'establishment']"
0,43.546937,5.3870503,Planete Sante,ChIJSafDWtTyyRIRVMFQxZ1PQV8,"[u'point_of_interest', u'establishment']"
0,43.546937,5.3870503,Sarl Attis Gerard,ChIJSafDWtTyyRIRnjiNcYNk61o,"[u'point_of_interest', u'establishment']"
0,43.54607,5.3930563,Radio Television Provence Association,ChIJE8oS29TyyRIR_Ty3Iq3XoJw,"[u'point_of_interest', u'establishment']"
0,43.5474789,5.3922933,Giannetti Jean,ChIJF8pWEdXyyRIR0MrlxGD4V-4,"[u'point_of_interest', u'establishment']"
0,43.5462199,5.3949265,Azzopardy Georges,ChIJOZTkDyuNyRIRlkyv_cxYkXM,"[u'real_estate_agency', u'point_of_interest', u'establishment']"
0,43.5405489,5.3915433,Heller Marc,ChIJOTX0itLyyRIRKJrKaLi7Z0c,"[u'point_of_interest', u'establishment']"
0,43.546553,5.382974,Départ n°1,ChIJR7NQ0NnyyRIRgHM9zVKpkJ8,"[u'point_of_interest', u'establishment']"
0,43.5301245,5.4258487,Appart'hôtel Odalys Le Clos de la Chartreuse,ChIJg1d1Ug2NyRIRBAITCG5Ir_M,"[u'lodging', u'point_of_interest', u'establishment']"
0,43.532854,5.425447,Planetarium Peiresc,ChIJZ9oQUHGNyRIRH0KepK_ZFV4,"[u'point_of_interest', u'establishment']"
0,43.5315579,5.4196519,Middle School Château Double,ChIJFerOgRONyRIRMPU01DWJAxM,"[u'school', u'point_of_interest', u'establishment']"
0,43.535998,5.4146219,Brédasque,ChIJXxpFfz2NyRIRffL7sPFBHQA,"[u'sublocality_level_1', u'sublocality', u'political']"
0,43.5336472,5.4191566,Burton,ChIJkU2KQjONyRIRHsOHFkxgiVQ,"[u'clothing_store', u'store', u'point_of_interest', u'establishment']"
0,43.5319177,5.4183782,Caisse d'Epargne Aix Jas de Bouffan,ChIJM9I_7juNyRIRCWTO2Q7nXho,"[u'bank', u'atm', u'finance', u'point_of_interest', u'establishment']"
0,43.5306129,5.4190329,VTF Aix en Provence,ChIJCSHK8RSNyRIRiLVCTPAYC3U,"[u'travel_agency', u'point_of_interest', u'establishment']"
0,43.5329449,5.4229455,Parc Saint-Mitre,ChIJR_lXJxKNyRIRQQMbi5ftVYs,"[u'park', u'point_of_interest', u'establishment']"
0,43.5298708,5.4246551,Météo-France,ChIJk4RXyBKNyRIRcxLWrNDcvIE,"[u'point_of_interest', u'establishment']"
0,43.5338105,5.4186265,Courir,ChIJq6qqqjqNyRIRXunUH4bVpzM,"[u'shoe_store', u'store', u'point_of_interest', u'establishment']"
0,43.533076,5.420314,Pharmacie Louvier,ChIJ-6LxMRSNyRIRvdaePxIZNn0,"[u'pharmacy', u'health', u'store', u'point_of_interest', u'establishment']"
0,43.53024,5.4196133,"Dr Renaud Desouches,chirurgien dentiste; orthodontiste qualifié",ChIJGX7nmhSNyRIR3aD2qGrrVIU,"[u'dentist', u'health', u'point_of_interest', u'establishment']"
0,43.532866,5.418669,Cache Cache,ChIJq6qqqjqNyRIRsZxCrF7XsDg,"[u'clothing_store', u'store', u'point_of_interest', u'establishment']"
0,43.5295188,5.4139239,Mairie Annexe du Jas de Bouffan,ChIJDx0o7D-NyRIRsCa3UT3lSLc,"[u'city_hall', u'local_government_office', u'point_of_interest', u'establishment']"
0,43.53305,5.4173,MIM,ChIJkU2KQjONyRIRe8xCpJN72nA,"[u'clothing_store', u'store', u'point_of_interest', u'establishment']"
0,43.5293728,5.4146184,Aix-Infirmier Cédric Laforet,ChIJuyHaVxWNyRIR5JOG1vTtrDM,"[u'doctor', u'health', u'point_of_interest', u'establishment']"
0,43.527914,5.418201,Maison méditerranéenne des sciences de l'homme,ChIJUQuiyxSNyRIR36xpCWdvcD8,"[u'university', u'point_of_interest', u'establishment']"
0,43.532853,5.420025,Rapid Services by MB Serrurerie,ChIJl-uPNxSNyRIRIogUJ6bwTXI,"[u'locksmith', u'store', u'point_of_interest', u'establishment']"
0,43.5347465,5.4225185,School Sainte Genevieve,ChIJZThMvhGNyRIRIL-r_aBDRMk,"[u'school', u'point_of_interest', u'establishment']"
0,43.5292034,5.4182905,Médecins du Monde,ChIJkU3h2hSNyRIRt2nIEz8yV-8,"[u'point_of_interest', u'establishment']"
0,43.532631,5.4253822,Friends Planetarium,ChIJi-sVoBGNyRIR7CGRhD5bHiU,"[u'point_of_interest', u'establishment']"
0,43.5319706,5.418501,Citron Vert,ChIJY24xXhSNyRIRX0__Gp-Qw5s,"[u'beauty_salon', u'point_of_interest', u'establishment']"
0,43.5327097,5.4213229,DOMAINE PRIVE Architecte d'intérieur,ChIJT-BnxxONyRIRMctJ4MKARfg,"[u'point_of_interest', u'establishment']"
0,43.5396659,5.3765631,Le Clos du Malvallat,ChIJmxvbMMPyyRIR8csCpH87ojw,"[u'lodging', u'point_of_interest', u'establishment']"
0,43.5431643,5.3736748,Adonis Aix-en-Provence Appart'Hôtel,ChIJdwlB7s7yyRIRyjSRrsFMp24,"[u'lodging', u'point_of_interest', u'establishment']"
0,43.533304,5.373537,Terre végétale BONNARDEL,ChIJAS9J0sHyyRIRvskodczA-pE,"[u'general_contractor', u'point_of_interest', u'establishment']"
0,43.5395237,5.3765526,Inn Love,ChIJQfyPpcTyyRIRl4P0F91kSp4,"[u'point_of_interest', u'establishment']"
0,43.5315884,5.3742937,Le jardin de Léa,ChIJO6tQ47_yyRIRKEKxIANdLug,"[u'grocery_or_supermarket', u'food', u'store', u'point_of_interest', u'establishment']"
0,43.5395237,5.3765526,Gîte Platane,ChIJTSIMOsPyyRIR2rhOTXNc9sM,"[u'point_of_interest', u'establishment']"
0,43.5406392,5.3760159,Studio à Deux Pas d'Aix,ChIJe2TZ0NzyyRIRixWmDm0sMIg,"[u'point_of_interest', u'establishment']"
0,43.5335443,5.3726297,Arum Jardins,ChIJUdjFe-ryyRIRSb2ILbfUkhE,"[u'general_contractor', u'point_of_interest', u'establishment']"
0,43.542677,5.373127,Les Jardins d'Athéna,ChIJ1VG2m-fyyRIRt00e4NXyuy0,"[u'lodging', u'point_of_interest', u'establishment']"
0,43.5418686,5.3711294,Les belles d'antan,ChIJ7YnruefyyRIRzA4BULrahvg,"[u'point_of_interest', u'establishment']"
0,43.5386656,5.3798414,Porracchia Hugues Ginette Annie,ChIJCYhxHcXyyRIR-TGcHZXLrO8,"[u'point_of_interest', u'establishment']"
0,43.5370305,5.3855544,Tethis,ChIJnRB2Bs_yyRIREkFfTA72QE8,"[u'clothing_store', u'store', u'point_of_interest', u'establishment']"
0,43.5314462,5.3779601,Juge Pierre,ChIJR1JFjMnyyRIRjObifTqJsmg,"[u'point_of_interest', u'establishment']"
0,43.5412192,5.3787594,Vautrin Francois Daniel,ChIJiV_zXdvyyRIRrcyQ1vkPoto,"[u'point_of_interest', u'establishment']"
0,43.535974,5.387947,safire,ChIJEexvvc7yyRIRawNKm67h7B4,"[u'point_of_interest', u'establishment']"
0,43.5407631,5.3755089,"DreamSuite.Aix Maison Meublé de Tourisme Luxe&Design avec Jardin cloturé et sécurisé, accès Piscine",ChIJm5d6KN3yyRIRlGg8P1BZWRc,"[u'travel_agency', u'park', u'lodging', u'restaurant', u'food', u'point_of_interest', u'establishment']"
0,43.5433739,5.3794184,Société Provencale de Travaux,ChIJjXjJldvyyRIR-jLrmMkGApg,"[u'electrician', u'point_of_interest', u'establishment']"
0,43.5413579,5.3731982,Brasserie Set Home,ChIJx-lVXt3yyRIRBxTKNTN8oPE,"[u'restaurant', u'food', u'point_of_interest', u'establishment']"
0,43.5323113,5.370172,Coutelan Bernard,ChIJG0lkveryyRIRRB0ZSMoMWf8,"[u'point_of_interest', u'establishment']"
0,43.5446325,5.379866,Selarl Hippo Vet'eau,ChIJjwnW3tvyyRIR138nvoY9Dsg,"[u'point_of_interest', u'establishment']"
0,43.5394602,5.3694373,Ferronnerie ASCENSIO,ChIJFYiGk-jyyRIRAPWr-uE_i5g,"[u'point_of_interest', u'establishment']"
0,43.5394602,5.3694373,Vautrin Francois Francois,ChIJFYiGk-jyyRIRVUbopioSJXk,"[u'point_of_interest', u'establishment']"
0,43.537412,5.392694,Proex,ChIJt-NkIs3yyRIRK4UfURLT1Nw,"[u'point_of_interest', u'establishment']"
0,43.5089275,5.4045488,Château de la Pioline,ChIJB7wcyaeSyRIRSEIH-wINotI,"[u'lodging', u'restaurant', u'food', u'point_of_interest', u'establishment']"
0,43.511049,5.390157,Hôtel | Le Mas des Ecureuils ***,ChIJk1LlQFWNyRIRkwAJOzfmntQ,"[u'lodging', u'point_of_interest', u'establishment']"
0,43.506944,5.409168,La Table a Fromages,ChIJga8b3KaSyRIRRHy7oqYbGdw,"[u'restaurant', u'food', u'point_of_interest', u'establishment']"
0,43.5084061,5.4029418,La Grande Récré,ChIJ35W2QqiSyRIRqkBJQT9ZR9Y,"[u'store', u'point_of_interest', u'establishment']"
0,43.5056593,5.3969081,Centre commercial Aix La Pioline,ChIJA2MlfauSyRIRULfZuaF-g3Q,"[u'shopping_mall', u'point_of_interest', u'establishment']"
0,43.507768,5.401888,Cave de La Pioline,ChIJOTTA-6iSyRIRoHTo8InLAIY,"[u'liquor_store', u'food', u'store', u'point_of_interest', u'establishment']"
0,43.5066336,5.4065181,Norauto Aix-En-Provence,ChIJDeFazu6NyRIRLMw3-QMYxNU,"[u'car_repair', u'store', u'point_of_interest', u'establishment']"
0,43.5084334,5.4031217,Dafy Moto,ChIJeSgpXaiSyRIRYdg7LqTBXzc,"[u'car_repair', u'store', u'point_of_interest', u'establishment']"
0,43.5066738,5.3983069,Centre Auto Feu Vert Aix en Provence,ChIJf6hJbqmSyRIRS4gtl1j0iE4,"[u'car_repair', u'electronics_store', u'local_government_office', u'store', u'point_of_interest', u'establishment']"
0,43.5056549,5.3972056,Micromania,ChIJ24F0XKuSyRIReMM60pd96WU,"[u'store', u'point_of_interest', u'establishment']"
0,43.5075569,5.4044474,Peugeot Aix,ChIJ5aaq1qeSyRIR9f_hlRhKobw,"[u'car_dealer', u'car_repair', u'store', u'point_of_interest', u'establishment']"
0,43.5045668,5.3978287,La Cave du Vigneron,ChIJbdgtFaySyRIRaizIxhGgsns,"[u'liquor_store', u'food', u'store', u'point_of_interest', u'establishment']"
0,43.508431,5.406407,Decathlon Aix les Milles,ChIJFejJpqeSyRIRu478XffiKP8,"[u'store', u'point_of_interest', u'establishment']"
0,43.50323,5.3927705,Post Office,ChIJUY9C71LtyRIR4KZDcIu5CvM,"[u'post_office', u'finance', u'point_of_interest', u'establishment']"
0,43.5070909,5.4077462,Castorama,ChIJBeHXVqaSyRIR-IhkOsy2sZ8,"[u'home_goods_store', u'store', u'point_of_interest', u'establishment']"
0,43.5058857,5.3959712,Carrefour,ChIJHfUdm4SNyRIRKXQtgwOeioo,"[u'grocery_or_supermarket', u'food', u'store', u'point_of_interest', u'establishment']"
0,43.5081483,5.404882,Botanic® Aix en Provence,ChIJS5q6F6eSyRIRWKJfMZ5R2ig,"[u'store', u'point_of_interest', u'establishment']"
0,43.507383,5.399255,Ford Aix Automobiles,ChIJUQY6famSyRIR-GSHZU8oxVk,"[u'car_dealer', u'car_repair', u'store', u'point_of_interest', u'establishment']"
0,43.5073896,5.3996668,BNP Paribas - Aix La Pioline,ChIJtShjcqmSyRIRo7kgkz_0skE,"[u'bank', u'atm', u'finance', u'point_of_interest', u'establishment']"
0,43.5080188,5.4052937,Restaurant Pierre REBOUL,ChIJqz-k472NyRIRvMSMwX5Jyrc,"[u'restaurant', u'food', u'point_of_interest', u'establishment']"
0,43.506732,5.400716,Magasin Kiabi AIX,ChIJm-d9S1PtyRIRCewiHvSgDr0,"[u'clothing_store', u'shoe_store', u'store', u'point_of_interest', u'establishment']"
0,43.5055139,5.3967177,Marionnaud,ChIJ24F0XKuSyRIRkrfFIeZ0fcg,"[u'clothing_store', u'store', u'point_of_interest', u'establishment']"
0,43.506689,5.40541,Shurgard Self-Storage,ChIJCdAZI6aSyRIRKz0_NB4x5bk,"[u'storage', u'point_of_interest', u'establishment']"
0,43.506764,5.401681,GO Sport,ChIJv959S1PtyRIRnKzaADuAbWU,"[u'shoe_store', u'clothing_store', u'store', u'point_of_interest', u'establishment']"
0,43.5084,5.40842,Keep Cool Aix La Pioline,ChIJl48DEaeSyRIR8PZcfvQnj3Y,"[u'gym', u'health', u'point_of_interest', u'establishment']"
0,43.5066539,5.4034267,Vitalibio,ChIJM0Pk7qiSyRIRyXGDPn6Q8M8,"[u'health', u'point_of_interest', u'establishment']"
0,43.5056046,5.3963472,Pharmacie de la Pioline,ChIJ24F0XKuSyRIRkLVYTof1Yq0,"[u'pharmacy', u'health', u'store', u'point_of_interest', u'establishment']"
0,43.5054758,5.3966203,Promod,ChIJsY3lG6mSyRIRFp09SJLcKFc,"[u'clothing_store', u'store', u'point_of_interest', u'establishment']"
0,43.5084604,5.4023101,Bébé 9,ChIJA1I5ilLtyRIRlYfGvtocl-c,"[u'clothing_store', u'store', u'point_of_interest', u'establishment']"
0,43.505134,5.3957446,Camaïeu,ChIJDyJjD6mSyRIR6Y89afoY24k,"[u'clothing_store', u'store', u'point_of_interest', u'establishment']"
0,43.5064337,5.4025479,Toyota Autosprinter Aix-en-Provence,ChIJ2Q9i3KiSyRIRXLIZ6ubkBug,"[u'car_dealer', u'store', u'point_of_interest', u'establishment']"
0,43.506421,5.401244,Quick d'Aix les Milles,ChIJG1StPKmSyRIRFjjNwajwwEY,"[u'restaurant', u'food', u'point_of_interest', u'establishment']"
0,43.5079446,5.40313,Picard,ChIJPSxOfKiSyRIRFlEG2QQ7XT8,"[u'food', u'store', u'point_of_interest', u'establishment']"
0,43.5073934,5.4061345,Bio&Co,ChIJaV6oU6aSyRIRjw2uWXI5Rt4,"[u'grocery_or_supermarket', u'health', u'food', u'store', u'point_of_interest', u'establishment']"
0,43.5060257,5.3950052,Piery,ChIJ24F0XKuSyRIRrBDDooOjpuw,"[u'jewelry_store', u'store', u'point_of_interest', u'establishment']"
0,43.5051784,5.3958544,Grand Optical,ChIJgVZ3V6eSyRIR4cfjghPTWq0,"[u'health', u'store', u'point_of_interest', u'establishment']"
0,43.5074231,5.4055227,Auto Sécurité - Pioline controle auto,ChIJoz3WyaeSyRIRtwUwFiDKWiM,"[u'car_repair', u'store', u'point_of_interest', u'establishment']"
0,43.5064892,5.4057197,Tapis Saint Maclou,ChIJW9HtIqaSyRIR44zmo18GW7g,"[u'home_goods_store', u'store', u'point_of_interest', u'establishment']"
0,43.5063635,5.4070355,Amical Vélo Club Aixois,ChIJEy7aX6aSyRIRFuOBBvOiO5s,"[u'point_of_interest', u'establishment']"
0,43.5067856,5.4032283,Docks de la Literie Aix-Les-Milles,ChIJM0Pk7qiSyRIRnzdfhhrLYJo,"[u'furniture_store', u'home_goods_store', u'store', u'point_of_interest', u'establishment']"
0,43.509671,5.40905,Opticien GrandOptical Aix-en-Provence,ChIJx2ZfRqeSyRIRx1_LiC9_8ec,"[u'health', u'store', u'point_of_interest', u'establishment']"
0,43.5069249,5.4025317,Toyota,ChIJM0Pk7qiSyRIRMxN8R-U1HOs,"[u'car_dealer', u'car_repair', u'store', u'point_of_interest', u'establishment']"
0,43.5067135,5.4012099,DARTY Aix-En-Provence,ChIJlVoG5auSyRIRlTiuxZrmS-k,"[u'electronics_store', u'food', u'furniture_store', u'home_goods_store', u'store', u'point_of_interest', u'establishment']"
0,43.5081403,5.4009553,Provence Sanitaire,ChIJJw9ipqmSyRIRdSnawZnSoSw,"[u'store', u'point_of_interest', u'establishment']"
0,43.5069251,5.4025317,Aix Medical,ChIJERLk7qiSyRIRJg8LaBaCxQY,"[u'hospital', u'point_of_interest', u'establishment']"
0,43.5072423,5.4018828,Gemo Chaussures Et Vêtements,ChIJo4Cr8KiSyRIRGz5d1DaB_Z4,"[u'clothing_store', u'shoe_store', u'store', u'point_of_interest', u'establishment']"
0,43.5076485,5.3902651,Scm Saint Joseph,ChIJX2WqR1TtyRIRgrWihWRqGlU,"[u'doctor', u'health', u'point_of_interest', u'establishment']"
0,43.505953,5.405135,Saint Maclou AIX-MILLES,ChIJA1I5ilLtyRIR0ePLbKi83R8,"[u'point_of_interest', u'establishment']"
0,43.5077548,5.4021648,Saturne 4 Aix,ChIJDyJjD6mSyRIR3y6ixSQmYbQ,"[u'car_repair', u'store', u'point_of_interest', u'establishment']"
0,43.5083268,5.4075168,Optical Center AIX LES MILLES-LA PIOLINE,ChIJpXwuEaeSyRIRFGaI4rvLf0g,"[u'health', u'store', u'point_of_interest', u'establishment']"
0,43.507101,5.4006587,Jean Louis David,ChIJ3yoYfamSyRIRq-qO9YLB3dU,"[u'beauty_salon', u'hair_care', u'point_of_interest', u'establishment']"
0,43.5065781,5.4031575,Boucherie de la Pioline,ChIJM0Pk7qiSyRIROwyWqiXvy3o,"[u'food', u'store', u'point_of_interest', u'establishment']"
0,43.50441,5.3933537,Murène De Feu - Kung Fu Yangkido,ChIJ5StuN1PtyRIR00EIjhbHMtc,"[u'health', u'point_of_interest', u'establishment']"
0,43.5058325,5.3972372,Inter Service Minute,ChIJ24F0XKuSyRIR9-SWGyEZoUY,"[u'point_of_interest', u'establishment']"
0,43.507542,5.409683,Audi Odicée,ChIJNZj50KCSyRIRmZNTm0_fuLE,"[u'car_dealer', u'car_repair', u'store', u'point_of_interest', u'establishment']"
0,43.5071715,5.4010416,Caisse d'Epargne Aix Pioline,ChIJDyJjD6mSyRIRyO__LqDQU1w,"[u'bank', u'atm', u'finance', u'point_of_interest', u'establishment']"
0,43.5076414,5.4096777,Volkswagen Touring Automobiles,ChIJZ_WNDViNyRIR_pCAhzd1iqk,"[u'car_dealer', u'store', u'point_of_interest', u'establishment']"
0,43.503591,5.3893381,Marine Sushi,ChIJ6_pPM1LtyRIR55ZAOz2PcCM,"[u'restaurant', u'food', u'point_of_interest', u'establishment']"
0,43.5214887,5.4178333,Hôtel Campanile Aix En Provence Ouest,ChIJhdHjpWmNyRIRCeZR_nGltDs,"[u'lodging', u'restaurant', u'food', u'point_of_interest', u'establishment']"
0,43.5106442,5.413569,EDF Ceidre,ChIJTefUlF-NyRIRhsTauNZ6JjQ,"[u'point_of_interest', u'establishment']"
0,43.5243179,5.4125759,Fun Look,ChIJM1W7hkGNyRIR-IXNqfxBSNo,"[u'hair_care', u'point_of_interest', u'establishment']"
0,43.5113518,5.4109253,Guiproman - B & M,ChIJ8ScIVGCNyRIRPeUtag4NqCw,"[u'car_repair', u'store', u'point_of_interest', u'establishment']"
0,43.5227612,5.4117949,Cunningham Lindsey France,ChIJCXbVM0KNyRIRnpGmRtGUsT0,"[u'insurance_agency', u'point_of_interest', u'establishment']"
0,43.5229607,5.4117048,Finopsys,ChIJVYgoyEONyRIROTWWG5Nowfw,"[u'point_of_interest', u'establishment']"
0,43.5109773,5.4138978,CYBER PROJECT,ChIJ605c6F-NyRIRy8tBpCffnC0,"[u'point_of_interest', u'establishment']"
0,43.5247248,5.412227,ITPA Ecole par alternance BTS BAc+3 BAc,ChIJa_dBnUGNyRIRl3kdE5ryy4E,"[u'point_of_interest', u'establishment']"
0,43.5235217,5.4119657,ad2i Ingénierie,ChIJ53r50UONyRIR7rhWfEBAnNM,"[u'point_of_interest', u'establishment']"
0,43.5227612,5.4117949,Edikom,ChIJeXXVM0KNyRIRSJFuTMhioM0,"[u'point_of_interest', u'establishment']"
0,43.5227612,5.4117949,Opca2,ChIJCXbVM0KNyRIRXJQAbECJ-f4,"[u'point_of_interest', u'establishment']"
0,43.5172539,5.412793,Communauté d'Agglomération Pays d'Aix,ChIJc-KzBV2NyRIR4_IpjidQIEQ,"[u'point_of_interest', u'establishment']"
0,43.5192751,5.4142874,Sam,ChIJzaZorUKNyRIRBSQcZPuuAdI,"[u'point_of_interest', u'establishment']"
0,43.5225787,5.4127399,Témoins de Jéhovah,ChIJ08PKSEKNyRIRrY-6s8FiedQ,"[u'place_of_worship', u'point_of_interest', u'establishment']"
0,43.5227612,5.4117949,Polyexpert Environnement,ChIJZ9xUtkONyRIR5Da4iCb_9WI,"[u'insurance_agency', u'point_of_interest', u'establishment']"
0,43.5227612,5.4117949,Euler Hermes Recouvrement France,ChIJZ9xUtkONyRIRADnZGzp1lBE,"[u'insurance_agency', u'point_of_interest', u'establishment']"
0,43.5227612,5.4117949,ATMIR,ChIJBZ0sRuyNyRIR8hyhqN0N4A0,"[u'hospital', u'doctor', u'health', u'point_of_interest', u'establishment']"
0,43.5227612,5.411795,SFS Groupe,ChIJZ9xUtkONyRIROGp1OIjo0Mo,"[u'insurance_agency', u'point_of_interest', u'establishment']"
0,43.5113666,5.4103777,Brossette,ChIJCRCoG6CNyRIRh0oEw3Sggo0,"[u'store', u'point_of_interest', u'establishment']"
0,43.5113744,5.4103691,PERSPECTIVES & Design,ChIJzSNnEV-JyRIRRfaFRn9NQw0,"[u'point_of_interest', u'establishment']"
0,43.5240524,5.412368,Polyexpert,ChIJeXXVM0KNyRIRGbtqzaC5BI0,"[u'insurance_agency', u'point_of_interest', u'establishment']"
0,43.5233022,5.4126055,Aix en Provence photographe mariage Marc WILLIAMS,ChIJCXbVM0KNyRIRg69QSLRz0RM,"[u'point_of_interest', u'establishment']"
0,43.5220549,5.4147525,Thumine,ChIJt8dNeEKNyRIRby8ZcVY_Bg0,"[u'point_of_interest', u'establishment']"
0,43.5240524,5.412368,Fonds Assur Formation Coop Agri Sud Es,ChIJFTCiKkKNyRIRHt-a_g6U5dY,"[u'store', u'point_of_interest', u'establishment']"
0,43.5231234,5.4159166,Crêche Halte-Garderie Parentale Leï Caganis,ChIJJ4Py7mmNyRIRrM4irXoDJYk,"[u'point_of_interest', u'establishment']"
0,43.5241183,5.4123565,Engineering Management Consulting,ChIJu8GLgEGNyRIRcl7IIyST6i0,"[u'point_of_interest', u'establishment']"
0,43.5239399,5.4150816,Résidence Jas de Bouffan - Foyer Logement pour personnes agées,ChIJzbUT_2mNyRIRCmH201D9q3A,"[u'point_of_interest', u'establishment']"
0,43.5255934,5.4114623,Centre de Gestion de la Fonction Publique Territoriale Des Bouches Du Rhone,ChIJTUNunUGNyRIR2CPCmLGJwto,"[u'city_hall', u'local_government_office', u'point_of_interest', u'establishment']"
0,43.5241493,5.4132038,La Maison Soleil,ChIJzbUT_2mNyRIRnbPWWpi5aNs,"[u'point_of_interest', u'establishment']"
0,43.52394,5.415082,Logirem,ChIJzbUT_2mNyRIRbzVehJbW_ow,"[u'point_of_interest', u'establishment']"
0,43.5243179,5.4125759,Williams Marc,ChIJLTGbhkGNyRIRyhDU-FMON7k,"[u'point_of_interest', u'establishment']"
0,43.5108129,5.4144265,La Coumpagnié,ChIJ605c6F-NyRIRy1q4x6uv_to,"[u'grocery_or_supermarket', u'food', u'store', u'point_of_interest', u'establishment']"
0,43.522671,5.415723,Gérard Boudsocq écrivain public,ChIJfZRiwmmNyRIRoS7sKQOS0LM,"[u'point_of_interest', u'establishment']"
0,43.5238535,5.4151162,Sophrologue - Larderet Véronique,ChIJzbUT_2mNyRIRI8Ic8hTCWFM,"[u'beauty_salon', u'point_of_interest', u'establishment']"
0,43.5238535,5.4151162,Perez Dit Celyne Photo Celine,ChIJzbUT_2mNyRIRj9xrUoeU4Wo,"[u'point_of_interest', u'establishment']"
0,43.5240926,5.415946,Maison du Droit et de la Justice,ChIJzbUT_2mNyRIRWFmi1KE5c7A,"[u'local_government_office', u'point_of_interest', u'establishment']"
0,43.522273,5.4174935,Mariagefacile.com,ChIJz0neCWmNyRIR4dlC07LYJH0,"[u'point_of_interest', u'establishment']"
0,43.5237808,5.4163809,Eglise Evangelique Libre d'Aix en Provence,ChIJm-WVIGqNyRIR5vNfrVYVu7c,"[u'church', u'place_of_worship', u'point_of_interest', u'establishment']"
0,43.5109773,5.4138978,Appareillage Orthopédique Provençal,ChIJ605c6F-NyRIRhGQI-h6Kz1k,"[u'shoe_store', u'health', u'store', u'point_of_interest', u'establishment']"
0,43.5109773,5.4138978,EMERAUDE,ChIJ605c6F-NyRIRXlLynacWaK4,"[u'point_of_interest', u'establishment']"
0,43.5251415,5.4140041,Débrid'Arts,ChIJ7c2QNECNyRIRNsv41FFvJvI,"[u'point_of_interest', u'establishment']"
0,43.5222858,5.4175009,Com@Part,ChIJ-Y9Zp2mNyRIRfvrsfZnYDJE,"[u'point_of_interest', u'establishment']"
0,43.5109773,5.4138978,Ste Distribution Motos Japonaises,ChIJn4E_wl-NyRIR30uch_jNKm8,"[u'store', u'point_of_interest', u'establishment']"
0,43.5095591,5.4086372,Avicars - Citroën,ChIJCVuRV6eSyRIR_giLwGz0274,"[u'car_dealer', u'store', u'point_of_interest', u'establishment']"
0,43.525674,5.413051,Véronique Larderet,ChIJPY0cu0GNyRIRd_aVAvpBALg,"[u'point_of_interest', u'establishment']"
0,43.513862,5.3827607,Planète Animation,ChIJQ5AqLqbyyRIRQAgt28NMdDw,"[u'point_of_interest', u'establishment']"
0,43.5113027,5.3900242,mas des ecureuils,ChIJUb5SDaryyRIRCJYYCU9IfgQ,"[u'restaurant', u'food', u'point_of_interest', u'establishment']"
0,43.5140819,5.3802994,Pacte Piscines - 1000 Piscines,ChIJCYauRqbyyRIR_IaElVjQm7k,"[u'general_contractor', u'point_of_interest', u'establishment']"
0,43.5133123,5.385902,Gailliegue Colette,ChIJcTK_9ajyyRIRnkenJTSAAXs,"[u'point_of_interest', u'establishment']"
0,43.5133123,5.385902,Caton Cyril,ChIJby2_9ajyyRIRCWsaBKI6UyI,"[u'point_of_interest', u'establishment']"
0,43.5135787,5.3832787,Sarl Transports Materiaux Millois,ChIJUaFNKqbyyRIRILAzCi2okfg,"[u'moving_company', u'point_of_interest', u'establishment']"
0,43.5143696,5.3817806,Carrelage et Granit du Midi Diffusion,ChIJK4GjW6PyyRIRmjkh3r5IoME,"[u'store', u'point_of_interest', u'establishment']"
0,43.511018,5.390124,Restaurant | La Table du Mas,ChIJKRm1naqSyRIRhh6TmlAi4Fw,"[u'bar', u'restaurant', u'food', u'point_of_interest', u'establishment']"
0,43.5183281,5.3789992,Sinopia,ChIJyfO7YqTyyRIRzrqUtVJ_mMI,"[u'painter', u'point_of_interest', u'establishment']"
0,43.5117684,5.3828702,GD Interventions,ChIJmz_vPKfyyRIRSmmyDdG5BI4,"[u'point_of_interest', u'establishment']"
0,43.5199557,5.3786189,Aréne Gérard,ChIJy57S3b3yyRIRMYkRNMut-5E,"[u'food', u'point_of_interest', u'establishment']"
0,43.5098567,5.3926635,"Les Résoteurs, Agence Web Marseille, Création Site Internet & Référencement",ChIJK2x-QlXtyRIRArmNrkWxZeg,"[u'point_of_interest', u'establishment']"
0,43.5094754,5.3921895,Picca Entreprise,ChIJ-5DabFXtyRIRLXfXgDqqTcs,"[u'point_of_interest', u'establishment']"
0,43.5141997,5.378577,Holding Dossetto,ChIJUfkf0qbyyRIRkKyNOczUs5M,"[u'finance', u'point_of_interest', u'establishment']"
0,43.5091868,5.3883176,Accents,ChIJHYri01XtyRIR4B5fAueXtes,"[u'point_of_interest', u'establishment']"
0,43.5091868,5.3883176,Cucala Jean,ChIJNycicVbtyRIRJ9ovjieQjz0,"[u'point_of_interest', u'establishment']"
0,43.528722,5.4260381,Hôtel Kyriad Prestige Aix En Provence,ChIJm4bwTQ2NyRIR3jOdXrekQQE,"[u'parking', u'lodging', u'restaurant', u'food', u'point_of_interest', u'establishment']"
0,43.5296824,5.4257732,City Residence,ChIJg1d1Ug2NyRIR0tjUu5o5DBo,"[u'lodging', u'point_of_interest', u'establishment']"
0,43.5221817,5.4250736,Auberge de Jeunesse Aix en Provence,ChIJN9tgM22NyRIROxQ4VLB1B5Y,"[u'lodging', u'point_of_interest', u'establishment']"
0,43.527522,5.421804,Provence Rugby,ChIJJdmXyxKNyRIRrmaMfTc7j-0,"[u'point_of_interest', u'establishment']"
0,43.521373,5.424839,Fondation Vasarely,ChIJN9tgM22NyRIRhqdRDQqa9-I,"[u'museum', u'point_of_interest', u'establishment']"
0,43.5259531,5.4212849,Middle School Jas De Bouffan,ChIJM1W7hkGNyRIRPZjDMGzdhWA,"[u'school', u'point_of_interest', u'establishment']"
0,43.5240649,5.4262658,Hôtel des Ventes Hours et De Valaurie,ChIJD-cMGnKNyRIRoEFYv5CMDg8,"[u'point_of_interest', u'establishment']"
0,43.52127,5.423349,Carsat Sud-Est (Agence retraite Aix-en-Provence),ChIJtwhpTKWNyRIR-oGNYD4Qt0Q,"[u'point_of_interest', u'establishment']"
0,43.5276607,5.4192826,CFA du Pays d'Aix,ChIJU_xvPGuNyRIRB2wcM35InPc,"[u'hair_care', u'point_of_interest', u'establishment']"
0,43.527625,5.4207288,Tennis Club du Jas de Bouffan,ChIJqdiXyxKNyRIRH5w_DOI0PB0,"[u'health', u'point_of_interest', u'establishment']"
0,43.5273573,5.4140429,School Jules Payot,ChIJM1W7hkGNyRIRtU3hFk5kJHE,"[u'school', u'point_of_interest', u'establishment']"
0,43.522367,5.419564,Dance School Dance Harmonie,ChIJ99h6xm6NyRIR-ZQxNWX3_7w,"[u'point_of_interest', u'establishment']"
0,43.521869,5.422257,Les Estudines Aix Jas de Bouffan,ChIJ4a5h8G6NyRIRFoShrwmcZgc,"[u'point_of_interest', u'establishment']"
0,43.5215096,5.4209332,ARNAUD TAXI AIXOIS,ChIJ36my2W6NyRIRI6CXlJh6kTw,"[u'point_of_interest', u'establishment']"
0,43.5257615,5.4150179,Sacogiva,ChIJI6kgWz-NyRIR7kflP_3fd6E,"[u'general_contractor', u'real_estate_agency', u'point_of_interest', u'establishment']"
0,43.5275213,5.4186604,CLI de Cadarache,ChIJr15pPmuNyRIRSB55pWiv5Nw,"[u'point_of_interest', u'establishment']"
0,43.5265269,5.414855,Radio Zinzine Aix,ChIJ_79gkaONyRIRFSdIa2VKim8,"[u'point_of_interest', u'establishment']"
0,43.526325,5.4138566,Association Anonymal,ChIJ7c2QNECNyRIRgQaxbffXi-A,"[u'point_of_interest', u'establishment']"
0,43.5266474,5.422151,Music School Du Pays D'aix,ChIJ1d1a0HWNyRIRvS4yPoJ4sk0,"[u'point_of_interest', u'establishment']"
0,43.5229784,5.3747338,Ma Terre,ChIJvVZnDr3yyRIRjZ4nCru3Sbc,"[u'point_of_interest', u'establishment']"
0,43.5224392,5.3764468,Warnaco France,ChIJC5a-6LzyyRIRaJs6B1ZUC-Y,"[u'clothing_store', u'store', u'point_of_interest', u'establishment']"
0,43.5232456,5.3750074,Vasserot Jean,ChIJh5FtBr3yyRIR-N4cVKIpgEQ,"[u'food', u'point_of_interest', u'establishment']"
0,43.5229122,5.3747869,Vera Hubert,ChIJffRdDr3yyRIR1WbBW3RrLAM,"[u'food', u'point_of_interest', u'establishment']"
0,43.521313,5.3770626,Seimandi Brouzes Christel Julie,ChIJFV01trzyyRIRo8qMGm2oRxE,"[u'grocery_or_supermarket', u'food', u'store', u'point_of_interest', u'establishment']"
0,43.521591,5.376142,13290,ChIJtZuB2rzyyRIRJ8CgL7zBBf4,"[u'point_of_interest', u'establishment']"
0,43.5640131,5.4042562,Guitares d'en France,ChIJlYjimsiMyRIRSK5ti1mMQ7c,"[u'store', u'point_of_interest', u'establishment']"
0,43.568063,5.39972,Atre Et Clim,ChIJidGMAraMyRIRhC9FXZBrdzA,"[u'home_goods_store', u'store', u'point_of_interest', u'establishment']"
0,43.5654384,5.3971785,Ropion André,ChIJp_GuAcmMyRIR6BpeOuXJxYA,"[u'furniture_store', u'home_goods_store', u'store', u'point_of_interest', u'establishment']"
0,43.5679942,5.3999359,L'ILOT BEBE,ChIJo2CDBrWMyRIR-NQwDO0AkAU,"[u'clothing_store', u'store', u'point_of_interest', u'establishment']"
0,43.5684333,5.3985187,Vivre en Bois Aix-en-Provence,ChIJNUmO-rWMyRIRW72UGpO-tV8,"[u'general_contractor', u'furniture_store', u'home_goods_store', u'store', u'point_of_interest', u'establishment']"
0,43.566136,5.4023847,Les Parquets de Brocéliande,ChIJLdilZ8iMyRIRIH3Y2ceGlZI,"[u'hardware_store', u'general_contractor', u'store', u'point_of_interest', u'establishment']"
0,43.5705338,5.395356,MVP Diffusion,ChIJOwVE4LSMyRIR4eTdBM_lfHM,"[u'car_dealer', u'store', u'point_of_interest', u'establishment']"
0,43.5704852,5.3964345,Matériaux Simc,ChIJseqbBrWMyRIRXK93hjN7AC8,"[u'store', u'point_of_interest', u'establishment']"
0,43.5659701,5.4031519,Aix & Terra,ChIJbYyFgMiMyRIRkfQNec7gzlE,"[u'point_of_interest', u'establishment']"
0,43.5682219,5.3995078,Bonnichon SA,ChIJYZqu0uWMyRIR7iVvXspBKQg,"[u'store', u'point_of_interest', u'establishment']"
0,43.5673828,5.4010859,Garage AD Expert,ChIJBWq208mMyRIRs6IdS7l0tfY,"[u'car_repair', u'point_of_interest', u'establishment']"
0,43.5681719,5.3991561,A.B.C Clotures,ChIJ4eb6_bWMyRIRCaeAQBznzH0,"[u'general_contractor', u'point_of_interest', u'establishment']"
0,43.5644632,5.403965,Enoc Celia,ChIJP50fm8iMyRIRFwPKeykQtGA,"[u'point_of_interest', u'establishment']"
0,43.5679868,5.4015278,Caraktère,ChIJAS28HraMyRIRk3z1lkU_oHo,"[u'point_of_interest', u'establishment']"
0,43.5644632,5.403965,Amp Savage,ChIJP50fm8iMyRIRt32QVtYfjMk,"[u'point_of_interest', u'establishment']"
0,43.5681839,5.39999,Soldata,ChIJYZqu0uWMyRIR1_D3STUItv4,"[u'point_of_interest', u'establishment']"
0,43.5654069,5.3964238,Chateau Du Seuil,ChIJL57-AMuMyRIRE61lf-Dicxc,"[u'point_of_interest', u'establishment']"
0,43.5704501,5.3959438,BASSET FERRONNERIE & ZINGUERIE,ChIJOwVE4LSMyRIRtVE03UP96FE,"[u'roofing_contractor', u'point_of_interest', u'establishment']"
0,43.5674126,5.4006542,PROVENCE MICROS,ChIJz3W73cmMyRIR5axu8lC0t0A,"[u'point_of_interest', u'establishment']"
0,43.5673828,5.4010859,TOP GARAGE,ChIJ0-4U2smMyRIRg65zFr-Wq7Q,"[u'car_repair', u'point_of_interest', u'establishment']"
0,43.5686987,5.3988737,Le Studio,ChIJDRpK4rWMyRIRNfnrkNSIwKM,"[u'night_club', u'point_of_interest', u'establishment']"
0,43.5664588,5.4090584,Sarl Taxi Achard,ChIJ3ViONMaMyRIRttiqOINhk0c,"[u'point_of_interest', u'establishment']"
0,43.5664941,5.4077634,Sci Antonelle,ChIJq8jobceMyRIR0Y-zmvm-KAc,"[u'health', u'point_of_interest', u'establishment']"
0,43.5675213,5.4071601,Cel Controles,ChIJI9PbgbiMyRIRQgeswpOggwg,"[u'point_of_interest', u'establishment']"
0,43.561043,5.409457,CPA Provence,ChIJLQORdsSMyRIRPB_0ehbqrtk,"[u'health', u'point_of_interest', u'establishment']"
0,43.561148,5.409465,Céline Commeiras - Orthophoniste,ChIJh1xIdMSMyRIRh8-4H-ra_Sc,"[u'health', u'point_of_interest', u'establishment']"
0,43.5625254,5.4096399,Gastronomie Provencale,ChIJd8QYCMSMyRIRaXxzEqDIPgY,"[u'food', u'point_of_interest', u'establishment']"
0,43.561078,5.409361,Morgane Cay-Maubuisson - Psychologue,ChIJrzcCdMSMyRIRUpCs5qt5OLs,"[u'health', u'point_of_interest', u'establishment']"
0,43.560957,5.409371,Julie Mathey-Burkhardt,ChIJBSHQdsSMyRIRG2CxAmDt4Cw,"[u'point_of_interest', u'establishment']"
0,43.561012,5.4095,Élodie Dourver-Mollard- Psychomotricienne,ChIJ7QpidsSMyRIRTFURjatI34Y,"[u'health', u'point_of_interest', u'establishment']"
0,43.5681442,5.4078917,Electro-clope.fr,ChIJCUFLkLiMyRIR6iP9xrYGjjo,"[u'department_store', u'store', u'point_of_interest', u'establishment']"
0,43.5664588,5.4090584,Mimethis & Catharsis,ChIJoy6ySMeMyRIR5816fy45Vnw,"[u'point_of_interest', u'establishment']"
0,43.568382,5.4079192,Irrigazette,ChIJ8-0h67iMyRIRnL9Gm_3TGK0,"[u'point_of_interest', u'establishment']"
0,43.5652736,5.4103147,Schlogel Sophie,ChIJUVYUtfZv5kcR5LCJ-0qtgiw,"[u'health', u'point_of_interest', u'establishment']"
0,43.569111,5.407809,Ineis,ChIJbeWw77iMyRIRqMXnBHrfzLI,"[u'point_of_interest', u'establishment']"
0,43.569111,5.407809,Surfaces Et Structures,ChIJbeWw77iMyRIRDLBUhIkjH4M,"[u'point_of_interest', u'establishment']"
0,43.569111,5.407809,Sci Constantin,ChIJbeWw77iMyRIRBTgRp0ZQHVQ,"[u'point_of_interest', u'establishment']"
0,43.569111,5.407809,Onis Participations,ChIJbeWw77iMyRIRfSGhz4YaFTE,"[u'point_of_interest', u'establishment']"
0,43.5617178,5.3919431,G-Rico,ChIJD-D3-jLzyRIRYl_IKxHtUPk,"[u'point_of_interest', u'establishment']"
0,43.5562084,5.4181644,Le Clos de Celony,ChIJqWanNuaMyRIRcUa2a-vJAMo,"[u'lodging', u'point_of_interest', u'establishment']"
0,43.55651,5.417257,Shiatsu Tuina Reflexologie Benoît Lambert,ChIJ7TkKzOeMyRIRFuNjBQedcP0,"[u'health', u'point_of_interest', u'establishment']"
0,43.5563609,5.4182001,Resid'Artel Aix-En-Provence,ChIJb0K1beaMyRIRvQaNYLoUJiM,"[u'lodging', u'point_of_interest', u'establishment']"
0,43.5565912,5.4155136,Maison de Retraite Médicalisée Sainte Victoire,ChIJG_3QaM2MyRIRIB-cxlJL-PE,"[u'health', u'point_of_interest', u'establishment']"
0,43.5555171,5.4163335,Le Verguetier,ChIJOfv5oueMyRIRu4hlRLhsdG8,"[u'cafe', u'bar', u'restaurant', u'food', u'point_of_interest', u'establishment']"
0,43.556572,5.417616,J-C CORDIEZ ARCHITECTE EXPERT,ChIJj10UM-aMyRIRflwKx64qh-8,"[u'finance', u'point_of_interest', u'establishment']"
0,43.5533144,5.4165265,Solari et Associés SARL,ChIJUUB_iOSMyRIRSwL1vgvdKig,"[u'point_of_interest', u'establishment']"
0,43.556674,5.418104,Sage femme Tessa Giron,ChIJ0wrcixyOyRIRuMPr9PrPg3I,"[u'doctor', u'health', u'point_of_interest', u'establishment']"
0,43.557567,5.416603,INGELYO,ChIJEUdhduiMyRIRRkHZCMt6l1c,"[u'point_of_interest', u'establishment']"
0,43.55624,5.4191516,Boulangerie Paul Franchisé Indépendant,ChIJadiabeaMyRIRhcIxpDt1veo,"[u'bakery', u'cafe', u'meal_takeaway', u'restaurant', u'food', u'store', u'point_of_interest', u'establishment']"
0,43.557154,5.417215,EURL GÉNÉRATION NETTOYAGE,ChIJ-wYAADCNyRIR2ziEb5z97nI,"[u'point_of_interest', u'establishment']"
0,43.556717,5.418057,Villa Célony,ChIJa4lbPuaMyRIRGF4KIKfNpqs,"[u'point_of_interest', u'establishment']"
0,43.556805,5.417901,Domibio,ChIJC0IaLuaMyRIR5vNTkUdVrPs,"[u'general_contractor', u'point_of_interest', u'establishment']"
0,43.5559213,5.4188305,Komilfo,ChIJaQPFbeaMyRIRCNFyKDensgg,"[u'general_contractor', u'electronics_store', u'store', u'point_of_interest', u'establishment']"
0,43.5559439,5.4187874,Le Fournil de Cezanne,ChIJaQPFbeaMyRIRo_KsRqdEEuU,"[u'bakery', u'food', u'store', u'point_of_interest', u'establishment']"
0,43.5566278,5.4186488,Station-service TOTAL Access,ChIJAYl_O-aMyRIRlzP-tuILorQ,"[u'gas_station', u'point_of_interest', u'establishment']"
0,43.5551634,5.4115265,Clerc Elisabeth,ChIJPalIWNyMyRIR847QmUPu_xc,"[u'point_of_interest', u'establishment']"
0,43.555946,5.418834,Vitre Isol-Aix,ChIJ98D3auaMyRIROUUvmTj909k,"[u'home_goods_store', u'store', u'point_of_interest', u'establishment']"
0,43.556071,5.418834,PRO-FIL E.P.F.,ChIJU8igauaMyRIRXDmJp7bwyw8,"[u'point_of_interest', u'establishment']"
0,43.5581084,5.4177841,Clairimmo - MaxiHome Aix-en-Pce,ChIJb6zeiOiMyRIRhJZfkxBb9ek,"[u'real_estate_agency', u'point_of_interest', u'establishment']"
0,43.5530661,5.4193062,Centre de Psychothérpatie du Sud-Est,ChIJUUB_iOSMyRIR804wcKJqGtU,"[u'health', u'point_of_interest', u'establishment']"
0,43.556266,5.4191168,Chez Paul,ChIJuz2TE-aMyRIRJWMnUJNQe0U,"[u'bakery', u'food', u'store', u'point_of_interest', u'establishment']"
0,43.5558167,5.4196482,"Labosud Provence Biologie, Laboratoire d'analyses de biologie médicale Dr C. Allombert",ChIJPw5HceaMyRIRdnJHfXCZKis,"[u'health', u'point_of_interest', u'establishment']"
0,43.5560672,5.4193497,Distributeur Crédit Agricole,ChIJ3X8vbeaMyRIR3Hxi7yNJtdQ,"[u'atm', u'finance', u'point_of_interest', u'establishment']"
0,43.5565226,5.4192618,Cordaix,ChIJm8JGGXeXyRIRhaF1IJkyPTg,"[u'general_contractor', u'point_of_interest', u'establishment']"
0,43.555941,5.419401,Perrone Marianne,ChIJvy-AVkOJyRIRoEaXCw18qEE,"[u'lawyer', u'point_of_interest', u'establishment']"
0,43.5530975,5.4198111,École supérieure d'hypnose Ericksonienne,ChIJX5Y1veaMyRIRFi184dImqqk,"[u'point_of_interest', u'establishment']"
0,43.557074,5.4191148,POMPAIX,ChIJuSpVHuaMyRIRvZLwuvN1Tjo,"[u'point_of_interest', u'establishment']"
0,43.5558024,5.4197132,Pharmacie de Celony,ChIJfQ4md-aMyRIR7ToGhtbOnXA,"[u'pharmacy', u'health', u'store', u'point_of_interest', u'establishment']"
0,43.555766,5.419758,Agence immobilière 4 saisons en Provence,ChIJ_YjfbJ6SyRIR7HI-sq6m1wc,"[u'real_estate_agency', u'point_of_interest', u'establishment']"
0,43.55689,5.41117,Devictor Immobilier,ChIJk2I_mdyMyRIRqOjGhXJbzi8,"[u'real_estate_agency', u'point_of_interest', u'establishment']"
0,43.5564058,5.4097425,Panicali Rodier Brigitte Anne Marie,ChIJSY7wRduMyRIRXl-oKYwbjGQ,"[u'clothing_store', u'store', u'point_of_interest', u'establishment']"
0,43.556246,5.410123,Dupouy Alain,ChIJG3V9mdyMyRIRRmbp9ohYA5M,"[u'point_of_interest', u'establishment']"
0,43.5563708,5.4101367,Devictor Immobilier,ChIJk2I_mdyMyRIRqwc_DP7xCtw,"[u'real_estate_agency', u'point_of_interest', u'establishment']"
0,43.559685,5.38128,La Santoline,ChIJH2if0DrzyRIR_1wlKhPzSMA,"[u'point_of_interest', u'establishment']"
0,43.5588175,5.3811353,Paulignan Guillaume Thomas,ChIJy7TjKyXzyRIRLuS7pqgN0S8,"[u'point_of_interest', u'establishment']"
0,43.5555569,5.3782336,ALBUMNEXIO,ChIJ3YIQ9SPzyRIRxMXp5ZH2rRg,"[u'point_of_interest', u'establishment']"
0,43.557482,5.378773,COREDI,ChIJ3YIQ9SPzyRIRTvAiApaNxdQ,"[u'point_of_interest', u'establishment']"
0,43.5541941,5.3847177,Dijou Raymond Albert,ChIJmfK4Si_zyRIRNkIG_DfJNCM,"[u'point_of_interest', u'establishment']"
0,43.5509304,5.3871819,Ferronnerie Storck,ChIJFaqiminzyRIRJL2RYQGlziA,"[u'point_of_interest', u'establishment']"
0,43.555815,5.382175,Langue Denis,ChIJcxn2vSXzyRIRV_1lhVZHGlY,"[u'health', u'point_of_interest', u'establishment']"
0,43.5557906,5.3821086,Garzino Castellani Daniele,ChIJs-jmvSXzyRIRfW1XbvN5RUE,"[u'point_of_interest', u'establishment']"
0,43.561078,5.3884943,Sci Louis,ChIJl0u_gTHzyRIRyjMt6tHo0z4,"[u'point_of_interest', u'establishment']"
0,43.5612431,5.3878018,Deko Boule,ChIJixsUdjHzyRIRAGJ4-hiBInE,"[u'painter', u'point_of_interest', u'establishment']"
0,43.5612431,5.3878018,Boule Gérard-Colette,ChIJVxwUdjHzyRIRxwM3mP7ws1Y,"[u'point_of_interest', u'establishment']"
0,43.559561,5.38248,Cargnino Mireille,ChIJ2zG_gTHzyRIRjDghcmuvalw,"[u'point_of_interest', u'establishment']"
0,43.550383,5.425357,HOTEL RESTAURANT LE MAS D'ENTREMONT,ChIJw3GBMuOMyRIRu7Ers53sS7A,"[u'lodging', u'restaurant', u'food', u'point_of_interest', u'establishment']"
0,43.5445586,5.427379,Odyssee Bleue,ChIJlTgkGwONyRIRaDlEMxMCylk,"[u'point_of_interest', u'establishment']"
0,43.5484715,5.4266634,Loisirs Motoculture,ChIJSUA2Pv2MyRIRqepP8F4QPVI,"[u'store', u'point_of_interest', u'establishment']"
0,43.5426027,5.4216539,Garzino Franck Gabriel,ChIJu7e8ixuNyRIRE1Fn4a7-CSI,"[u'point_of_interest', u'establishment']"
0,43.5423663,5.4257354,Bastide saint gilles,ChIJZbn7qwSNyRIRvnyqFXVwA6w,"[u'lodging', u'point_of_interest', u'establishment']"
0,43.548205,5.427174,Coquillages du Roy René,ChIJMfmBtAeNyRIRLPKrobaVYf8,"[u'restaurant', u'food', u'point_of_interest', u'establishment']"
0,43.5398639,5.4198519,Bort Dominique Nee Chatillon,ChIJ32E4jxmNyRIRNctpYhrDnh0,"[u'point_of_interest', u'establishment']"
0,43.5398298,5.4197573,L'agence Des Saisons,ChIJ-YQ4jxmNyRIRdge1LLLvizw,"[u'point_of_interest', u'establishment']"
0,43.544417,5.428932,Red Peppers,ChIJwTpXPwKNyRIR5Q6jSQQ3e44,"[u'restaurant', u'bar', u'food', u'point_of_interest', u'establishment']"
0,43.538763,5.417382,Cabinet BONFORT - Expertises et Conseils Immobiliers et Fonciers,ChIJQTixLxiNyRIRpoL3c6etkxg,"[u'finance', u'point_of_interest', u'establishment']"
0,43.5376798,5.4177593,B Happy,ChIJqbpZZc2MyRIRkItC1XVKWsQ,"[u'point_of_interest', u'establishment']"
0,43.551783,5.4210211,Bono Jean-Marie,ChIJP2Q87uOMyRIRzJAKJf7jowY,"[u'point_of_interest', u'establishment']"
0,43.5413498,5.4256675,M.S. GC-BTP,ChIJzf8StgSNyRIRVEDw5isC460,"[u'point_of_interest', u'establishment']"
0,43.5488368,5.4268161,Société Nouvelle Loisirs Motoculture,ChIJ-9sAFv2MyRIRONBbF30B-28,"[u'hardware_store', u'store', u'point_of_interest', u'establishment']"
0,43.5411008,5.4260487,Conservatoire d'Espaces Naturels de Provence Alpes Côtes d'Azur,ChIJ6QZHzwSNyRIR2Cn2K6adyWA,"[u'point_of_interest', u'establishment']"
0,43.5451767,5.4281734,RELAIS DE LA CHEVALIERE,ChIJc6l9yAONyRIRc95WwhWv0wQ,"[u'point_of_interest', u'establishment']"
0,43.5417525,5.4277089,Santons Richard,ChIJ5eMlfQSNyRIRMdKkrpNfbH0,"[u'store', u'point_of_interest', u'establishment']"
0,43.546036,5.428351,Rent and Drop Aix-en-Provence,ChIJwclkywONyRIRqQomTZBhWmY,"[u'point_of_interest', u'establishment']"
0,43.537785,5.422388,Cubic Project,ChIJVVjB1g-NyRIRsbWEZ0Av6ak,"[u'point_of_interest', u'establishment']"
0,43.541719,5.4278194,Eurl Richard Marie,ChIJ5eMlfQSNyRIROyehjvjia0U,"[u'point_of_interest', u'establishment']"
0,43.546036,5.428351,Rent and Drop Aix-en-Provence,ChIJKS_kXQKNyRIRMMFgrehcfQ4,"[u'car_rental', u'point_of_interest', u'establishment']"
0,43.5520321,5.4240294,Centre de Psychotherapie du Sud - Est,ChIJX5Y1veaMyRIR5GytxU-L9eQ,"[u'health', u'point_of_interest', u'establishment']"
0,43.5520096,5.4240374,Colette vanderzippe psychothérapeute,ChIJX5Y1veaMyRIRhdjdVkuI2g8,"[u'health', u'point_of_interest', u'establishment']"
0,43.5523143,5.4237798,Tardieux et Guercia,ChIJKbUcnuSMyRIR25QhgYXrZAU,"[u'point_of_interest', u'establishment']"
0,43.5526397,5.4231571,Simply Market,ChIJa_y0m-SMyRIR4ufQ2f5nQjk,"[u'grocery_or_supermarket', u'food', u'store', u'point_of_interest', u'establishment']"
0,43.5434044,5.4189563,Mme Laure Catillon Laure,ChIJa6QFqB6NyRIRubdS-Mt7sM0,"[u'point_of_interest', u'establishment']"
0,43.5450933,5.4158939,Borghino Mathieu,ChIJpyqScx-NyRIREyrMoYW7mLw,"[u'electrician', u'point_of_interest', u'establishment']"
0,43.5450933,5.4158939,Matelec,ChIJ2dSTcx-NyRIRDBbIoQoVIlE,"[u'general_contractor', u'point_of_interest', u'establishment']"
0,43.546169,5.4145497,Sci Clement,ChIJzUwTJiCNyRIR4UYeZyPP3Bs,"[u'real_estate_agency', u'point_of_interest', u'establishment']"
0,43.546409,5.414459,Spencer Sheila,ChIJmc5vJCCNyRIRbnfmZDQ4vbc,"[u'point_of_interest', u'establishment']"
0,43.546409,5.414459,Spencer Siguier Sheila,ChIJmc5vJCCNyRIRL56j3vg6jTI,"[u'point_of_interest', u'establishment']"
0,43.546409,5.414459,Paulmyer Lynn,ChIJmc5vJCCNyRIRlt6-qHpV7g0,"[u'point_of_interest', u'establishment']"
0,43.5451191,5.4196295,Consani Fabien,ChIJqU47hh6NyRIR-a_vnKSPdMU,"[u'point_of_interest', u'establishment']"
0,43.5430552,5.4153534,Zonco René-Jean,ChIJcdHDrBiNyRIRFB3B3l1xyDY,"[u'electrician', u'point_of_interest', u'establishment']"
0,43.5445766,5.4197885,Morel Bruno,ChIJV93Ymh6NyRIRjOx4_Okm1EE,"[u'point_of_interest', u'establishment']"
0,43.5434044,5.4189563,Boulanger Julien,ChIJa6QFqB6NyRIRewlPMBdK74c,"[u'point_of_interest', u'establishment']"
0,43.5424939,5.4176062,Aix Chauffage Sanitaire,ChIJcxb91xiNyRIRvetgN9JGXsw,"[u'plumber', u'point_of_interest', u'establishment']"
0,43.5425735,5.3692266,Gombault Francoise,ChIJrRMfqebyyRIRK7pkVsdh_sY,"[u'point_of_interest', u'establishment']"
0,43.5468071,5.3805237,Ricard Armel,ChIJt-00AdnyyRIRzwojs2HWUic,"[u'plumber', u'point_of_interest', u'establishment']"
0,43.5476075,5.3809128,Elouard Fabre Carol,ChIJ3Xdn-NjyyRIRwS65nFvxQLg,"[u'point_of_interest', u'establishment']"
0,43.5476075,5.3809128,Martin Scavino Mireille,ChIJ59F7c9nyyRIRFBwQJQTyA6Q,"[u'point_of_interest', u'establishment']"
0,43.5476075,5.3809128,Bourrelly Marin Simone Noelie Clemen,ChIJ3Xdn-NjyyRIRW1k7DcEj_nE,"[u'food', u'point_of_interest', u'establishment']"
0,43.5493888,5.380006,Ocres et Provence,ChIJxYuLmYSNyRIRkLot3Eqt87Q,"[u'painter', u'point_of_interest', u'establishment']"
0,43.5505642,5.3795844,SCEA Petra,ChIJb_RIaifzyRIR5E8KgJnrYqg,"[u'point_of_interest', u'establishment']"
0,43.5487951,5.3707906,Picca Marguerite,ChIJTSUiSuDyyRIRngPNpij8ruE,"[u'food', u'point_of_interest', u'establishment']"
0,43.5316158,5.4311154,Dkm Sport - Fitness & Wellness Club,ChIJNXCV8guNyRIRi8U8qLKy3M4,"[u'gym', u'health', u'point_of_interest', u'establishment']"
0,43.536882,5.434584,Home Services Aix En Provence,ChIJo_g3DQiNyRIRS9kKRyNS_U8,"[u'park', u'general_contractor', u'point_of_interest', u'establishment']"
0,43.5325478,5.4279192,School Of Yoga Natha,ChIJ9Q3GLAyNyRIR8mJa2sxJM9E,"[u'gym', u'health', u'point_of_interest', u'establishment']"
0,43.53374,5.4313663,A.p.e.r.s,ChIJC6J9NQmNyRIR37lo0adh_Ss,"[u'point_of_interest', u'establishment']"
0,43.5348606,5.4348341,Clinique Axium,ChIJX6AUzgmNyRIRIGw8ymEsCrQ,"[u'hospital', u'doctor', u'health', u'point_of_interest', u'establishment']"
0,43.5346291,5.4358263,Axium,ChIJN9F2ZKeNyRIRK1Oc7IHOII0,"[u'physiotherapist', u'health', u'point_of_interest', u'establishment']"
0,43.5418901,5.4410924,Nord,ChIJM0lSDK2NyRIR-5Qrmk6c1OY,"[u'neighborhood', u'political']"
0,43.5334718,5.4308174,Just'Caroline Votre Chef à domicile,ChIJZb_0UQmNyRIRaRv8KSV1t28,"[u'point_of_interest', u'establishment']"
0,43.5367728,5.4346851,Thomas De La Motte Rouge,ChIJWQIrDAiNyRIRtNZXGLa1lf0,"[u'physiotherapist', u'health', u'point_of_interest', u'establishment']"
0,43.5331315,5.4318078,Boulisset Philippe,ChIJkZsGXQmNyRIRnEpBbOEb8k0,"[u'lawyer', u'point_of_interest', u'establishment']"
0,43.5347463,5.4356138,"Ateliers Poivre D'Ane - La Cuisine Française - Distributeur ""Lacanche - Novy - Siemens - Smeg""",ChIJf5kmfqeNyRIRUg4cuqerFsc,"[u'furniture_store', u'home_goods_store', u'store', u'point_of_interest', u'establishment']"
0,43.5325122,5.4280729,New York Habitat Europe,ChIJ9Q3GLAyNyRIRKAiFIfy3QQI,"[u'real_estate_agency', u'point_of_interest', u'establishment']"
0,43.5285906,5.4311399,Nissan Couriant,ChIJ04TXqwyNyRIRFY78FiYHII8,"[u'car_dealer', u'airport', u'car_repair', u'store', u'point_of_interest', u'establishment']"
0,43.5345834,5.4358508,Aix Laser Vision,ChIJN9F2ZKeNyRIRP-migqq03x8,"[u'hospital', u'health', u'point_of_interest', u'establishment']"
0,43.5315627,5.4314957,Atelier du Ménager,ChIJWaGhLgyNyRIRtSzwRzca2pk,"[u'point_of_interest', u'establishment']"
0,43.536602,5.434691,ECI - Séjours Linguistiques - Echanges Culturels Internationaux,ChIJwTpXPwKNyRIRkK5jDp65qR4,"[u'point_of_interest', u'establishment']"
0,43.530495,5.4240817,Douanes,ChIJG53p1HSNyRIRvAAyo1kCXUI,"[u'point_of_interest', u'establishment']"
0,43.5368581,5.435136,Pharmacie Verte Colline,ChIJWQIrDAiNyRIRVlf6iolNbms,"[u'pharmacy', u'health', u'store', u'point_of_interest', u'establishment']"
0,43.52837,5.431815,Aix Aquarium,ChIJ9WYZNguNyRIRtPWdS0_qwuw,"[u'pet_store', u'store', u'point_of_interest', u'establishment']"
0,43.5341291,5.429692,ICF Sud Est Méditerranée,ChIJjed9xg6NyRIR9rZNh2oaRtk,"[u'real_estate_agency', u'point_of_interest', u'establishment']"
0,43.5379678,5.433898,Agence Groupama Six Fours,ChIJq6qqqvoDyRIR53z_y8ZYNIc,"[u'insurance_agency', u'bank', u'finance', u'point_of_interest', u'establishment']"
0,43.534148,5.426171,Dr Ganancia Laurence,ChIJV5Sydw6NyRIR12XW9TZg0SM,"[u'doctor', u'health', u'point_of_interest', u'establishment']"
0,43.5317032,5.4236456,Société Industrielle Mulliez,ChIJT1k0QRKNyRIRRO5_ILTzWU0,"[u'point_of_interest', u'establishment']"
0,43.5317367,5.4301496,Laboratoire d'analyses médicales,ChIJWUB_DAyNyRIReFgv043PtII,"[u'health', u'point_of_interest', u'establishment']"
0,43.5342053,5.4332049,Primary School Application Frédéric Mistral,ChIJB0BUtQmNyRIR_hiz_hrVu7M,"[u'school', u'point_of_interest', u'establishment']"
0,43.5333238,5.4356356,Goldfinger,ChIJBY614wmNyRIRUIneVo3m1Kk,"[u'beauty_salon', u'hair_care', u'point_of_interest', u'establishment']"
0,43.538726,5.4301586,Martellotto Meubles,ChIJLxjI5wWNyRIR6EHF2j0FOPA,"[u'furniture_store', u'home_goods_store', u'store', u'point_of_interest', u'establishment']"
0,43.53509,5.435143,barocco-shop,ChIJUcSRMgiNyRIRkkEAS3i2hM8,"[u'store', u'point_of_interest', u'establishment']"
0,43.530333,5.422182,"Psychothérapeute, Hypnothérapeute Aix-en-Provence: Frédérique Felter",ChIJe5dQ-jTzyRIRQSoselhuHUw,"[u'health', u'point_of_interest', u'establishment']"
0,43.5324804,5.4361129,Rafoni Dominique,ChIJwZ5Yq6CNyRIRwuoNwmRR0gA,"[u'lawyer', u'finance', u'point_of_interest', u'establishment']"
0,43.542951,5.3672478,AIX PAPIERS - De Fêtes en Fêtes,ChIJc0013_ryyRIRH78_frpRTfQ,"[u'home_goods_store', u'store', u'point_of_interest', u'establishment']"
0,43.5427818,5.3669614,Station-service TOTAL,ChIJYeBrzvvyyRIR7JIvj04BfzY,"[u'gas_station', u'point_of_interest', u'establishment']"
0,43.5425266,5.3684749,Phocomex,ChIJ98LOZObyyRIRDBvIEjFrkoE,"[u'general_contractor', u'point_of_interest', u'establishment']"
0,43.5433839,5.3682885,Les Halles de l'Automobile,ChIJ1U5WhObyyRIRzJeq0lFt3aM,"[u'car_dealer', u'car_repair', u'store', u'point_of_interest', u'establishment']"
0,43.543447,5.367272,Globale-Energie,ChIJo9emzD2NyRIR1hA5ngyrID4,"[u'general_contractor', u'point_of_interest', u'establishment']"
0,43.543377,5.366033,"Atelier ""Remise en jeux""",ChIJjzKdTuTyyRIR5Fb9wbIYxxU,"[u'point_of_interest', u'establishment']"
0,43.5433899,5.3655315,Ecoflamea,ChIJ629QUeTyyRIRsEzjhBIMO_g,"[u'plumber', u'point_of_interest', u'establishment']"
0,43.5444846,5.3679393,Restaurant Chez Elle,ChIJg-7EpubyyRIRUrXCnu9LX-Q,"[u'restaurant', u'bar', u'food', u'point_of_interest', u'establishment']"
0,43.5438051,5.3659207,Informaclick,ChIJm0u5NjyNyRIRLq8LDCfTZto,"[u'point_of_interest', u'establishment']"
0,43.5435306,5.3652562,Sud Materiaux,ChIJeRG1V-TyyRIRFevpT9gDDtM,"[u'storage', u'point_of_interest', u'establishment']"
0,43.5434728,5.3645877,Innformaclick,ChIJUdOvW-TyyRIR0oKQY6RXZIQ,"[u'electronics_store', u'store', u'point_of_interest', u'establishment']"
0,43.5350988,5.366851,Rey Yves,ChIJwVwtEezyyRIRBr8OZBE8Zqk,"[u'point_of_interest', u'establishment']"
0,43.5345061,5.3665009,Rey Robert,ChIJZ5KEauzyyRIRvUhKMEzQIsw,"[u'point_of_interest', u'establishment']"
0,43.542332,5.368857,Goût de pain Eguilles,ChIJcU0iZubyyRIRv9JXU6Lc-ec,"[u'bakery', u'restaurant', u'food', u'store', u'point_of_interest', u'establishment']"
0,43.536867,5.362534,Rapin Philippe,ChIJC7gI4vHyyRIRthHymBS7wbU,"[u'point_of_interest', u'establishment']"
0,43.5440321,5.3659724,C.C.T.A Eguilles Contrôle Technique Auto,ChIJc0013_ryyRIRO6fxZjULYzo,"[u'car_repair', u'point_of_interest', u'establishment']"
0,43.543507,5.364941,L'ISOLEUR,ChIJc0013_ryyRIRsUkC9WAWipk,"[u'general_contractor', u'point_of_interest', u'establishment']"
0,43.496411,5.394845,Domaine & Cie,ChIJTzz_j7SSyRIR6dAL8PnSQ8Q,"[u'restaurant', u'lodging', u'food', u'point_of_interest', u'establishment']"
0,43.4987523,5.4029882,Stables Du Sud,ChIJww8PR7CSyRIRJTgTxvH9lmQ,"[u'point_of_interest', u'establishment']"
0,43.4963121,5.4038632,Agrosemens,ChIJAT51VbeSyRIRF4bW4-8kZ2M,"[u'point_of_interest', u'establishment']"
0,43.5028899,5.3880722,Private School Sainte-Bernadette,ChIJS2GgmlHtyRIRibxd1Sbk_VQ,"[u'school', u'point_of_interest', u'establishment']"
0,43.5056634,5.3966612,LA CROISSANTERIE AIX (LA PIOLINE),ChIJ24F0XKuSyRIRq7iITW9KQlc,"[u'restaurant', u'food', u'point_of_interest', u'establishment']"
0,43.5060257,5.3950052,Texto France,ChIJ24F0XKuSyRIRAwjolUJOQzY,"[u'shoe_store', u'store', u'point_of_interest', u'establishment']"
0,43.505361,5.3963251,Celio,ChIJ24F0XKuSyRIRI10H81wa1Vs,"[u'clothing_store', u'store', u'point_of_interest', u'establishment']"
0,43.5032018,5.3907069,Balique-Casterez Isabelle,ChIJj5MSUlLtyRIRYn9ETdzSIYQ,"[u'finance', u'point_of_interest', u'establishment']"
0,43.505762,5.3969748,Ikks Junior,ChIJDyJjD6mSyRIRrxYJAsVAwyk,"[u'clothing_store', u'store', u'point_of_interest', u'establishment']"
0,43.5008655,5.3918478,Piscine Claude Bollet,ChIJpU1bhFLtyRIRb1UiWV9eSho,"[u'point_of_interest', u'establishment']"
0,43.506429,5.402669,Pldauto,ChIJB0iq6aiSyRIR8Tfc2bV22tA,"[u'car_dealer', u'store', u'point_of_interest', u'establishment']"
0,43.5052861,5.3961415,Alain Afflelou,ChIJrVmFOKeSyRIRxYblq6QfYig,"[u'health', u'store', u'point_of_interest', u'establishment']"
0,43.5035868,5.3892849,VINOMED,ChIJwWbqRu2NyRIRctJJIVanmEI,"[u'liquor_store', u'food', u'store', u'point_of_interest', u'establishment']"
0,43.5066469,5.4028628,Socodi,ChIJM4eO6aiSyRIRKWY6lgz3Gv0,"[u'furniture_store', u'home_goods_store', u'store', u'point_of_interest', u'establishment']"
0,43.5026114,5.3968353,Club HABITAT Immobilier,ChIJq6qqqrq5yRIRS1Eng56VQ68,"[u'point_of_interest', u'establishment']"
0,43.5070042,5.4000726,Générale d'Optique AIX LES MILLE,ChIJDyJjD6mSyRIREuwiu6rJW70,"[u'health', u'store', u'point_of_interest', u'establishment']"
0,43.5000863,5.3895087,Les Ecuries Du Serre,ChIJc4oYCE7tyRIRMufqlQO-OSM,"[u'point_of_interest', u'establishment']"
0,43.5050981,5.3956647,Du Pareil au Même,ChIJaYB0XKuSyRIR20se7JPU0ig,"[u'clothing_store', u'store', u'point_of_interest', u'establishment']"
0,43.5033373,5.3887853,RG AUTO - AGENT RENAULT,ChIJH68VKlLtyRIR4b85lYNwDxM,"[u'car_repair', u'point_of_interest', u'establishment']"
0,43.505964,5.3974556,Le Café,ChIJ24F0XKuSyRIRNNP4phfXOZE,"[u'bar', u'restaurant', u'food', u'point_of_interest', u'establishment']"
0,43.4964012,5.3943974,Eva Mas,ChIJgZDPVrOSyRIRUiDmdYbN0C8,"[u'point_of_interest', u'establishment']"
0,43.505614,5.3968192,Levi's Denim Bar,ChIJ24F0XKuSyRIRWA8kOBKFvFI,"[u'shoe_store', u'clothing_store', u'store', u'point_of_interest', u'establishment']"
0,43.4992476,5.3912587,Le Grand Chêne de la Rigaude,ChIJw1oNqE3tyRIRs5fCcK324r4,"[u'point_of_interest', u'establishment']"
0,43.5062469,5.4146591,Loxam Rental,ChIJIRXabFXtyRIRcS2Bgom8BSU,"[u'point_of_interest', u'establishment']"
0,43.5066279,5.4135271,Naturhouse Aix en Provence,ChIJ-Zo20aKNyRIREQj5popENGk,"[u'health', u'food', u'store', u'point_of_interest', u'establishment']"
0,43.5056052,5.4135603,Elite Wash,ChIJcxDz6KGSyRIRQ3h_oaKVJ0Y,"[u'car_wash', u'car_repair', u'point_of_interest', u'establishment']"
0,43.5062528,5.41304,Crédit Mutuel,ChIJlX3mmp-SyRIRJsFHvJ_Ii40,"[u'bank', u'atm', u'finance', u'point_of_interest', u'establishment']"
0,43.506515,5.4135132,Clinique Vétérinaire de la Parade,ChIJUQkxhZ-SyRIRW1tkj6v4tjM,"[u'veterinary_care', u'health', u'point_of_interest', u'establishment']"
0,43.50524,5.412535,ASSOCIATION TREMPLIN,ChIJN_4RurGNyRIRY07numSZP4I,"[u'health', u'point_of_interest', u'establishment']"
0,43.5106266,5.4150038,Centre auto Point S,ChIJCxlFDWCNyRIRj61TfgNug00,"[u'car_repair', u'store', u'point_of_interest', u'establishment']"
0,43.5065748,5.4132115,Subway,ChIJG0Klu6GSyRIRMUGAKgVfOtw,"[u'restaurant', u'food', u'point_of_interest', u'establishment']"
0,43.5065879,5.4133458,Les Milles Optique,ChIJa1hiDKGSyRIRSQo8eWaWPi0,"[u'health', u'store', u'point_of_interest', u'establishment']"
0,43.506582,5.4137137,Formelle,ChIJ6ekYsaGSyRIRrM0UvbKW670,"[u'gym', u'health', u'point_of_interest', u'establishment']"
0,43.5073632,5.3844541,Société du Canal de Provence - Pôle Laboratoires,ChIJPcYVFVftyRIRvHTEeRo8fIg,"[u'point_of_interest', u'establishment']"
0,43.5034165,5.3849289,Driving School Les Milles Bornes,ChIJDX6RXVDtyRIRZV28u6WCWtY,"[u'point_of_interest', u'establishment']"
0,43.5035716,5.3856159,Mairie annexe,ChIJ_0RYap6SyRIRDaD9QuhGfGs,"[u'local_government_office', u'point_of_interest', u'establishment']"
0,43.5039241,5.3815628,Site-Mémorial du Camp des Milles,ChIJYYheaFvtyRIRljy2jzpxEQM,"[u'museum', u'point_of_interest', u'establishment']"
0,43.5032027,5.3862758,La Casa des Milles,ChIJkdkmU1DtyRIRGi8uu4cYeAI,"[u'restaurant', u'food', u'point_of_interest', u'establishment']"
0,43.5032189,5.3854309,Agence Isp,ChIJvRh_UFDtyRIRaHxrQrCX_XI,"[u'real_estate_agency', u'point_of_interest', u'establishment']"
0,43.5025961,5.3861657,Maison Médicale la Mazarine,ChIJxUGfNlDtyRIRFwoCEUfElUY,"[u'health', u'point_of_interest', u'establishment']"
0,43.503251,5.3877747,Sarl DOSSETTO,ChIJzT9amlHtyRIRh-YLkemUPbU,"[u'general_contractor', u'store', u'point_of_interest', u'establishment']"
0,43.5043744,5.3874304,Amphoux-Vabre Optique Photo,ChIJ709FDVHtyRIR0olLp0m8x-A,"[u'health', u'store', u'point_of_interest', u'establishment']"
0,43.5033928,5.3873552,Agence Du Pays D'Aix,ChIJpU79oVHtyRIR8DRdOgUj6ag,"[u'real_estate_agency', u'point_of_interest', u'establishment']"
0,43.503556,5.387785,Les Milles Pattes | Crèches du Sud,ChIJz8-IdVHtyRIRLZnbUX0vIcQ,"[u'point_of_interest', u'establishment']"
0,43.503285,5.388231,La Chichoumeille,ChIJD8GAhFHtyRIRnYCxrMc8OQ0,"[u'restaurant', u'bar', u'food', u'point_of_interest', u'establishment']"
0,43.5053682,5.388717,La Madrague,ChIJGare4VPtyRIRBjk498fiTmA,"[u'restaurant', u'bar', u'food', u'point_of_interest', u'establishment']"
0,43.5015263,5.386373,Raphaël DOBRIC ostéopathe D.O.,ChIJS_8S1FHtyRIR4-xTCI4RndM,"[u'health', u'point_of_interest', u'establishment']"
0,43.502547,5.385662,pharmacie La Mazarine,ChIJxUGfNlDtyRIR4fgME-yo-yk,"[u'pharmacy', u'health', u'store', u'point_of_interest', u'establishment']"
0,43.5045618,5.3873832,Le Fournil de Marie,ChIJxZpQFFHtyRIRCO0N9FicUFA,"[u'bakery', u'food', u'store', u'point_of_interest', u'establishment']"
0,43.5049769,5.3886234,Office Municipal de Tourisme,ChIJGare4VPtyRIR5V6VwL8yRvY,"[u'point_of_interest', u'establishment']"
0,43.503223,5.3852953,Café de France,ChIJrXD5WlDtyRIRQbZxGSyJ5_Y,"[u'cafe', u'meal_takeaway', u'bar', u'restaurant', u'food', u'point_of_interest', u'establishment']"
0,43.507763,5.391846,TAN PAUL PHOTOGRAPHE,ChIJb1r3-lTtyRIRB_GVkuu2dAw,"[u'point_of_interest', u'establishment']"
0,43.5040661,5.387211,Crédit Agricole Alpes Provence,ChIJ426HFFHtyRIRTxfVjRpfAaU,"[u'bank', u'atm', u'finance', u'point_of_interest', u'establishment']"
0,43.5067819,5.3865771,Aix'Act diffusion,ChIJXzQu4VbtyRIRKRx3B1lzAmc,"[u'point_of_interest', u'establishment']"
0,43.5040438,5.3875616,Les Milles Pains,ChIJDyNmc1HtyRIRo5qBdkGPa-g,"[u'bakery', u'food', u'store', u'point_of_interest', u'establishment']"
0,43.5029834,5.3831138,Axxis Interim & Recrutement,ChIJhTjk4HiNyRIRQAXRYls0RfQ,"[u'point_of_interest', u'establishment']"
0,43.506137,5.387334,Technical English School,ChIJ87uB0lbtyRIRJGaaxA__hvA,"[u'point_of_interest', u'establishment']"
0,43.5067507,5.391868,School Auguste Boyer,ChIJk36k-lLtyRIRHwC4Zh3YAvQ,"[u'school', u'point_of_interest', u'establishment']"
0,43.505909,5.386408,Groupe Perspectives Sud,ChIJ87uB0lbtyRIReKwD6I8stnk,"[u'point_of_interest', u'establishment']"
0,43.5047281,5.3883131,Habib Nissim,ChIJ6R9wZ1HtyRIR_pj7HNj19v0,"[u'lodging', u'point_of_interest', u'establishment']"
0,43.5034165,5.3849289,LES MILLES ONGLES,ChIJDX6RXVDtyRIRHQhL4oa84ss,"[u'beauty_salon', u'hair_care', u'point_of_interest', u'establishment']"
0,43.5128765,5.4229584,Mega Motos,ChIJ2zs3_WSNyRIRbY1YYV5dyXE,"[u'store', u'point_of_interest', u'establishment']"
0,43.5121919,5.4214962,Aix Moto - Kawasaki,ChIJ1REV_7uNyRIRMVDnRgY3-so,"[u'car_repair', u'store', u'point_of_interest', u'establishment']"
0,43.516416,5.420165,Aix Golf,ChIJnRfmN2SNyRIRsykTplmGdV0,"[u'health', u'point_of_interest', u'establishment']"
0,43.5162621,5.4235009,Chiens Guides Aveugles Midi,ChIJ2zs3_WSNyRIRq8s9VgFaVGU,"[u'point_of_interest', u'establishment']"
0,43.5234337,5.422976,Aix en provence,ChIJLUAcf26NyRIRJqVASd-Knbc,"[u'point_of_interest', u'establishment']"
0,43.5214514,5.4204976,Familles en Crise,ChIJpZs51G6NyRIRwOvKLcFGzpA,"[u'health', u'point_of_interest', u'establishment']"
0,43.5220281,5.4221344,CALMELS Moksha -Cabinet d'Ostéopathie,ChIJx4Ix8G6NyRIR_jyfWVGvCUI,"[u'health', u'point_of_interest', u'establishment']"
0,43.522958,5.4210601,Aidadomi,ChIJk8YmU2mNyRIRcKhlbRxU9iY,"[u'point_of_interest', u'establishment']"
0,43.5212313,5.423208,Acte 13,ChIJW0fuUm6NyRIRVpjOuK0hOC4,"[u'point_of_interest', u'establishment']"
0,43.5218806,5.4223436,Dark Web Dezign,ChIJx4Ix8G6NyRIRm72MGhszJ8Y,"[u'point_of_interest', u'establishment']"
0,43.5214873,5.4204043,Aix Multi Services,ChIJrSc61G6NyRIRUinQXExpIdY,"[u'point_of_interest', u'establishment']"
0,43.5232523,5.4193201,Création de sites internet WEB BIZ,ChIJ4RxOWmmNyRIRt0bQtzRDKFw,"[u'point_of_interest', u'establishment']"
0,43.5246341,5.4166884,Dermoclinique,ChIJeSl-VmqNyRIRGrZIzVUnEkQ,"[u'beauty_salon', u'point_of_interest', u'establishment']"
0,43.5228139,5.41969,Centre Regional Oeuvres Univ Scolaires,ChIJMXAySWmNyRIRa6A8KD9OdoY,"[u'point_of_interest', u'establishment']"
0,43.5233,5.419778,Ludo le Maraîcher,ChIJ7fh6UWmNyRIRQIvlxUpy9L8,"[u'grocery_or_supermarket', u'food', u'store', u'point_of_interest', u'establishment']"
0,43.5202717,5.4243259,SRO “ bureau créatif ” design & communication,ChIJ4RrfVr6NyRIRwM6UoIdrbiQ,"[u'point_of_interest', u'establishment']"
0,43.5180687,5.3721151,Bollet Johanna,ChIJ7cSXkZjyyRIRoEAA0Jf3IDI,"[u'point_of_interest', u'establishment']"
0,43.518102,5.370593,Haeffner Melanie,ChIJuw0H45jyyRIRVCBjxnhNEzg,"[u'point_of_interest', u'establishment']"
0,43.518102,5.370593,le cours mirabeau,ChIJuw0H45jyyRIRVe_WHFfmyxE,"[u'restaurant', u'food', u'point_of_interest', u'establishment']"
0,43.5181918,5.3705857,Seimandi Cedric,ChIJuw0H45jyyRIR9SYgr2xxsxw,"[u'point_of_interest', u'establishment']"
0,43.511236,5.374465,Ollivier Michel,ChIJm5hisF_tyRIRH16znJbN3NM,"[u'point_of_interest', u'establishment']"
0,43.527965,5.434492,Hôtel Best Western Le Galice,ChIJ77FWugqNyRIR8N8Ea-uy_eM,"[u'lodging', u'point_of_interest', u'establishment']"
0,43.5233895,5.4321985,Société Générale,ChIJQ0EfHHSNyRIR9zwuVst2sec,"[u'bank', u'atm', u'finance', u'point_of_interest', u'establishment']"
0,43.5241293,5.434818,Crédit Mutuel,ChIJHZbm63WNyRIR-jCzPX-_lX0,"[u'bank', u'atm', u'finance', u'point_of_interest', u'establishment']"
0,43.5232859,5.4340469,Pays d'Aix Associations,ChIJ1d1a0HWNyRIRB0d510InyaQ,"[u'point_of_interest', u'establishment']"
0,43.5253701,5.4323095,Association Aix Tai Chi,ChIJ5eceWXSNyRIRbYI91WAOkr0,"[u'school', u'point_of_interest', u'establishment']"
0,43.5283656,5.4317521,Sdmo Industries,ChIJX4t4SQuNyRIR-QKAvtPca9I,"[u'point_of_interest', u'establishment']"
0,43.523108,5.435912,Pasino d'Aix-en-Provence,ChIJXzIPzHWNyRIRYtNOAb3i6yE,"[u'casino', u'point_of_interest', u'establishment']"
0,43.5259274,5.4361612,O2 Kid Aix,ChIJi4qB15-NyRIRPh90IlL_J1I,"[u'point_of_interest', u'establishment']"
0,43.528132,5.431494,Simply voiture sans permis,ChIJdfhbTAuNyRIRU8ijE-xgJBk,"[u'car_dealer', u'car_rental', u'store', u'point_of_interest', u'establishment']"
0,43.5250102,5.4355397,Garage du Pont D'Anthoine - Citroën,ChIJ6eyQiXWNyRIRLVQKc5_vJdI,"[u'car_repair', u'point_of_interest', u'establishment']"
0,43.5228734,5.4339019,LCL - Le Crédit Lyonnais,ChIJ9wWijXaNyRIRA7TxTe25WFI,"[u'bank', u'atm', u'finance', u'point_of_interest', u'establishment']"
0,43.5241714,5.4341403,Caisse d'Epargne Aix Encagnane,ChIJKUEex3WNyRIRQ5rmk8NO2Yo,"[u'bank', u'atm', u'finance', u'point_of_interest', u'establishment']"
0,43.5248171,5.4314326,Université Aix-Marseille III Paul Cezanne,ChIJj00mcXSNyRIRoXJpVFUTq-4,"[u'university', u'point_of_interest', u'establishment']"
0,43.5281548,5.4303481,La Serre,ChIJY1S9qQyNyRIRnx4Vm-nUMCc,"[u'florist', u'store', u'point_of_interest', u'establishment']"
