,Latitude,Longitude,Name,Place_id,Type
0,43.676647,4.6277769,Arles,ChIJzRRIXQdythIRUAWX_aUZCAQ,"[u'locality', u'political']"
0,43.5525916,4.6681595,Manade Blanc,ChIJPx0ntWxythIRFuQim9vE5Ds,"[u'food', u'point_of_interest', u'establishment']"
0,43.5525294,4.668417,Domaine De Paulon,ChIJAZMaEWt2thIRqGbwHbacTFM,"[u'point_of_interest', u'establishment']"
0,43.5592316,4.6720541,SAS Silos de Tourtoulen,ChIJ--NPZGptthIRedQ0bZXUctc,"[u'point_of_interest', u'establishment']"
0,43.557595,4.664974,13200,ChIJjQTKuhRythIRRci9zXnLmCo,"[u'point_of_interest', u'establishment']"
0,43.558174,4.666139,Société Agricole du Mas de Guinot,ChIJiWYDNmtythIRDEimgeavwsA,"[u'point_of_interest', u'establishment']"
0,43.558174,4.666139,Crozat Sylvie,ChIJiWYDNmtythIRjmQGsIkdQVg,"[u'health', u'point_of_interest', u'establishment']"
0,43.5480468,4.6815588,Mas Colombeau,ChIJqx15c3xythIRmNdtdRLag9Q,"[u'food', u'point_of_interest', u'establishment']"
0,43.5353624,4.6443431,Centre d'information de la Réserve Nationale de Camargue,ChIJN8SGOAluthIRTB3FYUENfRU,"[u'park', u'point_of_interest', u'establishment']"
0,43.453241,4.429074,Saintes-Maries-de-la-Mer,ChIJexX9dpdhthIRLWbvPeXuCYM,"[u'locality', u'political']"
0,43.567705,4.667387,La Chassagnette,ChIJh84ZFkdythIRGzvBRr819xA,"[u'restaurant', u'food', u'point_of_interest', u'establishment']"
0,43.570908,4.6552049,Plo Florent,ChIJQZtiTCVythIRKb3wjH6KloQ,"[u'food', u'point_of_interest', u'establishment']"
0,43.570908,4.6552049,Plo Jean-Louis Aime,ChIJQZtiTCVythIRVoYnhGgrrGw,"[u'point_of_interest', u'establishment']"
0,43.513239,4.669909,Unnamed,ChIJI2j2W7dtthIROrdP77zlgLA,"[u'point_of_interest', u'establishment']"
0,43.57817,4.66494,Cartier Pierre,ChIJBRZemjVythIRxhE2AkWtRzc,"[u'point_of_interest', u'establishment']"
0,43.568891,4.679448,L'Armellière,ChIJr54LT1pythIR3bY0odbZUiU,"[u'premise', u'point_of_interest', u'establishment']"
0,43.565696,4.6428269,Tardieu Marie,ChIJAZMaEWt2thIRpr0GCiz-X7I,"[u'food', u'point_of_interest', u'establishment']"
0,43.565696,4.6428269,Tardieu Alain Marcel,ChIJy6MbTopxthIRuI6Jxt3nPBQ,"[u'food', u'point_of_interest', u'establishment']"
0,43.5607,4.683613,Giraud,ChIJeXPUhmBythIRxQcLSNSJb8I,"[u'sublocality_level_1', u'sublocality', u'political']"
0,43.5454378,4.6307912,Vaccarès Parcours sonore de Camargue,ChIJ6QNQP-JxthIRlrtH-orBU9U,"[u'museum', u'point_of_interest', u'establishment']"
0,43.5087979,4.6668265,Station Biologique de la Tour du Valat,ChIJ10lKEzlsthIRec81mNqmY8E,"[u'point_of_interest', u'establishment']"
0,43.508728,4.668773,13200,ChIJsUlNKLRtthIR1UhES3Y_crw,"[u'point_of_interest', u'establishment']"
0,43.5105829,4.666559,Pont des Serpents,ChIJxRtNOrZtthIRV0YtayC1Ka4,"[u'premise', u'point_of_interest', u'establishment']"
0,43.509322,4.66867,La Tour du Valat,ChIJQzPPhbZtthIRazRDv8FrSgA,"[u'sublocality_level_1', u'sublocality', u'political']"
0,43.521944,4.644762,Pont de Saint-Vincent,ChIJf9Mlf3VuthIR-l0mktADwaI,"[u'premise', u'point_of_interest', u'establishment']"
0,43.5235,4.636515,Pont de Fumemorte,ChIJh6ICw3JuthIRbNmzc7bCdeo,"[u'premise', u'point_of_interest', u'establishment']"
0,43.5536389,4.626248,13200,ChIJU1o32OdxthIR45OV6uf5ivU,"[u'point_of_interest', u'establishment']"
0,43.532072,4.699606,13200,ChIJ93tkg2VtthIRs8U4UVtOogQ,"[u'point_of_interest', u'establishment']"
0,43.59026,4.67536,Du Chastel Anne-Charlotte,ChIJTfDSp7pzthIRPyGh5q11820,"[u'food', u'point_of_interest', u'establishment']"
0,43.576226,4.634789,Chez Bob,ChIJvxSnuaJxthIRqmHPmWjfx_8,"[u'restaurant', u'bar', u'food', u'point_of_interest', u'establishment']"
0,43.555601,4.709899,13104,ChIJ8-Nghr5ythIRpGRh52v80Lc,"[u'point_of_interest', u'establishment']"
0,43.5445629,4.712716,Giraud Ida,ChIJhxcosaZythIRaxTc35vm6aw,"[u'point_of_interest', u'establishment']"
0,43.546445,4.713135,13200,ChIJo9qeE6RythIRoTvLeyfAg90,"[u'point_of_interest', u'establishment']"
0,43.5445629,4.712716,Chambouleyron Giraud Isabelle Gisele,ChIJVWpU2l5tthIRonI0V-5HcPE,"[u'point_of_interest', u'establishment']"
0,43.547481,4.71844,13104,ChIJoxvGda9ythIRXbGd3ds7sFc,"[u'point_of_interest', u'establishment']"
0,43.491479,4.661842,Réserve Naturelle de la Tour du Vallat,ChIJ10lKEzlsthIR0Cl1APsIWA4,"[u'park', u'point_of_interest', u'establishment']"
0,43.500008,4.649034,Pont de Bézouce,ChIJR3aFXylsthIRE6Yu7TUjDgE,"[u'premise', u'point_of_interest', u'establishment']"
0,43.5105265,4.6857702,Manade Jacques Bon,ChIJy_Gt0qltthIRdEIjlOk_4OQ,"[u'point_of_interest', u'establishment']"
0,43.5253699,4.7063814,L'Estrambord,ChIJVcksbWptthIRb8R_LKiCLGA,"[u'restaurant', u'bar', u'food', u'point_of_interest', u'establishment']"
0,43.5252935,4.7063762,Post Office,ChIJ76NSbWptthIR9zRrSVdzHGw,"[u'post_office', u'finance', u'point_of_interest', u'establishment']"
0,43.524943,4.706596,Le Café Du Sambuc ARLES,ChIJ83STa2ptthIRmctigir7Rcg,"[u'cafe', u'restaurant', u'food', u'store', u'point_of_interest', u'establishment']"
0,43.525251,4.70462,13200,ChIJ9ZH5SmptthIR3Jw3uN0X2qc,"[u'stadium', u'point_of_interest', u'establishment']"
0,43.52494,4.70545,13200,ChIJD_OJQ2ptthIRRT56SEhlUu8,"[u'parking', u'point_of_interest', u'establishment']"
0,43.5252539,4.705859,13200,ChIJff7AamptthIRs5iUp3YZUY0,"[u'post_office', u'finance', u'point_of_interest', u'establishment']"
0,43.524719,4.705889,13200,ChIJDfl3aGptthIRtux0oelkSrc,"[u'point_of_interest', u'establishment']"
0,43.5247276,4.7061245,Mairie (Administration Générale),ChIJ99FQb2ptthIRIMZOhNlUdFE,"[u'local_government_office', u'point_of_interest', u'establishment']"
0,43.52438,4.70585,ABSI sécurité,ChIJ5_jHYGptthIRP731kiaZIYA,"[u'point_of_interest', u'establishment']"
0,43.524521,4.706207,13200,ChIJz5VPZGptthIR0P4YXTrEZG8,"[u'city_hall', u'local_government_office', u'point_of_interest', u'establishment']"
0,43.52452,4.706212,Raynaud Jean-Etienne,ChIJ--NPZGptthIRpC8Fxwfbctk,"[u'point_of_interest', u'establishment']"
0,43.5239438,4.7064215,Domaine de l'Armeillère (SCI),ChIJfY9bY2ptthIRa6NP1So1RbE,"[u'point_of_interest', u'establishment']"
0,43.5239438,4.7064215,Groupement D Employeurs Le Trident,ChIJfY9bY2ptthIRag0soafQuys,"[u'point_of_interest', u'establishment']"
0,43.52452,4.706212,Le Sambuc,ChIJM8TDj0FtthIRROpMUT3MezY,"[u'sublocality_level_1', u'sublocality', u'political']"
0,43.537853,4.711573,Guyot Vernet Elisabeth Jeanne Marie,ChIJVWpU2l5tthIR3zesj2V_ZrE,"[u'point_of_interest', u'establishment']"
0,43.537853,4.711573,Gallon Michel,ChIJVWpU2l5tthIRSSCGRnurz0Y,"[u'food', u'point_of_interest', u'establishment']"
0,43.537853,4.711573,Gallon Jean-Pierre,ChIJVWpU2l5tthIRO6_WGJB0eTM,"[u'food', u'point_of_interest', u'establishment']"
0,43.537853,4.711573,Sarl Trans-toros,ChIJR38GaisNthIRobGe4un0LCE,"[u'food', u'point_of_interest', u'establishment']"
0,43.537853,4.711573,Girieud Alain,ChIJVWpU2l5tthIRNVN0CC2UJgc,"[u'point_of_interest', u'establishment']"
0,43.537853,4.711573,Tarrazi Jean-Claude,ChIJVWpU2l5tthIR-sgYNofUHgY,"[u'point_of_interest', u'establishment']"
0,43.603555,4.66111,Guerri Jean-Claude,ChIJSQBd2-tzthIR2LcMwwf1ylw,"[u'point_of_interest', u'establishment']"
0,43.609001,4.6662929,Pont du Poissonnier,ChIJa-ATsJJzthIRKYa4XmOCNKw,"[u'premise', u'point_of_interest', u'establishment']"
0,43.585021,4.689881,Pont Calada,ChIJZasdzAZzthIRH45hUCQSglg,"[u'premise', u'point_of_interest', u'establishment']"
0,43.574856,4.630308,JPM Organisation,ChIJZxiGMZpxthIRfVDLgHCjg_Q,"[u'point_of_interest', u'establishment']"
0,43.570659,4.624503,Mas Saint Germain en Camargue,ChIJc-8k1ZdxthIRQ3IxAMjhSiI,"[u'lodging', u'point_of_interest', u'establishment']"
0,43.572743,4.624173,13200,ChIJd_YlVL1xthIR0hD9xPy6rWI,"[u'church', u'place_of_worship', u'point_of_interest', u'establishment']"
0,43.5725994,4.6237704,Le Mas du Petit Romieu,ChIJT4jNUb1xthIRzZJ65U3dLew,"[u'lodging', u'point_of_interest', u'establishment']"
0,43.569557,4.704197,De Roux Renaud,ChIJYUZvgehythIRbiXrhezYhag,"[u'point_of_interest', u'establishment']"
0,43.56956,4.7042,Domaine Attilon,ChIJ2xBvgehythIRjc5-cBuNcno,"[u'food', u'point_of_interest', u'establishment']"
0,43.569557,4.704197,De Roux Renaud Marie Robert,ChIJYUZvgehythIRenkgijvshdg,"[u'point_of_interest', u'establishment']"
0,43.542737,4.721804,13104,ChIJE7q3d6lythIRhQRMqbh7TLw,"[u'point_of_interest', u'establishment']"
0,43.551281,4.725285,SCEA Du Petit Abondoux,ChIJQwNo9rJythIRL-_Dz1eQNZI,"[u'point_of_interest', u'establishment']"
0,43.52,4.71,Logis Hôtel Longo Mai,ChIJu8pD5EBtthIRwg6XUC7biGQ,"[u'lodging', u'point_of_interest', u'establishment']"
0,43.5235715,4.7094688,Primary School,ChIJu8pD5EBtthIRKEnxce-ITos,"[u'school', u'point_of_interest', u'establishment']"
0,43.5236154,4.7105417,Zarzour Joseph,ChIJ83STa2ptthIRBep0FBso2P0,"[u'bar', u'point_of_interest', u'establishment']"
0,43.523578,4.710177,Coop Agricole Sud Céréales,ChIJaZdt-0BtthIRQ9NGxOxZl3k,"[u'point_of_interest', u'establishment']"
0,43.5235702,4.7134092,Lablack Gamel,ChIJrW6XIUdtthIRk2SaXMQWLeI,"[u'point_of_interest', u'establishment']"
0,43.5236318,4.7144954,Abrm,ChIJiwEqAkdtthIRDZqUMdaofUM,"[u'point_of_interest', u'establishment']"
0,43.523575,4.716605,13200,ChIJraUdzUdtthIRinXfgoqdsvI,"[u'church', u'place_of_worship', u'point_of_interest', u'establishment']"
0,43.5313469,4.720761,13200,ChIJYzMlxVFtthIR4LHmxEKz6Ok,"[u'point_of_interest', u'establishment']"
0,43.531399,4.721357,13200,ChIJS6g36FFtthIRgnj1XDhZRoo,"[u'point_of_interest', u'establishment']"
0,43.6140619,4.665076,Pont de la Vernède,ChIJdUqBUPNzthIRLacYmtu3FDc,"[u'premise', u'point_of_interest', u'establishment']"
0,43.616956,4.663944,Pont de Mollégès,ChIJVVeBHfVzthIRBbt9Z1FvdXo,"[u'premise', u'point_of_interest', u'establishment']"
0,43.605777,4.674404,Société Civile d'Exploitation Agricole de l'Hoste,ChIJLdPw6ZBzthIRsC3DZJ83gn8,"[u'point_of_interest', u'establishment']"
0,43.605777,4.674404,SCEA Du Mas de L'hoste Cereales,ChIJQcDWKBV2thIRqsfW_Vlm2XU,"[u'point_of_interest', u'establishment']"
0,43.60854,4.67503,Comptoir de la Tapie,ChIJfX3XFpBzthIRVBDWg0rVeQI,"[u'grocery_or_supermarket', u'food', u'store', u'point_of_interest', u'establishment']"
0,43.58278,4.70085,Agence Adéquation,ChIJ5ydLORxzthIRjK9LuoZifGg,"[u'lodging', u'point_of_interest', u'establishment']"
0,43.586245,4.694782,Sarl Lambert,ChIJhWLf7wRzthIR-lAyJ9YbWIE,"[u'restaurant', u'bar', u'food', u'point_of_interest', u'establishment']"
0,43.5869353,4.6283402,Mas Antonelle,ChIJn6JR-rZxthIRoztwJkXJlYw,"[u'lodging', u'point_of_interest', u'establishment']"
0,43.58666,4.627843,Gites Antonelle,ChIJA-ffcXRxthIRtex2wjduiEU,"[u'lodging', u'point_of_interest', u'establishment']"
0,43.578899,4.621124,La Telline,ChIJk5PzbaFxthIRVpV_rH5FmwU,"[u'restaurant', u'food', u'point_of_interest', u'establishment']"
0,43.575912,4.621714,Camargue Alpilles Safaris,ChIJFwTCrKNxthIR-oTuuJBu3cc,"[u'travel_agency', u'point_of_interest', u'establishment']"
0,43.5671,4.71192,Tavan Jean-Luc,ChIJ04BMf8NythIRnoq32vg4xC8,"[u'food', u'point_of_interest', u'establishment']"
0,43.5570116,4.7280365,Castellas Richard,ChIJcSDH8koNthIRPWjUnHuZUa8,"[u'point_of_interest', u'establishment']"
0,43.5570857,4.7283221,Ecole Marinette Carletti,ChIJvXld10oNthIRnFb1aT6udGw,"[u'point_of_interest', u'establishment']"
0,43.5578505,4.720522,Déchetterie de Mas Thibert,ChIJkQCmT7ZythIRU6s2o-mivrU,"[u'point_of_interest', u'establishment']"
0,43.5577089,4.7244043,Sanchez Eddy Michel,ChIJAQEzu7VythIRwjAII9zt34k,"[u'store', u'point_of_interest', u'establishment']"
0,43.5577603,4.7252696,Garage TINE,ChIJr-iMCbVythIRuL2IU_GpHuA,"[u'car_repair', u'point_of_interest', u'establishment']"
0,43.557315,4.725484,13104,ChIJo_SCBrVythIR-2ysvTcN2tg,"[u'church', u'place_of_worship', u'point_of_interest', u'establishment']"
0,43.557295,4.727603,13104,ChIJo4MILbVythIRu5b340ItD8s,"[u'park', u'point_of_interest', u'establishment']"
0,43.557443,4.727988,13104,ChIJlW2TzUoNthIRHw1vMW4-69A,"[u'point_of_interest', u'establishment']"
0,43.5552466,4.7281763,E.s.t.p,ChIJA7EgTEsNthIRlUCWlnqnsa4,"[u'point_of_interest', u'establishment']"
0,43.5570857,4.7283221,Mairie (Régie Développement Social),ChIJvXld10oNthIRhG8liwhljhc,"[u'point_of_interest', u'establishment']"
0,43.5578105,4.7214476,Cimetière de Mas Thibert,ChIJk3roZLZythIRq4f5ML0lsAw,"[u'cemetery', u'premise', u'point_of_interest', u'establishment']"
0,43.542548,4.7304602,Prévention et Soin des Addictions,ChIJ2YvFVVQNthIRHExx2y5eZvo,"[u'point_of_interest', u'establishment']"
0,43.542548,4.7304602,Colombeau Polybennes Polybennes,ChIJ2YvFVVQNthIRZw_rntBR_F0,"[u'point_of_interest', u'establishment']"
0,43.542548,4.7304602,Hustache Sebastien,ChIJ2YvFVVQNthIRuIV8fb0Vvzk,"[u'point_of_interest', u'establishment']"
0,43.542548,4.7304602,Colombeau Robert,ChIJ2YvFVVQNthIRxyNCiw4GRyU,"[u'point_of_interest', u'establishment']"
0,43.5425591,4.7305833,Aresxpert Arles,ChIJsRIPFUB2thIRWlgrQ52vGyg,"[u'accounting', u'finance', u'point_of_interest', u'establishment']"
0,43.54292,4.732142,Chavagnieu Jacques,ChIJu_DzOlQNthIRfOF57tOj2pk,"[u'point_of_interest', u'establishment']"
0,43.543673,4.733062,Du Vieux Mas Earl,ChIJddzToFYNthIRxKMoEzj5bvk,"[u'point_of_interest', u'establishment']"
0,43.548863,4.735174,13104,ChIJxcZ-0VENthIRmlbC_hdZvec,"[u'point_of_interest', u'establishment']"
0,43.554152,4.730305,13104,ChIJKWt9gEwNthIRnGnqQ8J3Zi0,"[u'point_of_interest', u'establishment']"
0,43.5542152,4.7309456,Eurl Patrick Schmitt,ChIJ96oQeEwNthIRqPfcH4tf5tI,"[u'point_of_interest', u'establishment']"
0,43.5542152,4.7309456,Bétons Granulats Services,ChIJ96oQeEwNthIRbuCM_kr6-FA,"[u'point_of_interest', u'establishment']"
0,43.5542152,4.7309456,Svec,ChIJ96oQeEwNthIR5ktLhAtIjzA,"[u'general_contractor', u'point_of_interest', u'establishment']"
0,43.5542087,4.7310634,Chiarel Laurent,ChIJoyc9eEwNthIRkIepctLhLSU,"[u'general_contractor', u'point_of_interest', u'establishment']"
0,43.4857269,4.6444481,Ulmet Parcours sonore de Camargue,ChIJw87GAqButhIRCJ7lBI7EN4s,"[u'museum', u'point_of_interest', u'establishment']"
0,43.5125475,4.7079705,Sc de Tourtoulen,ChIJAZMaEWt2thIRISePMRmbFRk,"[u'point_of_interest', u'establishment']"
0,43.5182167,4.7141671,Earl Jerome,ChIJQ09NDjltthIRivAKlzKhCAY,"[u'point_of_interest', u'establishment']"
0,43.524428,4.721916,Toiture Terrasse Etanchéité,ChIJl-yhaEltthIRR_KgnA8GGGk,"[u'point_of_interest', u'establishment']"
0,43.620578,4.652304,13200,ChIJrUYHcQd0thIRUtt0nzQm7Y0,"[u'point_of_interest', u'establishment']"
0,43.607307,4.635629,Mas des Rizières,ChIJ_Q5YR1txthIR4HMhykDDYug,"[u'travel_agency', u'real_estate_agency', u'lodging', u'point_of_interest', u'establishment']"
0,43.598757,4.634003,Château Brunet,ChIJC7i9iGhxthIRzaAEWPdvh4E,"[u'premise', u'point_of_interest', u'establishment']"
0,43.592466,4.631658,Mas de Valériole,ChIJAZMaEWt2thIRkzVVAQRBDRI,"[u'food', u'point_of_interest', u'establishment']"
0,43.5748559,4.611932,Gilbert Ingrid,ChIJZcVRpNgKthIRTG1cEhOV3gQ,"[u'point_of_interest', u'establishment']"
0,43.5573987,4.7290376,Mairie de Mas Thibert,ChIJpRinwkoNthIR5gK89GSE1nQ,"[u'city_hall', u'local_government_office', u'point_of_interest', u'establishment']"
0,43.5569579,4.7284413,Schools,ChIJe_vP2UoNthIRY4Qv8Vd96hw,"[u'school', u'point_of_interest', u'establishment']"
0,43.557236,4.728553,13104,ChIJY3j-2koNthIRAk_LUKJlfuc,"[u'point_of_interest', u'establishment']"
0,43.55722,4.72876,13104,ChIJAzGG3EoNthIReV1MVQT0K54,"[u'park', u'point_of_interest', u'establishment']"
0,43.5563083,4.7292814,Feougier Isabelle,ChIJ6XDcG0sNthIRcEXG4ZSJXtU,"[u'point_of_interest', u'establishment']"
0,43.5560409,4.7294163,Pharmacie Capion,ChIJZ-DYG0sNthIRXcrT2QlC7ss,"[u'pharmacy', u'health', u'store', u'point_of_interest', u'establishment']"
0,43.5563757,4.7295115,Chakouri Malik,ChIJFyfDG0sNthIRYziMLi0rngA,"[u'store', u'point_of_interest', u'establishment']"
0,43.557324,4.72912,Mairie (Administration Générale),ChIJhzHn50oNthIRbagIMC6Y10c,"[u'local_government_office', u'point_of_interest', u'establishment']"
0,43.557491,4.729051,13104,ChIJvZQq6EoNthIR4-ZrDLbpEgw,"[u'city_hall', u'local_government_office', u'point_of_interest', u'establishment']"
0,43.558055,4.729189,Mas Thibert,ChIJTRIzZTMNthIRikK0prlvh_M,"[u'sublocality_level_1', u'sublocality', u'political']"
0,43.5554281,4.7296927,Saint Michel Sylvestre,ChIJw4lSbUsNthIRFwaAxEVxBPU,"[u'point_of_interest', u'establishment']"
0,43.557091,4.7294774,Meyssonnier Serge Georges,ChIJZfmG40oNthIR4CWDf2X4790,"[u'doctor', u'health', u'point_of_interest', u'establishment']"
0,43.556453,4.7297419,Masini Thierry,ChIJRUO7BEsNthIRpK8NRbQqCus,"[u'general_contractor', u'point_of_interest', u'establishment']"
0,43.555745,4.729971,Scardigli Jean Pascal Yves Francis,ChIJh2ASDEsNthIR9h5tWcBvE7Q,"[u'food', u'point_of_interest', u'establishment']"
0,43.5560057,4.7300323,Meffre Gilles,ChIJsdbvCEsNthIRqVRJ0oQHXRA,"[u'point_of_interest', u'establishment']"
0,43.5571222,4.7297413,Jauselon Jean-Marc,ChIJ0SgE-UoNthIRDIoyZ97IeGg,"[u'point_of_interest', u'establishment']"
0,43.5580551,4.7291891,Earl les segonnaux,ChIJsVADlUoNthIR2u1TezjLBs8,"[u'point_of_interest', u'establishment']"
0,43.5560199,4.730535,13104,ChIJjaY3pksNthIRFhGmJ8PUQ_M,"[u'point_of_interest', u'establishment']"
0,43.55703,4.730329,13104,ChIJA4eo-EoNthIRfAXoIpD5WH4,"[u'post_office', u'finance', u'point_of_interest', u'establishment']"
0,43.558172,4.730196,13104,ChIJEy4sikoNthIRYT1iQ9nCCSw,"[u'point_of_interest', u'establishment']"
0,43.5574888,4.7300392,Piscine de Mas Thibert à Arles,ChIJXe3R9koNthIRZ51uVdUE3SA,"[u'point_of_interest', u'establishment']"
0,43.543178,4.737369,Les gîtes du vieux mas de l'étourneau,ChIJw7giaFcNthIR43npZOkXX0w,"[u'lodging', u'point_of_interest', u'establishment']"
0,43.457372,4.6603329,Pont des Écluses,ChIJSwda9PFrthIRjsH-KJjaSSs,"[u'premise', u'point_of_interest', u'establishment']"
0,43.48032,4.645621,Salin de Badon,ChIJpYsR8B1sthIR9SOVZGlKeSU,"[u'sublocality_level_1', u'sublocality', u'political']"
0,43.503665,4.707992,Manade Jacques Bon,ChIJ26j6PSBtthIRb6hbqhNpx_Q,"[u'point_of_interest', u'establishment']"
0,43.503665,4.707992,Frederic Bon,ChIJ26j6PSBtthIRlBx1qpQBI5w,"[u'point_of_interest', u'establishment']"
0,43.503665,4.707992,Nelli Bon Florence,ChIJ26j6PSBtthIRNBD4PQAcdYg,"[u'point_of_interest', u'establishment']"
0,43.5045383,4.7134165,Le Mas De Peint,ChIJJ0IbLCdtthIRD8jkyZCAgc8,"[u'lodging', u'restaurant', u'food', u'point_of_interest', u'establishment']"
0,43.626284,4.65473,ARLES - TAPE A L'ŒIL,ChIJu1H-jwV0thIRmpXEz0rexL8,"[u'clothing_store', u'store', u'point_of_interest', u'establishment']"
0,43.635547,4.6607519,Ponts du Mas de la ville,ChIJ0RdHJhR0thIRIGnmDfF9qos,"[u'premise', u'point_of_interest', u'establishment']"
0,43.6370099,4.661741,Les Jasses de la ville,ChIJ5d8_xxV0thIRMHWJywhfdcw,"[u'premise', u'point_of_interest', u'establishment']"
0,43.601773,4.624375,Nocibé,ChIJwcb833p2thIRrs8FikAdEtk,"[u'beauty_salon', u'spa', u'health', u'clothing_store', u'store', u'point_of_interest', u'establishment']"
0,43.6017739,4.6243751,Poivre Rouge,ChIJxQmLint2thIRTdS62phauzU,"[u'restaurant', u'food', u'point_of_interest', u'establishment']"
0,43.601768,4.624286,PRO&Cie - Arles Depannage Service,ChIJCQIhQ2V2thIReiCDhcuDJPw,"[u'electronics_store', u'home_goods_store', u'store', u'point_of_interest', u'establishment']"
0,43.601836,4.624589,Brice,ChIJwcb833p2thIRGaAk5LrFetk,"[u'clothing_store', u'store', u'point_of_interest', u'establishment']"
0,43.6017739,4.6243751,Camaïeu,ChIJwcb833p2thIRNM87g2l1vIE,"[u'clothing_store', u'store', u'point_of_interest', u'establishment']"
0,43.6017739,4.6243751,Crozatier Arles,ChIJ_____z9xthIR7AstUeQy9P8,"[u'furniture_store', u'home_goods_store', u'store', u'point_of_interest', u'establishment']"
0,43.601929,4.624546,Bouygues telecom,ChIJq6cBAUBxthIR1Z95vYlV3AM,"[u'store', u'point_of_interest', u'establishment']"
0,43.6017739,4.6243751,Tel and Com - Arles,ChIJCcH833p2thIRwC1AZGCXiNg,"[u'store', u'point_of_interest', u'establishment']"
0,43.6017273,4.6242893,Picard,ChIJja2Q6nt2thIRxaNW4WQbbUo,"[u'food', u'store', u'point_of_interest', u'establishment']"
0,43.601773,4.624439,Station-service E-Leclerc à Arles,ChIJsxseAEBxthIRYUuDprFLduY,"[u'car_repair', u'point_of_interest', u'establishment']"
0,43.6017739,4.6243751,Arbres et Jardins,ChIJ9-25Nk90thIRwHMivgMrkP0,"[u'general_contractor', u'point_of_interest', u'establishment']"
0,43.601463,4.624375,Boutique Orange,ChIJ_____z9xthIRxFR5r_ehB7U,"[u'store', u'point_of_interest', u'establishment']"
0,43.601618,4.624375,MASA MARSEILLE,ChIJn5nBXRVxthIR9hm-Ygngxdw,"[u'car_dealer', u'store', u'point_of_interest', u'establishment']"
0,43.6017739,4.6243751,Flamenco,ChIJ_____z9xthIRYx6ZdU8ARnE,"[u'point_of_interest', u'establishment']"
0,43.6017739,4.6243751,Orange,ChIJ_dn8ezTfsxIRR_tRjukpe2A,"[u'store', u'point_of_interest', u'establishment']"
0,43.6017739,4.6243751,Angelique Gabrielle,ChIJ_____z9xthIRw52CjQGmzgA,"[u'point_of_interest', u'establishment']"
0,43.601774,4.624375,celio Arles,ChIJ-____z9xthIRsUsprgmv2mQ,"[u'clothing_store', u'store', u'point_of_interest', u'establishment']"
0,43.6017661,4.6243215,Sikkens Solutions,ChIJT5JIRHl2thIRtSHhvPKhp0s,"[u'home_goods_store', u'store', u'point_of_interest', u'establishment']"
0,43.601772,4.624321,ENGIE Home Services,ChIJg5NYVRVxthIRcbk4qLoQ120,"[u'general_contractor', u'point_of_interest', u'establishment']"
0,43.601867,4.624332,SFR,ChIJoxqS_z9xthIRwVkew7fqPac,"[u'store', u'point_of_interest', u'establishment']"
0,43.60183,4.624257,Barale Hubert,ChIJN2rpvIx8thIRKS_L1YdR1YY,"[u'general_contractor', u'point_of_interest', u'establishment']"
0,43.6017894,4.6243858,Carrefour Drive,ChIJrScBAEBxthIRtcgWcBZMgq4,"[u'store', u'point_of_interest', u'establishment']"
0,43.6017739,4.6243751,Simply Services 13,ChIJ_____z9xthIR2GdBqJ5SxKw,"[u'point_of_interest', u'establishment']"
0,43.6017739,4.6243751,Bati 13 service rapid',ChIJ_____z9xthIR_QeyvJccbGQ,"[u'general_contractor', u'point_of_interest', u'establishment']"
0,43.6017739,4.6243751,L'Atelier du Tapissier M.Martin,ChIJmQgTP0B2thIRqej4qNSwLWQ,"[u'furniture_store', u'home_goods_store', u'store', u'point_of_interest', u'establishment']"
0,43.6017739,4.6243751,ABC Jardin,ChIJ_____z9xthIRL-Em_vAH_Uw,"[u'general_contractor', u'point_of_interest', u'establishment']"
0,43.579622,4.72005,Sauriat Geneviève,ChIJpZtbyylzthIRZdmzijpCkVU,"[u'finance', u'point_of_interest', u'establishment']"
0,43.5538332,4.7492752,La Granouille,ChIJ8cKDG2oNthIRfwLMUwBjQkg,"[u'electronics_store', u'store', u'point_of_interest', u'establishment']"
0,43.4502565,4.6607462,Mas de Saint Bertrand,ChIJ95w53utrthIRDAUMNCwcAHQ,"[u'lodging', u'point_of_interest', u'establishment']"
0,43.450054,4.660204,13129,ChIJj3qrZulrthIRyaNdEn-IhcQ,"[u'church', u'place_of_worship', u'point_of_interest', u'establishment']"
0,43.450427,4.661384,Mas de Saint-Bertrand,ChIJUSGm6etrthIRa30nbmJX7xk,"[u'sublocality_level_1', u'sublocality', u'political']"
0,43.491786,4.708328,Musée du Riz,ChIJf7t7v8JsthIRunB_qmG1oWg,"[u'museum', u'point_of_interest', u'establishment']"
0,43.5161749,4.733653,13200,ChIJE4Q4TskSthIRSeb0R6BvE6g,"[u'point_of_interest', u'establishment']"
0,43.520422,4.738197,domaine isle saint pierre,ChIJH3VyALgSthIRqGJ5iFNbTSo,"[u'food', u'point_of_interest', u'establishment']"
0,43.5367264,4.7533464,Marius Parcours sonore de Camargue Marais du Vigueirat,ChIJcWePfp4SthIR-XcgvW96wyg,"[u'museum', u'point_of_interest', u'establishment']"
0,43.5367368,4.7533994,Marius Parcours sonore de camargue,ChIJj3Pyfp4SthIR8xD_iPWxaDs,"[u'museum', u'point_of_interest', u'establishment']"
0,43.6167907,4.6348718,B.r.m,ChIJIyAD-kB2thIRevMvUc9GljM,"[u'grocery_or_supermarket', u'food', u'store', u'point_of_interest', u'establishment']"
0,43.6167907,4.6348718,BRM Production Agricole,ChIJUycCC1JxthIRfcA6d5J_L28,"[u'point_of_interest', u'establishment']"
0,43.6167907,4.6348718,Des Sansouires,ChIJIyAD-kB2thIR9RGqjMKgT84,"[u'food', u'point_of_interest', u'establishment']"
0,43.6167907,4.6348718,Plomberie Camarguaise,ChIJUycCC1JxthIRcdpXdA2FALc,"[u'point_of_interest', u'establishment']"
0,43.6167907,4.6348718,Pavanello Julien,ChIJUycCC1JxthIRmaOYph44N28,"[u'point_of_interest', u'establishment']"
0,43.6167907,4.6348718,Marchetti Raphaël,ChIJIyAD-kB2thIRztmDU-UCw0M,"[u'food', u'point_of_interest', u'establishment']"
0,43.6167907,4.6348718,Soulet Berlhe Marie Line,ChIJIyAD-kB2thIRVms1Wv-wTyo,"[u'food', u'point_of_interest', u'establishment']"
0,43.6167907,4.6348718,Keramidas Eurl Chez Manu Michel,ChIJUycCC1JxthIRaQYx_crErAs,"[u'point_of_interest', u'establishment']"
0,43.5686,4.594717,Brissot Martin,ChIJyfVmx0hwthIRZVHlxESR6e4,"[u'point_of_interest', u'establishment']"
0,43.56201,4.738591,Le Moulin,ChIJDfV32zkNthIRloY4zOAFnGA,"[u'sublocality_level_1', u'sublocality', u'political']"
0,43.447313,4.661974,Pont du Japon,ChIJL-t2beprthIR6_mYT3Y7_As,"[u'premise', u'point_of_interest', u'establishment']"
0,43.520409,4.742072,SCEA de la Commanderie,ChIJkZu3obgSthIRG83Hiv5oPVY,"[u'point_of_interest', u'establishment']"
0,43.65251,4.660702,Mas du Prieur,ChIJF7WprTZ0thIR5C013x7hqN4,"[u'lodging', u'point_of_interest', u'establishment']"
0,43.648564,4.668986,Arles Tanguedia,ChIJ5006kEh0thIRK_A4h5vXYGg,"[u'point_of_interest', u'establishment']"
0,43.6512941,4.6694669,Relais des Cantarelles,ChIJ47e6R0l0thIRNui5l6l9l_k,"[u'gas_station', u'point_of_interest', u'establishment']"
0,43.649067,4.652843,Les Écuries de l'Arte,ChIJhdy7gi90thIRFafuA7gugbA,"[u'point_of_interest', u'establishment']"
0,43.6504294,4.6532102,Fernay Olivier,ChIJw3hYM_t0thIRlG6CVxytAF8,"[u'food', u'point_of_interest', u'establishment']"
0,43.651492,4.670276,Station-service TOTAL,ChIJhStsSEl0thIRT3H6gDzNJrw,"[u'gas_station', u'point_of_interest', u'establishment']"
0,43.648652,4.650993,Peigne Benoit Agriculteur,ChIJoV1hWC90thIRt08lvwA-r38,"[u'food', u'point_of_interest', u'establishment']"
0,43.648834,4.66636,Hamant Philippe,ChIJU9GpEEh0thIRN_Pb0a5TSqE,"[u'health', u'point_of_interest', u'establishment']"
0,43.648834,4.66636,Masseiglia Hélène,ChIJU9GpEEh0thIRbx6keab33mU,"[u'food', u'point_of_interest', u'establishment']"
0,43.648834,4.66636,Bouc Laetitia,ChIJn_SoEEh0thIRDbLtjpmvhD0,"[u'point_of_interest', u'establishment']"
0,43.6456329,4.6696266,Les Hespérides Earl,ChIJV4GoEEh0thIRUNLGIxBLEFQ,"[u'food', u'point_of_interest', u'establishment']"
0,43.645713,4.669683,Dub's Family,ChIJ0cTOYEZ0thIRhaBtFf6CejU,"[u'finance', u'point_of_interest', u'establishment']"
0,43.6482932,4.654072,Burli Johan,ChIJXWaCYCV0thIRflPmrjW7Af4,"[u'point_of_interest', u'establishment']"
0,43.6462191,4.6530614,Manade Fernay - Mas des Jasses de la Ville - Arles Camargue,ChIJe3Vo5SR0thIRZFaejfTrsFc,"[u'point_of_interest', u'establishment']"
0,43.6503907,4.6702041,Vire Christiane,ChIJ8VIvJkl0thIRHM9NaW5YNxQ,"[u'point_of_interest', u'establishment']"
0,43.6491961,4.6714667,Jovet Christian,ChIJTdtNN090thIR24Q-GO70G_o,"[u'food', u'point_of_interest', u'establishment']"
0,43.6491961,4.6714667,Gaec Laforest,ChIJTdtNN090thIRPmCWj7qIqcY,"[u'food', u'point_of_interest', u'establishment']"
0,43.6491961,4.6714667,Grangier Stephane,ChIJTdtNN090thIRzdg-DJhBThA,"[u'plumber', u'point_of_interest', u'establishment']"
0,43.649196,4.671467,Cantarelles de Restauration,ChIJTdtNN090thIRwwWeF5BiSpU,"[u'restaurant', u'bar', u'food', u'point_of_interest', u'establishment']"
0,43.649226,4.671502,Reggio Dominique Rene,ChIJRR9XN090thIRba67_MHDzjY,"[u'point_of_interest', u'establishment']"
0,43.6474841,4.6730052,Mas Des Miottes,ChIJTVzyhkV0thIRR07KoWtVPsU,"[u'gas_station', u'point_of_interest', u'establishment']"
0,43.651593,4.670174,Aire de Service des Cantarelles,ChIJNX06Rkl0thIRQhVqXoy4Xzc,"[u'point_of_interest', u'establishment']"
0,43.609285,4.614962,Earl Du Mas Du Grand Gageron,ChIJd55GJztxthIRTf31ucRwPB4,"[u'food', u'point_of_interest', u'establishment']"
0,43.60772,4.61365,Lillamand Marcel,ChIJ8ePQuyRxthIR6VIB50plIg0,"[u'point_of_interest', u'establishment']"
0,43.607721,4.61365,Societe Agricole des Basses Mejanes,ChIJ2fKYsSRxthIRR-wBh0QbQtY,"[u'point_of_interest', u'establishment']"
0,43.5940624,4.7236339,Stud D'anibert,ChIJXz0LlE9zthIRAn-h2QKZTz4,"[u'point_of_interest', u'establishment']"
0,43.589735,4.725049,Sarl Station Bar Marylaine,ChIJB8tZWDJzthIR6ngcTkJ-5Xo,"[u'bar', u'point_of_interest', u'establishment']"
0,43.589735,4.725049,Passion Acier Design,ChIJB8tZWDJzthIRyZ0aiQWSvHQ,"[u'point_of_interest', u'establishment']"
0,43.589735,4.725049,Les Jolis Bambins,ChIJB8tZWDJzthIR3ZmRUOjyJgo,"[u'point_of_interest', u'establishment']"
0,43.5897515,4.7251122,Societe Civile AP Immobilier,ChIJP0nJWTJzthIR3136L_WXMao,"[u'point_of_interest', u'establishment']"
0,43.439534,4.673342,Mas de Grand-Ponche,ChIJkSRvqLtrthIRwRaBpp7q4Go,"[u'sublocality_level_1', u'sublocality', u'political']"
0,43.442487,4.677659,Pont des Cocardes,ChIJ2etfE6NrthIRkbbMPj4DYIE,"[u'premise', u'point_of_interest', u'establishment']"
0,43.4436241,4.6437437,Bras de fer Parcours sonore de Camargue,ChIJ27Is62FpthIR1qodcXe4h2Q,"[u'museum', u'point_of_interest', u'establishment']"
0,43.443797,4.643429,13129,ChIJhVD-lWFpthIRE_UE5J3ckRE,"[u'point_of_interest', u'establishment']"
0,43.458785,4.690927,13200,ChIJ4b82XXlrthIR12VYVyGSH9g,"[u'point_of_interest', u'establishment']"
0,43.456004,4.692368,S.C.A Petit Badon,ChIJHROm8DMVthIR5SoPFvJOToI,"[u'point_of_interest', u'establishment']"
0,43.456004,4.692368,Feh Claudia,ChIJHROm8DMVthIRWPp3dpXSjFU,"[u'point_of_interest', u'establishment']"
0,43.4585772,4.6957186,Sa Du Grand Badon,ChIJ8zLIQHtrthIR8gLpKwPV5Vw,"[u'point_of_interest', u'establishment']"
0,43.4585772,4.6957186,SCEA Du Grand Badon,ChIJ8zLIQHtrthIRdI_m0POJBE8,"[u'point_of_interest', u'establishment']"
0,43.47183,4.70662,Sofianos Constantin,ChIJ3Woqe5hsthIRF7rT8qgGmrU,"[u'point_of_interest', u'establishment']"
0,43.503744,4.734058,13200,ChIJn9PUYdYSthIRBo8A71acq64,"[u'point_of_interest', u'establishment']"
0,43.6589966,4.6665892,Le mas d'Eymard,ChIJ48i5brV1thIR10sSxd55nEA,"[u'travel_agency', u'general_contractor', u'real_estate_agency', u'lodging', u'point_of_interest', u'establishment']"
0,43.6589869,4.6553439,L'Arlésienne,ChIJw3hYM_t0thIRAfzUvRKIW7s,"[u'campground', u'rv_park', u'park', u'lodging', u'point_of_interest', u'establishment']"
0,43.6592492,4.6668797,Derot Sylvie,ChIJU3VLbbV1thIRrJCVXW7xAKc,"[u'insurance_agency', u'point_of_interest', u'establishment']"
0,43.6581857,4.6607024,Transdev Arles,ChIJ2ZfFg3x2thIR9zkZULiCCn4,"[u'point_of_interest', u'establishment']"
0,43.6619785,4.6639425,Arles Inform,ChIJfZ4YFcp1thIRSzQJLUpw_g0,"[u'point_of_interest', u'establishment']"
0,43.6598248,4.6542289,CELLUCHIC - Arles Minceur,ChIJR9M5ttJ1thIRNKZLbf4vmx8,"[u'beauty_salon', u'point_of_interest', u'establishment']"
0,43.659773,4.654355,Ostéopathe Rivaud Pierre-Jean,ChIJnZiYkdJ1thIRW1nySQe0OqY,"[u'physiotherapist', u'health', u'point_of_interest', u'establishment']"
0,43.6618981,4.6688775,Eco Concept,ChIJNwtvL7R1thIRZCShO9A9KDc,"[u'point_of_interest', u'establishment']"
0,43.6632112,4.6651839,LES CAVALIERS DU PLATEAU,ChIJFfLI5cl1thIRiDY54Ef_U88,"[u'point_of_interest', u'establishment']"
0,43.6573443,4.6611532,SUEZ - Recyclage et valorisation France,ChIJt-XQ_z9xthIR3WsBB0rSNrk,"[u'point_of_interest', u'establishment']"
0,43.659756,4.663029,La Pichade,ChIJfY3rAct1thIR9EelvUxk82s,"[u'restaurant', u'food', u'point_of_interest', u'establishment']"
0,43.6591764,4.6669706,Chipon Henri,ChIJU3VLbbV1thIRk7p8bO-I814,"[u'food', u'point_of_interest', u'establishment']"
0,43.6597731,4.6564997,Tall Sabine,ChIJ9y2kcs11thIRQFrAcD4rRZE,"[u'point_of_interest', u'establishment']"
0,43.6614933,4.6597179,Defeber Johan,ChIJddRcE8x1thIRQJsR8pyuGqI,"[u'point_of_interest', u'establishment']"
0,43.653714,4.671121,Brasserie du Delta,ChIJTdtNN090thIR7M6UR_5yQyg,"[u'food', u'point_of_interest', u'establishment']"
0,43.6597537,4.6687598,Zip2Feu,ChIJcVb0-LR1thIRjHTfAw9Y1ZI,"[u'store', u'point_of_interest', u'establishment']"
0,43.6589452,4.6699534,Ladet Jeannine,ChIJj-vekLR1thIRKxooS0CHgck,"[u'health', u'point_of_interest', u'establishment']"
0,43.6589452,4.6699534,Ladet Anne,ChIJj-vekLR1thIRsraQ3YshCH4,"[u'health', u'point_of_interest', u'establishment']"
0,43.6620497,4.6620965,Sarl CV Le Florhotel,ChIJkceJ3Mt1thIR2v3axaq0q04,"[u'point_of_interest', u'establishment']"
0,43.6589852,4.6700944,La Bastide Des Muses,ChIJ5bTlkLR1thIRtm3ugCGK-bY,"[u'lodging', u'point_of_interest', u'establishment']"
0,43.652408,4.653155,Transport Canu,ChIJv-8cZC50thIRm8rhh6BUsYE,"[u'point_of_interest', u'establishment']"
0,43.6590971,4.6700879,Weck Daniel Gaston Gabriel,ChIJY2pJkLR1thIRscVNqu104xA,"[u'point_of_interest', u'establishment']"
0,43.6612111,4.6566406,Chirurgiens Dentistes Dr Battestini,ChIJ0VUBls11thIRKfcTV190SYs,"[u'point_of_interest', u'establishment']"
0,43.6597691,4.6543176,Rivaud Pierre,ChIJw3hYM_t0thIR7ftRQoCzdH8,"[u'health', u'point_of_interest', u'establishment']"
0,43.6619758,4.6582531,Association Mieux Prescrire,ChIJi0r9Mcx1thIRalJOGYEToRI,"[u'point_of_interest', u'establishment']"
0,43.6584858,4.652704,Mas Crémieu,ChIJFZ7AKdN1thIRid0Y9GvXLN4,"[u'point_of_interest', u'establishment']"
0,43.6627184,4.6613345,Sci L Oliveraie,ChIJOWWoWcl1thIRY1ETJGKEAZY,"[u'point_of_interest', u'establishment']"
0,43.6627184,4.6613345,Soc Expert Compta Gerard Balvay Consei,ChIJOWWoWcl1thIRmjL4ioV6c2w,"[u'point_of_interest', u'establishment']"
0,43.6606308,4.6545738,Marcher Dans Le Pas Des Glaneurs,ChIJd6cLY9J1thIRfEJA_kXdc70,"[u'point_of_interest', u'establishment']"
0,43.6620573,4.6571873,Astaud Laure,ChIJtyc7xc11thIRZ2h0TEHv8Oo,"[u'point_of_interest', u'establishment']"
0,43.6628368,4.6588736,martos laurent,ChIJSzBznc51thIRpUSfnp94Eyk,"[u'point_of_interest', u'establishment']"
0,43.6587727,4.6723026,ASA Arrosants de la Crau,ChIJk92FFLN1thIRfEY82y8hzvc,"[u'point_of_interest', u'establishment']"
0,43.6618258,4.6689002,Buisson Galas Danielle Melina,ChIJC4O-HLR1thIRmJZR_tSs_BA,"[u'point_of_interest', u'establishment']"
0,43.6632839,4.6587878,Richard Chevallier Film & Photographie,ChIJV_mOkM51thIR3WqjUYJjXbc,"[u'point_of_interest', u'establishment']"
0,43.6625151,4.6684246,Simian Maçonnerie,ChIJtxTVSM10thIROUiZpkqSGfc,"[u'general_contractor', u'point_of_interest', u'establishment']"
0,43.6637335,4.6644044,FDGDON13 Don,ChIJb5BXv8l1thIRUD5WYhJCUGU,"[u'point_of_interest', u'establishment']"
0,43.660864,4.6531924,Pont de Chamet,ChIJS0oTUdJ1thIR__eqZT4slYM,"[u'premise', u'point_of_interest', u'establishment']"
0,43.6592522,4.6669849,Secrets de Provence,ChIJmXVLbbV1thIRYdO63BxXXlg,"[u'beauty_salon', u'point_of_interest', u'establishment']"
0,43.643618,4.680387,Chez Aurel',ChIJX8sc6Vt0thIRbVBSN9xlgzc,"[u'restaurant', u'food', u'point_of_interest', u'establishment']"
0,43.6521319,4.6441029,Essentiel SPA,ChIJTYZJSIN2thIRWaBcM90nQnU,"[u'spa', u'lodging', u'point_of_interest', u'establishment']"
0,43.6485999,4.6456442,Institut Médico Professionnel Les Abeilles,ChIJAZMaEWt2thIRBqZBFrXsVTI,"[u'point_of_interest', u'establishment']"
0,43.649372,4.646715,Juglaret Jerome,ChIJYSTVcih0thIRs0WW_dQ-GOI,"[u'food', u'point_of_interest', u'establishment']"
0,43.649245,4.646327,Comité d'Etablissement I.M.Pro. Les Abeilles,ChIJ88zUcih0thIRe8S0aequaNA,"[u'point_of_interest', u'establishment']"
0,43.645999,4.642892,unnamed,ChIJmzk4rp12thIR3YikfCnvtfY,"[u'point_of_interest', u'establishment']"
0,43.639659,4.691472,L'Oustau di Galino - Clément Lajoux,ChIJi4w4gPR0thIR6vH46r0nhuQ,"[u'food', u'store', u'point_of_interest', u'establishment']"
0,43.6433792,4.6382474,FCD Animation,ChIJj404SBN2thIRRsbYTPwzVZo,"[u'point_of_interest', u'establishment']"
0,43.6153738,4.7095319,Manade Père-Descordes,ChIJLz2IqV9zthIR564wZf1DolQ,"[u'point_of_interest', u'establishment']"
0,43.6098676,4.6072788,Mas Petit Prince,ChIJbeTKXiZxthIRF8xjZcNDjLc,"[u'lodging', u'point_of_interest', u'establishment']"
0,43.60977,4.6072471,Chez Bob,ChIJkZXRWCZxthIRXGT1v8y_9Tg,"[u'restaurant', u'food', u'point_of_interest', u'establishment']"
0,43.609862,4.607364,Brun Julien Paul Robert,ChIJj5XRWCZxthIRexPqnQsbsNU,"[u'point_of_interest', u'establishment']"
0,43.609862,4.607364,Frainer Geneviève,ChIJj5XRWCZxthIRDHbS4hvyVgU,"[u'general_contractor', u'point_of_interest', u'establishment']"
0,43.6095309,4.607297,13200,ChIJS93Q9SZxthIRoRXt5qJ1KPI,"[u'church', u'place_of_worship', u'point_of_interest', u'establishment']"
0,43.60977,4.6072471,Manade Jacques Mailhan,ChIJkZXRWCZxthIRNJg96ur7Lj0,"[u'point_of_interest', u'establishment']"
0,43.60977,4.607247,Gageron,ChIJj5XRWCZxthIR0ywskkbh0K0,"[u'sublocality_level_1', u'sublocality', u'political']"
0,43.574925,4.750155,Côte Neuve La Nuit Etoilée,ChIJp1ifCR8NthIR8upoG4kROJM,"[u'restaurant', u'bar', u'food', u'point_of_interest', u'establishment']"
0,43.574925,4.750155,Sud Gibier,ChIJp1ifCR8NthIR1eY9V2GCTwU,"[u'point_of_interest', u'establishment']"
0,43.5782006,4.7525542,Exploit Agric Allemand Et Fils,ChIJs5Mv6eEMthIR5JmA0IrWQ_E,"[u'food', u'point_of_interest', u'establishment']"
0,43.5782006,4.7525542,M 2 C Earl,ChIJs5Mv6eEMthIRGSYGC163rLE,"[u'food', u'point_of_interest', u'establishment']"
0,43.42684,4.656221,Pont de l'Aube,ChIJQ2q9uzJqthIRcTke9u0Nh2o,"[u'premise', u'point_of_interest', u'establishment']"
0,43.441871,4.64285,Le Pèbre,ChIJ1xh1MWJpthIRaLFRunn8FNs,"[u'premise', u'point_of_interest', u'establishment']"
0,43.444156,4.638549,Amphise,ChIJKXyH6mZpthIRL-nWqTqBIvg,"[u'premise', u'point_of_interest', u'establishment']"
0,43.4511091,4.6948114,Mas du Grand Badon,ChIJn0AZl3FrthIRY0BXo9aRfD4,"[u'lodging', u'point_of_interest', u'establishment']"
0,43.4576939,4.695984,13200,ChIJbRq9JXtrthIRHq1yO_x32SU,"[u'point_of_interest', u'establishment']"
0,43.50489,4.748201,Carine Dehaut Kinésiologie/Reiki,ChIJ13KVHN4SthIRpJ3zhEh4rEY,"[u'point_of_interest', u'establishment']"
0,43.6645044,4.6551052,Logis Hôtel le Mas de la Roseraie,ChIJJV_Y2NF1thIRtIMM3Bu-2DE,"[u'lodging', u'point_of_interest', u'establishment']"
0,43.6628689,4.6501779,Hostellerie De La Source,ChIJX6HrA3R2thIRo8MNEDZC6eE,"[u'lodging', u'restaurant', u'food', u'point_of_interest', u'establishment']"
0,43.6635083,4.6702924,J.P.G Maquettes,ChIJmSc4ybZ1thIR83SKDSKe6Z0,"[u'point_of_interest', u'establishment']"
0,43.6662393,4.6692339,Avenir équipement,ChIJ19s3abd1thIR6hjUBUJP0Y4,"[u'plumber', u'general_contractor', u'point_of_interest', u'establishment']"
0,43.664551,4.65677,Maison de retraite Arles - Les Opalines,ChIJfzWXRs51thIRekWJpQ1v4UQ,"[u'meal_delivery', u'health', u'food', u'point_of_interest', u'establishment']"
0,43.6619698,4.6725359,Gamarra Énergies Renouvelables,ChIJmZQifLF1thIR3RN5qnVUSgk,"[u'point_of_interest', u'establishment']"
0,43.6645044,4.6551052,Le rhône,ChIJd04J2dF1thIRJ9X1xgNwfTg,"[u'point_of_interest', u'establishment']"
0,43.6619258,4.6702869,Quaix Fabrice,ChIJ7f1DA7R1thIRuFpWo-33cKU,"[u'point_of_interest', u'establishment']"
0,43.6619351,4.670409,Sarl Mistral,ChIJ_7eYA7R1thIRs_dbnDpwbkE,"[u'point_of_interest', u'establishment']"
0,43.6667948,4.671122,WelcomCréa,ChIJB142qrB1thIRLT4j0yC4aNQ,"[u'point_of_interest', u'establishment']"
0,43.66292,4.650595,Pont de Crau,ChIJZR9KB9R1thIRAmS2GqcZCCY,"[u'sublocality_level_1', u'sublocality', u'political']"
0,43.662696,4.6518085,Primary School,ChIJ1fd9P5Z1thIRFgR6Is4380o,"[u'school', u'point_of_interest', u'establishment']"
0,43.662338,4.652196,Carmelle,ChIJfToa0NN1thIR0_NNdB9TWDk,"[u'point_of_interest', u'establishment']"
0,43.6623483,4.6520947,Wasoil,ChIJM4sZ0NN1thIRRkWvjLzf7sE,"[u'department_store', u'store', u'point_of_interest', u'establishment']"
0,43.6642907,4.6516991,Pécheral Patrick,ChIJJRHLFdF1thIRrcLowMQ8Iko,"[u'plumber', u'general_contractor', u'point_of_interest', u'establishment']"
0,43.6628496,4.6509984,Mairie,ChIJdYc54tN1thIR0Fl5go3bnVw,"[u'city_hall', u'local_government_office', u'point_of_interest', u'establishment']"
0,43.6628485,4.6509138,Eurorepar Garage Beltran,ChIJu0bS_NN1thIR6NGo-6Gg2NU,"[u'car_repair', u'point_of_interest', u'establishment']"
0,43.6622036,4.6731304,Virginie PRADELS Architecte DPLG,ChIJddshfLF1thIRveAcO4j3XMw,"[u'point_of_interest', u'establishment']"
0,43.6639415,4.6736074,Sud Climatisation,ChIJmSc4ybZ1thIRQBriZXSfvY0,"[u'plumber', u'general_contractor', u'point_of_interest', u'establishment']"
0,43.6626195,4.6505312,Metifiot Pneus,ChIJxSXi-9N1thIRh90Vl8YNlWI,"[u'point_of_interest', u'establishment']"
0,43.6663221,4.6737369,Atelier des Arcades,ChIJ3_sLVmx2thIReECubzYhyGg,"[u'painter', u'point_of_interest', u'establishment']"
0,43.6619258,4.6702869,Eurl Clarens,ChIJ7f1DA7R1thIRoOI_6XGG130,"[u'general_contractor', u'point_of_interest', u'establishment']"
0,43.6674924,4.6640403,Pagnon Frederic Stephane,ChIJA9uLeMh1thIRZvyX-Y8KHA0,"[u'florist', u'store', u'point_of_interest', u'establishment']"
0,43.6676691,4.6605751,Menuiserie Metallique Maione Antonio,ChIJtf9RB8Z1thIRqmS8FuQXC5Q,"[u'point_of_interest', u'establishment']"
0,43.6674802,4.6642974,Blanc Jean-Louis,ChIJqcLy_c11thIRQOgB_QmdoOI,"[u'point_of_interest', u'establishment']"
0,43.6644582,4.6566409,Humanis Médical,ChIJC42mRmp2thIRYEhUPN_gO34,"[u'point_of_interest', u'establishment']"
0,43.6681548,4.6616251,Cabinet Roux Expertises Maritimes,ChIJOw1y_8V1thIR5_ZXcWF6GdU,"[u'point_of_interest', u'establishment']"
0,43.6676325,4.6650163,Sci Chautard,ChIJqcLy_c11thIRd_revMqeu0g,"[u'point_of_interest', u'establishment']"
0,43.6682052,4.6613635,Roux Rene Emile,ChIJy4QkEsZ1thIRENoIj2nfYpU,"[u'food', u'point_of_interest', u'establishment']"
0,43.6682052,4.6613635,Roux Elie,ChIJy4QkEsZ1thIREblMKvnj0Rc,"[u'food', u'point_of_interest', u'establishment']"
0,43.6636944,4.6555556,Bertrand Patrice,ChIJj7UKHs51thIRzibC0c4Kbnw,"[u'lawyer', u'finance', u'point_of_interest', u'establishment']"
0,43.664428,4.655448,Mas Baracan,ChIJH7Q_J851thIRFQUxz8Ql4uk,"[u'food', u'point_of_interest', u'establishment']"
0,43.6644277,4.6554478,Gidde Eric,ChIJH7Q_J851thIRJhS3AegNvec,"[u'general_contractor', u'point_of_interest', u'establishment']"
0,43.6644277,4.6554478,Exiga Belenguier Anne,ChIJH7Q_J851thIRZim2BQz_UuM,"[u'health', u'point_of_interest', u'establishment']"
0,43.6644277,4.6554478,Mas Baracan,ChIJu4GfJ851thIRYGxrjKPsSr8,"[u'food', u'point_of_interest', u'establishment']"
0,43.6644277,4.6554478,Paulet Hermantier Nadine Marie Andree,ChIJH7Q_J851thIRX_TWbGiZLJY,"[u'real_estate_agency', u'point_of_interest', u'establishment']"
0,43.6644277,4.6554478,Bacoupharis Sophie,ChIJH7Q_J851thIRqFg1-CtkIHg,"[u'point_of_interest', u'establishment']"
0,43.6644277,4.6554478,Raoux Charles,ChIJH7Q_J851thIRfVmTaLT4Kyo,"[u'real_estate_agency', u'point_of_interest', u'establishment']"
0,43.6644277,4.6554478,Joseph Héritier et Fils,ChIJH7Q_J851thIRvyB0TQU_ARs,"[u'point_of_interest', u'establishment']"
0,43.6532124,4.6823764,Mas Saint Florent,ChIJ5zuGQc50thIRHsqsh3GeYic,"[u'lodging', u'point_of_interest', u'establishment']"
0,43.656061,4.678544,Amplifon Groupe France,ChIJUTJr31J0thIRXVskPZHaMYQ,"[u'point_of_interest', u'establishment']"
0,43.6610462,4.6755971,A.K.A Style et Design,ChIJr9MnDLJ1thIRzRtG04SKmpA,"[u'florist', u'home_goods_store', u'store', u'point_of_interest', u'establishment']"
0,43.6615571,4.6747949,Lefevre,ChIJazCPGLJ1thIRvggXSdSXM0A,"[u'point_of_interest', u'establishment']"
0,43.6606675,4.6781945,Maison Arles,ChIJh7A4tq11thIRn4cGdiq6lQI,"[u'real_estate_agency', u'point_of_interest', u'establishment']"
0,43.6601941,4.6734586,Pinto-Teixeira Fernando,ChIJPTmzUrJ1thIRrqwV7Oq7N1o,"[u'general_contractor', u'point_of_interest', u'establishment']"
0,43.660046,4.674803,Castanier Nicolas,ChIJAZMaEWt2thIRygR1MlVGV78,"[u'point_of_interest', u'establishment']"
0,43.660334,4.674335,Cerri Dedieu Nadine,ChIJIQzzRLJ1thIRRUVB_N4aOsw,"[u'point_of_interest', u'establishment']"
0,43.6559173,4.6800552,Willemart Vincent,ChIJ7Qp5QFN0thIRGdQ655_YWYQ,"[u'point_of_interest', u'establishment']"
0,43.6620152,4.6702738,Allard Jean Luc,ChIJ7f1DA7R1thIRKHPuMRzQkAo,"[u'point_of_interest', u'establishment']"
0,43.6606675,4.6781945,Sci Angevin Immo,ChIJh7A4tq11thIR2AYqeqYCOrA,"[u'real_estate_agency', u'point_of_interest', u'establishment']"
0,43.6630353,4.6711467,A.s.m.,ChIJmSc4ybZ1thIRlidFRuwdnJo,"[u'point_of_interest', u'establishment']"
0,43.6630353,4.6711467,Garrigue Bruno,ChIJ-8b3S7F1thIR4HQ_XarqRgg,"[u'point_of_interest', u'establishment']"
0,43.6633052,4.6698107,Becaud Philippe,ChIJ0d9EdbF1thIRdNirl-oO5tY,"[u'general_contractor', u'point_of_interest', u'establishment']"
0,43.6635598,4.6735912,Rubi Audibert Corinne,ChIJmSc4ybZ1thIRGR7Rd6xoAeA,"[u'health', u'point_of_interest', u'establishment']"
0,43.6611854,4.6472815,Chambres d'hôtes Château Cornillon,ChIJsRZ5rtV1thIRMhHfrjpNF9E,"[u'lodging', u'point_of_interest', u'establishment']"
0,43.659049,4.643926,lolly pop onglerie,ChIJ---W_tN1thIR53hB8sr-AQ0,"[u'beauty_salon', u'hair_care', u'point_of_interest', u'establishment']"
0,43.6632261,4.6494516,Macia Norbert,ChIJr3J07M90thIRV375awqp124,"[u'point_of_interest', u'establishment']"
0,43.6611527,4.6527884,Houhou Yannick,ChIJMd9KTdJ1thIRuvIJjlu9vr8,"[u'point_of_interest', u'establishment']"
0,43.661342,4.652028,L'épicier gourmand,ChIJ3X9HutN1thIR2AxZChAg_FE,"[u'grocery_or_supermarket', u'food', u'store', u'point_of_interest', u'establishment']"
0,43.6616901,4.652495,EAU et PIERRE,ChIJM4sZ0NN1thIRxIgeceDp44w,"[u'general_contractor', u'store', u'point_of_interest', u'establishment']"
0,43.661636,4.651772,13200,ChIJ8e45v9N1thIRmIs1i9gLfEM,"[u'church', u'place_of_worship', u'point_of_interest', u'establishment']"
0,43.6613099,4.6498971,RTI Provence,ChIJx6H1rtR1thIRwA5gGR9K8vw,"[u'plumber', u'point_of_interest', u'establishment']"
0,43.66214,4.6518945,Billong Elodie,ChIJdYVnxNN1thIRc18vglqFoLY,"[u'point_of_interest', u'establishment']"
0,43.662338,4.652196,Eau Et Pierre Jean Luc,ChIJfToa0NN1thIRjkHpaL3Pago,"[u'point_of_interest', u'establishment']"
0,43.6627428,4.6507901,Etat D'esprit,ChIJtymy_NN1thIR7HGol3zgkss,"[u'point_of_interest', u'establishment']"
0,43.6628568,4.6515428,Gfa Ginoux,ChIJH7Q_J851thIRnZ0R-Cey3CU,"[u'point_of_interest', u'establishment']"
0,43.6626196,4.6500288,Garage Bernardini,ChIJGzdTptZ1thIRwRsF3ZcicFc,"[u'car_repair', u'point_of_interest', u'establishment']"
0,43.662832,4.650531,Bacoupharis David,ChIJlxPV_dN1thIRr0WdkUwO8bo,"[u'health', u'point_of_interest', u'establishment']"
0,43.662832,4.650531,Brassier Eric,ChIJlxPV_dN1thIRvst_q2RROkk,"[u'health', u'point_of_interest', u'establishment']"
0,43.662863,4.650309,13200,ChIJy_Gk_9N1thIRnXnvRp4E2YM,"[u'parking', u'point_of_interest', u'establishment']"
0,43.6590026,4.6432423,Pour Logement Travailleurs Res Chartre,ChIJDbng2n92thIRT1TvcoLMAqU,"[u'lodging', u'point_of_interest', u'establishment']"
0,43.6629312,4.6498875,Brunel Stéphane,ChIJnYsPqNZ1thIR6yZVMRVdxy8,"[u'doctor', u'health', u'point_of_interest', u'establishment']"
0,43.6552631,4.6417639,Benkemoun Serge,ChIJebqeEYF2thIR6Ag9u2G8Da0,"[u'point_of_interest', u'establishment']"
0,43.6631707,4.6552258,CMS,ChIJbx-0_dF1thIRkrI9bUBSSLU,"[u'general_contractor', u'point_of_interest', u'establishment']"
0,43.6630166,4.6497619,Palazzon Jean-Pierre,ChIJnYsPqNZ1thIRFbwAKphqX6w,"[u'doctor', u'health', u'point_of_interest', u'establishment']"
0,43.6630166,4.6497619,Dubrois François Palazzon SCP,ChIJnYsPqNZ1thIR1kmkH-KYYoc,"[u'doctor', u'grocery_or_supermarket', u'health', u'food', u'store', u'point_of_interest', u'establishment']"
0,43.6630166,4.6497619,Dubrois Veronique,ChIJteNex890thIRChx2n1tiRoE,"[u'doctor', u'health', u'point_of_interest', u'establishment']"
0,43.6630166,4.6497619,Dubrois François Palazzon SCM,ChIJxc5r0mV2thIRTmKId1cfgl4,"[u'doctor', u'health', u'point_of_interest', u'establishment']"
0,43.6630166,4.6497619,Cleophas Sophie,ChIJnYsPqNZ1thIRexWKUfLtElU,"[u'health', u'point_of_interest', u'establishment']"
0,43.6637698,4.6515938,Sporting Pont de Crau,ChIJy9xvtIoRthIRGZ7I1R7JTtE,"[u'point_of_interest', u'establishment']"
0,43.66338,4.6492,Didier Milhau,ChIJHY3UmdZ1thIRxHWbLYuOoEs,"[u'bakery', u'food', u'store', u'point_of_interest', u'establishment']"
0,43.648949,4.689016,Mas de la Fenière,ChIJsUMKEvl0thIRyw4RknQkQCk,"[u'lodging', u'restaurant', u'food', u'point_of_interest', u'establishment']"
0,43.6452593,4.6908222,Moulinier Kanel Jeanny,ChIJQYHEOvd0thIREi_yqH7nKKo,"[u'point_of_interest', u'establishment']"
0,43.6452593,4.6908222,Cristal Distribution,ChIJQYHEOvd0thIRlkC3zSjHsVE,"[u'store', u'point_of_interest', u'establishment']"
0,43.6516781,4.6888106,Hera Sarl Sarl,ChIJf4D7IxpTV0ARnDwltutwcuQ,"[u'restaurant', u'food', u'point_of_interest', u'establishment']"
0,43.6516781,4.6888106,Brossel Rémy,ChIJkw0g1fh0thIRGLDL4JYpRsI,"[u'health', u'point_of_interest', u'establishment']"
0,43.6517679,4.688804,Le Mas de Villevieille MECS,ChIJkw0g1fh0thIRk5MwdCIziFE,"[u'point_of_interest', u'establishment']"
0,43.649157,4.637796,Résidence Maeva Les hameaux de camargue,ChIJ_1B3Qpt2thIRNC5anrz8M0Q,"[u'lodging', u'point_of_interest', u'establishment']"
0,43.650358,4.641927,Hôtel Club Village Camarguais,ChIJv5ujPYN2thIRXoTqmlKyKMg,"[u'lodging', u'point_of_interest', u'establishment']"
0,43.6497405,4.640117,Residence Les Amandiers,ChIJJb-XWYN2thIRywii69-7QOs,"[u'point_of_interest', u'establishment']"
0,43.6482008,4.6379363,Résidence Mona Lisa Les Hameaux de Camargue,ChIJT0JGM5t2thIRc7P7G0Q9Z04,"[u'lodging', u'point_of_interest', u'establishment']"
0,43.6428,4.6978082,S.c.i.passeron,ChIJM4R3FO50thIRw5sFT-FsWQM,"[u'point_of_interest', u'establishment']"
0,43.643074,4.629535,Pont d'Aling,ChIJp5NiJ5R2thIRvKdyKYNr-Ko,"[u'premise', u'point_of_interest', u'establishment']"
0,43.638399,4.627366,La Tour d'Aling,ChIJQ-rqTr52thIR9sPpgqaYehw,"[u'sublocality_level_1', u'sublocality', u'political']"
0,43.6163017,4.7182175,manade des chanoines,ChIJIUIt67R0thIRGNkEaxmpRpg,"[u'travel_agency', u'point_of_interest', u'establishment']"
0,43.6184269,4.610375,Pont du Regonfle,ChIJwzEYQyxxthIRtk-StNpTLA8,"[u'premise', u'point_of_interest', u'establishment']"
0,43.591821,4.744523,Ribaud Christian,ChIJ0V3dCMEMthIRrlG6oZlRo3Y,"[u'food', u'point_of_interest', u'establishment']"
0,43.5794893,4.7562218,BTL,ChIJCUGI_-IMthIRISHjEAEyh8Q,"[u'general_contractor', u'point_of_interest', u'establishment']"
0,43.5780375,4.7613048,Entrepot Port de Bouc,ChIJWZwKdf0MthIRz_2_QcOrxds,"[u'point_of_interest', u'establishment']"
0,43.539952,4.784591,13104,ChIJlQ5EgIkNthIRKXD1WdAqXTY,"[u'point_of_interest', u'establishment']"
0,43.54383,4.789325,La Demoiselle,ChIJp9sVz4wNthIRovhtXrGqWJs,"[u'point_of_interest', u'establishment']"
0,43.546573,4.788552,La Cour des Bœufs,ChIJoyCMZ40NthIRz8gPBuX15Fo,"[u'sublocality_level_1', u'sublocality', u'political']"
0,43.425309,4.642542,La Vignolle,ChIJF3cT_YBpthIRTtRw99vcMRA,"[u'premise', u'point_of_interest', u'establishment']"
0,43.4462,4.696922,13200,ChIJM9TCXm1rthIRv-C_3WAufBk,"[u'point_of_interest', u'establishment']"
0,43.480541,4.735189,13200,ChIJ9axYsUkTthIR8G2OYGde19g,"[u'point_of_interest', u'establishment']"
0,43.489697,4.738006,13200,ChIJ0RRBeDATthIRgcVp_wwYrDo,"[u'point_of_interest', u'establishment']"
0,43.496127,4.751982,L'Eléphant Vert Association,ChIJtS-pzh4TthIR-HasuaVXYyE,"[u'point_of_interest', u'establishment']"
0,43.5041713,4.7533049,Domaine de Boisviel Sud,ChIJAUnFfuMSthIRJ42hZGmmXkI,"[u'point_of_interest', u'establishment']"
0,43.4961754,4.7519525,Colotte Ripert Gisele Anna,ChIJAUnFfuMSthIR5h1vxYGaJ6s,"[u'store', u'point_of_interest', u'establishment']"
0,43.5046591,4.7559992,Groupe F,ChIJAUnFfuMSthIRal4Fg3s3JMo,"[u'point_of_interest', u'establishment']"
0,43.504604,4.756069,Grand Boisviel,ChIJayImneMSthIREPG5vm96yAI,"[u'sublocality_level_1', u'sublocality', u'political']"
0,43.674906,4.6697551,Mas Bonement,ChIJBzwJN751thIR6hZQjUmkjL4,"[u'lodging', u'point_of_interest', u'establishment']"
0,43.672685,4.6684617,Ordas Yves,ChIJfcRc2b51thIRnkYLZyxrz8w,"[u'point_of_interest', u'establishment']"
0,43.6706752,4.6675317,Mix Factory,ChIJqcLy_c11thIRcbpBE390xoA,"[u'point_of_interest', u'establishment']"
0,43.6707337,4.6679845,Etienne Anne / Silvestri Philippe,ChIJHRBK3Lh1thIR1647bOqpk1Q,"[u'point_of_interest', u'establishment']"
0,43.669195,4.666861,13200,ChIJnxrTYLh1thIRD4pEcPZxgcM,"[u'church', u'place_of_worship', u'point_of_interest', u'establishment']"
0,43.6760069,4.6693556,Halladj Amar,ChIJkfQ5I751thIRnwQQuawnheY,"[u'point_of_interest', u'establishment']"
0,43.6760069,4.6693556,2JBR,ChIJkfQ5I751thIR25knUEDtGeY,"[u'point_of_interest', u'establishment']"
0,43.6760069,4.6693556,Earl les Prairies,ChIJkfQ5I751thIRPjU0h3kZY6w,"[u'point_of_interest', u'establishment']"
0,43.6720507,4.6714574,Rousseau Nicolas Elie Claude,ChIJJwnsBbx1thIRyqmtiNGLez0,"[u'home_goods_store', u'store', u'point_of_interest', u'establishment']"
0,43.677557,4.6724039,Delta Nettoyage,ChIJ1fd9P5Z1thIRplguI12i4fE,"[u'point_of_interest', u'establishment']"
0,43.677557,4.6724039,Sanchez et Fils,ChIJ1fd9P5Z1thIRQdNZ5BVHkDY,"[u'painter', u'point_of_interest', u'establishment']"
0,43.6677393,4.6719062,DNA Conseils,ChIJx85ZLWt1thIRj76rWKQqyPM,"[u'point_of_interest', u'establishment']"
0,43.662969,4.6774965,Pascal Bosc,ChIJA4lYaq51thIROH9t6fQjXBQ,"[u'point_of_interest', u'establishment']"
0,43.6627535,4.6828013,Demenagement ROUX,ChIJt3tka6l1thIR2hBX2S_1hI4,"[u'storage', u'point_of_interest', u'establishment']"
0,43.6647172,4.6713369,Equipem Maintenance Consulting Sces,ChIJmSc4ybZ1thIRl3pFC5eZtmQ,"[u'point_of_interest', u'establishment']"
0,43.6655591,4.6703465,Chazalon Lucien,ChIJVyVEabd1thIR6CU8zORR5as,"[u'point_of_interest', u'establishment']"
0,43.6658845,4.6698167,Audigier Nadège,ChIJx85ZLWt1thIRqii-xJoQvx8,"[u'point_of_interest', u'establishment']"
0,43.6654465,4.668661,Laboratoire Dentaire Concept Sarl,ChIJx85ZLWt1thIRwFWyvzQ-kqU,"[u'point_of_interest', u'establishment']"
0,43.66496,4.674884,CASA ROCIERA - Chambre d'hôtes,ChIJOcKGN7B1thIRKXZxI9smmqU,"[u'lodging', u'point_of_interest', u'establishment']"
0,43.664066,4.676005,13200,ChIJ6Z761bF1thIRADQ4ManwnZ0,"[u'point_of_interest', u'establishment']"
0,43.6676514,4.6726507,Rebuttini Jean-Philippe,ChIJx85ZLWt1thIRwPZmRpOhWj4,"[u'furniture_store', u'home_goods_store', u'store', u'point_of_interest', u'establishment']"
0,43.6677254,4.6725794,Perrin Jean-Louis,ChIJgZLIbrp1thIRhGwpzPJlV_0,"[u'point_of_interest', u'establishment']"
0,43.6677254,4.6725794,Mazoyer Patrick,ChIJgZLIbrp1thIRuhuccbG59mA,"[u'point_of_interest', u'establishment']"
0,43.6678027,4.6725158,Champ Eric,ChIJx85ZLWt1thIRdiZoQQ6gk9M,"[u'electrician', u'point_of_interest', u'establishment']"
0,43.6678027,4.6725158,Wesselingh Jacques,ChIJx85ZLWt1thIRM7bOlU8K66g,"[u'point_of_interest', u'establishment']"
0,43.6680106,4.6747377,Ceccaldi Jean-Claude,ChIJx85ZLWt1thIR_JIxwdlOl-U,"[u'real_estate_agency', u'point_of_interest', u'establishment']"
0,43.6672955,4.6761967,Ayala Joël,ChIJKbuvUqV1thIRttlMpr6UYvY,"[u'point_of_interest', u'establishment']"
0,43.6672955,4.6761967,Viala Jean-Marie,ChIJKbuvUqV1thIRY2ancKAcGGQ,"[u'electrician', u'point_of_interest', u'establishment']"
0,43.6685289,4.6752717,Godchaux-derynck,ChIJx85ZLWt1thIRHpRtNJl0MBM,"[u'real_estate_agency', u'point_of_interest', u'establishment']"
0,43.667841,4.676915,Pugnet Florient Michael,ChIJoZpoR6V1thIRMWCpCr49FBE,"[u'point_of_interest', u'establishment']"
0,43.66573,4.64558,Kiloutou ARLES,ChIJZcCh6Hh2thIRNLI1ApCPyAA,"[u'point_of_interest', u'establishment']"
0,43.664542,4.641487,Avis Location Voiture Arles,ChIJE4TfFXl2thIRaqZ1TBXkfzU,"[u'car_rental', u'point_of_interest', u'establishment']"
0,43.6648751,4.6426548,Arles Moto Land,ChIJZcCh6Hh2thIRYXSpVt-F7hY,"[u'car_repair', u'store', u'point_of_interest', u'establishment']"
0,43.665168,4.645429,BestDrive,ChIJZcCh6Hh2thIR92VhuUqrcpo,"[u'car_repair', u'store', u'point_of_interest', u'establishment']"
0,43.6653096,4.6441907,Clinique Vétérinaire des Alyscamps,ChIJZcCh6Hh2thIRrLnG_LNOUrw,"[u'veterinary_care', u'health', u'point_of_interest', u'establishment']"
0,43.6699345,4.6445977,Camping City,ChIJw3hYM_t0thIRg7cb9UQzbEE,"[u'campground', u'park', u'bar', u'lodging', u'restaurant', u'food', u'point_of_interest', u'establishment']"
0,43.6646999,4.6431124,Opel Rent Arles,ChIJZcCh6Hh2thIRonRquJaQ6gA,"[u'car_rental', u'point_of_interest', u'establishment']"
0,43.6644636,4.6417609,Gérard Lacomare S.A.S FIAT ALFA ROMEO LANCIA,ChIJA0nu5nh2thIRNqFGbFH0Q-g,"[u'car_dealer', u'car_repair', u'store', u'point_of_interest', u'establishment']"
0,43.662181,4.644035,Camargue Plomberie Chauffage,ChIJ_____z9xthIR85GOm5ulfd0,"[u'plumber', u'general_contractor', u'point_of_interest', u'establishment']"
0,43.6646152,4.6431544,Faser,ChIJZcCh6Hh2thIRTe9Y7EgdKCQ,"[u'point_of_interest', u'establishment']"
0,43.6646152,4.6431544,Barré Philippe,ChIJi-ThHnl2thIRAYN5CZAN1zs,"[u'point_of_interest', u'establishment']"
0,43.6646999,4.6431124,Sacco,ChIJZcCh6Hh2thIRgCP1glfYodk,"[u'point_of_interest', u'establishment']"
0,43.6646999,4.6431124,Sport 2000,ChIJZcCh6Hh2thIRqSv6HHgZcNM,"[u'store', u'point_of_interest', u'establishment']"
0,43.6647,4.643112,Euro d'Asie,ChIJZcCh6Hh2thIRhUVSgYMp5E8,"[u'bar', u'restaurant', u'food', u'point_of_interest', u'establishment']"
0,43.668605,4.64508,ASA Arrosants de la Crau,ChIJ-29Al9Z1thIRL7Ce01dUp0E,"[u'point_of_interest', u'establishment']"
0,43.6693917,4.6443982,First Stop - metifiot arles,ChIJ8cgjtXd2thIR4gZ5TLF2Nq0,"[u'car_repair', u'point_of_interest', u'establishment']"
0,43.6641862,4.641198,Nissan Arles Auto Sports,ChIJZcCh6Hh2thIRlzwfmdu-IJQ,"[u'car_dealer', u'car_repair', u'store', u'point_of_interest', u'establishment']"
0,43.6643059,4.6419591,Gerard Lacomare SAS,ChIJ9dEHI3l2thIRv9uvRZYS9yw,"[u'car_dealer', u'store', u'point_of_interest', u'establishment']"
0,43.6646,4.64149,Cuisinella Arles,ChIJP4LfFXl2thIRZSDUIMWMH6c,"[u'general_contractor', u'furniture_store', u'home_goods_store', u'store', u'point_of_interest', u'establishment']"
0,43.6713438,4.6471014,Munoz Jose Dessinateur,ChIJieB559h1thIRHTvCljYU-JE,"[u'point_of_interest', u'establishment']"
0,43.6647311,4.6408479,Beauchamp Automobiles KIA Arles,ChIJA0nu5nh2thIRCgHBnCr3YBw,"[u'car_dealer', u'store', u'point_of_interest', u'establishment']"
0,43.6641519,4.640744,Vauclusienne de Distribution Automobil,ChIJT5JIRHl2thIRcBcjj5FcIBs,"[u'point_of_interest', u'establishment']"
0,43.6639923,4.6532794,Fermet Denis,ChIJyfRamNF1thIRCH0ePTfQSpI,"[u'food', u'point_of_interest', u'establishment']"
0,43.6638458,4.6526787,Manson Sabathe Martine,ChIJybwMdtF1thIRa2UIBY_0X2s,"[u'health', u'point_of_interest', u'establishment']"
0,43.6640451,4.6524621,Guerin Pierre,ChIJRXFKC9F1thIRdmGGFQ4w9yk,"[u'point_of_interest', u'establishment']"
0,43.663775,4.651449,Elefante Stefano,ChIJnxASQtF1thIRLmPzq1jR7Xo,"[u'point_of_interest', u'establishment']"
0,43.6641563,4.6549255,Menuiserie Maurel & Fils,ChIJa_FN3NF1thIR1d5xxYrWqcY,"[u'home_goods_store', u'store', u'point_of_interest', u'establishment']"
0,43.663807,4.651226,13200,ChIJ-fLlQ9F1thIR2AQgYBbc2iM,"[u'parking', u'point_of_interest', u'establishment']"
0,43.663928,4.6511129,13200,ChIJ6zvHRtF1thIRQk1U_yj1rXc,"[u'point_of_interest', u'establishment']"
0,43.6606535,4.682422,Sci Rovery,ChIJyyOSaql1thIRqnS3tyIngfQ,"[u'point_of_interest', u'establishment']"
0,43.6620196,4.6836074,Rivera Jean-Michel,ChIJGynpCql1thIRO6vU1Z-hT4A,"[u'point_of_interest', u'establishment']"
0,43.6589393,4.6896638,Blanc Frederic,ChIJVUPupwF1thIR1_XqunPF3jQ,"[u'point_of_interest', u'establishment']"
0,43.6636708,4.6794715,ARLES NATATION,ChIJ9dKi5a51thIRWmfCnEJdsnU,"[u'health', u'point_of_interest', u'establishment']"
0,43.655234,4.691762,Pont de Boussicaud,ChIJk4M43v10thIRVshzql_0K_k,"[u'premise', u'point_of_interest', u'establishment']"
0,43.66276,4.638002,Hôtel Première Classe Arles,ChIJV83pYXt2thIRtxmp3eG_ImY,"[u'parking', u'lodging', u'point_of_interest', u'establishment']"
0,43.656883,4.6334099,C H Arles - Centre Hospitalier Arles - Joseph Imbert,ChIJWS4d64d2thIRTy9FBKitmfI,"[u'hospital', u'point_of_interest', u'establishment']"
0,43.6593342,4.6409941,Residence Club les Mazets,ChIJ0RL_Fn52thIRccw1R-SFnDY,"[u'lodging', u'point_of_interest', u'establishment']"
0,43.656601,4.637367,MAS PETIT BEDARIDE,ChIJayi2AId2thIRKeNYznbIHCo,"[u'lodging', u'point_of_interest', u'establishment']"
0,43.660092,4.636053,Casa France,ChIJAZMaEWt2thIR0AgvEHEfWwI,"[u'store', u'point_of_interest', u'establishment']"
0,43.6573668,4.6369573,SYMADREM,ChIJvZHRmLJ3thIReTtxbCyvT5k,"[u'point_of_interest', u'establishment']"
0,43.6541906,4.636021,Campagne Pré Vert,ChIJORIVC4Z2thIRDXLDEe4wcl4,"[u'lodging', u'point_of_interest', u'establishment']"
0,43.660092,4.636053,Auto Bilan France,ChIJAZMaEWt2thIRTiWf8AaYFl4,"[u'car_repair', u'point_of_interest', u'establishment']"
0,43.6572928,4.6356298,Crèches De France,ChIJ_z5lFX12thIR7vC-TQP30vA,"[u'point_of_interest', u'establishment']"
0,43.6632915,4.6395927,Mr.Bricolage,ChIJZcCh6Hh2thIRMcxnsCsyOro,"[u'home_goods_store', u'store', u'point_of_interest', u'establishment']"
0,43.657611,4.640669,Motion designer freelance,ChIJzzmguYB2thIRR5blVyPVu4c,"[u'point_of_interest', u'establishment']"
0,43.6583905,4.6355696,Les urgences,ChIJuwEAEIh2thIRDEB10F0hOM0,"[u'point_of_interest', u'establishment']"
0,43.655555,4.633629,L’institut de formation en Soins Infirmiers et Aides-soignants,ChIJZwxxlIh2thIRwLds_ah_Hss,"[u'school', u'point_of_interest', u'establishment']"
0,43.655676,4.6340769,Centre hospitalier D'Arles Hopital Joseph Imbert,ChIJQWw0l4h2thIR4vUHKNjww8s,"[u'hospital', u'point_of_interest', u'establishment']"
0,43.660092,4.636053,Avenir Telecom,ChIJw7xxFX12thIRrhX1DFfAj5Y,"[u'store', u'point_of_interest', u'establishment']"
0,43.660092,4.636053,Tape à l'Oeil,ChIJw7xxFX12thIRNVypncCkDnc,"[u'clothing_store', u'store', u'point_of_interest', u'establishment']"
0,43.656667,4.633606,Maison de retraite du lac,ChIJsywFYYh2thIRnvNIAi7xpQc,"[u'health', u'point_of_interest', u'establishment']"
0,43.660092,4.636053,Camargue Audiovisuel,ChIJzSgNpGp2thIRWsrhLd9aduQ,"[u'point_of_interest', u'establishment']"
0,43.6548702,4.6335886,Hôpital de Jour l’Oranger,ChIJlyOAvoh2thIRONjcjrme_-U,"[u'hospital', u'point_of_interest', u'establishment']"
0,43.660092,4.636053,Agence de Voyage Village Camarguais,ChIJGZ1xFX12thIRGg2XY4IvJtI,"[u'travel_agency', u'point_of_interest', u'establishment']"
0,43.660092,4.636053,Hospital Center D'arles,ChIJGZ1xFX12thIRa6GFHqFfT7U,"[u'hospital', u'point_of_interest', u'establishment']"
0,43.660092,4.636053,Micromania,ChIJGZ1xFX12thIRrKkMkt-oTqo,"[u'store', u'point_of_interest', u'establishment']"
0,43.660092,4.636053,D 2 D,ChIJGZ1xFX12thIRgyyolNKzRxY,"[u'point_of_interest', u'establishment']"
0,43.657676,4.633466,Service de psychiatrie de court séjour,ChIJfxGzaoh2thIR2SAdb-UW2jo,"[u'hospital', u'point_of_interest', u'establishment']"
0,43.659678,4.634521,Etablissement Français du Sang,ChIJ6_2bs2J2thIREXexw5s-ZMI,"[u'health', u'point_of_interest', u'establishment']"
0,43.658299,4.633604,EFS Arles,ChIJrx_RGYh2thIRR3Scq5xrrdk,"[u'health', u'point_of_interest', u'establishment']"
0,43.6627057,4.6384809,Live Sport Cafe,ChIJNbBbpXt2thIRHa5Q5bQ2YSA,"[u'restaurant', u'food', u'point_of_interest', u'establishment']"
0,43.65894,4.64189,Residence Domaine De l'Estajan,ChIJbdgSL352thIR8MGvHy0zNgY,"[u'lodging', u'point_of_interest', u'establishment']"
0,43.659317,4.6415915,Association les Abeilles Institut,ChIJ8fQp5n92thIRFtZPv5R_jDE,"[u'point_of_interest', u'establishment']"
0,43.6595091,4.6419903,Joffroy applications mecaniqu,ChIJb0_nNn52thIRxG_eXMWs07o,"[u'car_dealer', u'store', u'point_of_interest', u'establishment']"
0,43.6591012,4.6390622,Centre de Secours Principal d'Arles,ChIJPyaXVYd2thIRiFDo403AZoI,"[u'fire_station', u'point_of_interest', u'establishment']"
0,43.66043,4.642173,Les Matins Bleus,ChIJ3bs6Un52thIR4RRmbBXm69Y,"[u'point_of_interest', u'establishment']"
0,43.655664,4.633876,13200,ChIJc1QZkYh2thIRds-WO2c7Jnc,"[u'university', u'point_of_interest', u'establishment']"
0,43.6621363,4.6407982,Fournier Gilbert,ChIJU1IFln52thIR1aECYonfWaI,"[u'point_of_interest', u'establishment']"
0,43.658917,4.635256,13200,ChIJs8-8V312thIR4oFvWLlQrvs,"[u'airport', u'point_of_interest', u'establishment']"
0,43.660092,4.636053,Ardex Sa,ChIJAZMaEWt2thIRLyvOAF9ZPPQ,"[u'grocery_or_supermarket', u'food', u'store', u'point_of_interest', u'establishment']"
0,43.648198,4.695571,"Menuiserie RGE, Ebénisterie Sournia Michel",ChIJw0Sfwfp0thIRZVg3D8tg_7c,"[u'point_of_interest', u'establishment']"
0,43.650862,4.693935,L'Arlesienne,ChIJxUxXnPt0thIRDXCL093dwvM,"[u'point_of_interest', u'establishment']"
0,43.65086,4.69393,Decauche Bryan,ChIJw3hYM_t0thIRekFhulVdVmw,"[u'food', u'store', u'point_of_interest', u'establishment']"
0,43.650862,4.693935,Brule Dalida,ChIJxUxXnPt0thIRFj1cULOAYOs,"[u'point_of_interest', u'establishment']"
0,43.650862,4.693935,Delor Gérard,ChIJw3hYM_t0thIRyunsmiM1aJ8,"[u'finance', u'point_of_interest', u'establishment']"
0,43.650862,4.693935,Palazon Jean-Pierre,ChIJxUxXnPt0thIR6aFMbCT4YiE,"[u'point_of_interest', u'establishment']"
0,43.6540994,4.6315177,Campagne Pre Vert,ChIJnU690o52thIRkoZfr31YSdU,"[u'lodging', u'point_of_interest', u'establishment']"
0,43.6526951,4.6319185,Mas Petit Fourchon,ChIJGwGdW452thIR58vFmtSyGuM,"[u'lodging', u'point_of_interest', u'establishment']"
0,43.645455,4.702362,Design Dragées,ChIJDxD_tuh0thIRe_aobJy8zrI,"[u'food', u'store', u'point_of_interest', u'establishment']"
0,43.643706,4.702989,ATELIER SANDRINE CHRISTOPHLE,ChIJszfII-l0thIR1rgW2Fa-rNU,"[u'point_of_interest', u'establishment']"
0,43.62845,4.7116,Sarl Mark,ChIJvaL4aECmuhIRH1cd5wESOnc,"[u'general_contractor', u'point_of_interest', u'establishment']"
0,43.62845,4.7116,Andrieux,ChIJi5f4aECmuhIRvwbDUYPbPgY,"[u'furniture_store', u'home_goods_store', u'store', u'point_of_interest', u'establishment']"
0,43.631935,4.711579,Sylvie & Yvan Martin,ChIJYWYopr50thIRLlujkTwkBOo,"[u'food', u'point_of_interest', u'establishment']"
0,43.62845,4.7116,Guigue Mireille,ChIJvRz_mbx0thIR0Ol9UjzdX4Y,"[u'point_of_interest', u'establishment']"
0,43.62845,4.7116,Pasquini Noel,ChIJvRz_mbx0thIRVjAZzdPXs0o,"[u'point_of_interest', u'establishment']"
0,43.628454,4.711603,Limonta Pierre Yves,ChIJ-0D_mbx0thIR1aMmdoY-qA8,"[u'point_of_interest', u'establishment']"
0,43.627368,4.612378,Eurl Agrain- Maconnerie Generale,ChIJAWNPLc52thIRtUj3XjF3fXY,"[u'general_contractor', u'point_of_interest', u'establishment']"
0,43.6142695,4.5952517,Mas Petit Prince,ChIJMzJBdc5wthIRqrjEaHt-5cs,"[u'lodging', u'point_of_interest', u'establishment']"
0,43.5896855,4.7542906,SCA La Tapie de Bouchet,ChIJg7xJb-UMthIRQy9MjQt6gOY,"[u'point_of_interest', u'establishment']"
0,43.576056,4.769057,unnamed,ChIJsYF2CAANthIRU4NOjG3hX9k,"[u'point_of_interest', u'establishment']"
0,43.638628,4.812107,Saint-Martin-de-Crau,ChIJvdow99MLthIRjbqdXn-T3UM,"[u'locality', u'political']"
0,43.569445,4.560448,Dunant SCEA,ChIJuy8nXZ56thIRPJ8E7TfzvME,"[u'point_of_interest', u'establishment']"
0,43.569445,4.560448,Sci Callebaut Camargue,ChIJ0cwmXZ56thIRueUFIVLSY7I,"[u'point_of_interest', u'establishment']"
0,43.567022,4.778139,Bergerie de Gamadou,ChIJ552YjK8NthIRa30NTDpsE8c,"[u'point_of_interest', u'establishment']"
0,43.432656,4.696032,Pont des Courlis,ChIJvYKy2gRrthIRvjxiwg9tm5o,"[u'premise', u'point_of_interest', u'establishment']"
0,43.511748,4.769469,13104,ChIJSfB-flgSthIR2VO99EsH7z0,"[u'point_of_interest', u'establishment']"
0,43.688795,4.664436,Mas de La Galegière,ChIJVZeHAfN1thIRWrCLEZGtWS4,"[u'lodging', u'point_of_interest', u'establishment']"
0,43.68589,4.657204,Bon François,ChIJ1X0Jxe91thIRwai0j9PU1jk,"[u'point_of_interest', u'establishment']"
0,43.682917,4.650689,Pont de Lucas,ChIJOWlfDuR1thIRxFMBw-9BS8Y,"[u'premise', u'point_of_interest', u'establishment']"
0,43.6801756,4.6778526,Mas du Lion,ChIJadDJkJl1thIRpJAttNAjCeY,"[u'lodging', u'point_of_interest', u'establishment']"
0,43.6762527,4.6747136,Oleazen,ChIJw3hYM_t0thIREsap8wDvb1E,"[u'beauty_salon', u'spa', u'health', u'point_of_interest', u'establishment']"
0,43.672504,4.6783001,Larim'art,ChIJN299baN1thIRFdi9XznIaS8,"[u'jewelry_store', u'store', u'point_of_interest', u'establishment']"
0,43.6707354,4.6795292,Fomicheva Anna,ChIJjZsZbqR1thIREChlfmPhlcI,"[u'point_of_interest', u'establishment']"
0,43.6703947,4.677253,Pasqual Elect,ChIJx85ZLWt1thIRB_7j6RyQ8uA,"[u'electrician', u'point_of_interest', u'establishment']"
0,43.6703947,4.677253,Pasqual Raphael,ChIJx85ZLWt1thIRqf3T-Sd_cM8,"[u'plumber', u'point_of_interest', u'establishment']"
0,43.6700536,4.6773264,Pastor Emile,ChIJP6mU1bp1thIRpd_tvpb3HJg,"[u'point_of_interest', u'establishment']"
0,43.6728381,4.6792806,Barlet Laurent,ChIJUcD7aKN1thIRubQeDHPdp3o,"[u'plumber', u'point_of_interest', u'establishment']"
0,43.6708006,4.6794744,Batirenov,ChIJx85ZLWt1thIRq6sQT-T_NZU,"[u'general_contractor', u'point_of_interest', u'establishment']"
0,43.6788219,4.6759579,Ribaud Georges,ChIJyXZGZMfYtRIRWN19bKoZ5KQ,"[u'food', u'point_of_interest', u'establishment']"
0,43.675717,4.680293,Boisset Max Jacky,ChIJnURB-J91thIREKWs96bACbQ,"[u'general_contractor', u'point_of_interest', u'establishment']"
0,43.675717,4.680293,Poulet Marion,ChIJnURB-J91thIRFeblXJfI5yw,"[u'health', u'point_of_interest', u'establishment']"
0,43.6714027,4.682304,Seyller Grangier Corinne,ChIJ8xWoS6F1thIRbj1IREujA8I,"[u'hair_care', u'point_of_interest', u'establishment']"
0,43.6746584,4.6455041,Maisons de Retraite Griffeuille,ChIJySw_Zt91thIRqNFc5x_LuIU,"[u'health', u'point_of_interest', u'establishment']"
0,43.6739065,4.6436192,Lycee Private Jeanne D'arc,ChIJCWcawHV2thIRNTiiINvFqfA,"[u'point_of_interest', u'establishment']"
0,43.674525,4.644489,Ecoles,ChIJIXgZf3R2thIRoW3ZWPpPiVc,"[u'point_of_interest', u'establishment']"
0,43.6740041,4.6434954,IKKS Women,ChIJc1lP6XV2thIRBwxgw_VRMjA,"[u'clothing_store', u'store', u'point_of_interest', u'establishment']"
0,43.6707623,4.6434278,55 Route de Crau,ChIJcQSoTnZ2thIRM_6f8LtHBLQ,"[u'point_of_interest', u'establishment']"
0,43.674836,4.6431901,Mairie (Sports et Loisirs),ChIJE068pXV2thIRWxmusCJaQzE,"[u'point_of_interest', u'establishment']"
0,43.6719137,4.6425538,Roblès Jean-Luc,ChIJj9p9YXZ2thIRYzIPO45UO0U,"[u'real_estate_agency', u'point_of_interest', u'establishment']"
0,43.676777,4.642836,Solid'Arles de la Terre à l'Assiette,ChIJWc9TInV2thIRfxMdI02zqYY,"[u'store', u'point_of_interest', u'establishment']"
0,43.6760918,4.6418838,Centre Communal d'Action Sociale (C.C.A.S),ChIJYRu4AHV2thIRGGBKXQvI5-8,"[u'point_of_interest', u'establishment']"
0,43.676395,4.642,Laverie et Service,ChIJ_agN53R2thIRJJaIWT_L40c,"[u'point_of_interest', u'establishment']"
0,43.6726582,4.6410535,Gerbaud Médical,ChIJeZVg38x1thIR_IUJN_QCWcw,"[u'point_of_interest', u'establishment']"
0,43.6786041,4.6434939,Cellura Group,ChIJlR_zijx2thIRUq0I0Npmw8Q,"[u'electrician', u'electronics_store', u'store', u'point_of_interest', u'establishment']"
0,43.6728309,4.6407973,Abyss Beauté,ChIJM-nipnZ2thIRbevqii4AsIk,"[u'beauty_salon', u'point_of_interest', u'establishment']"
0,43.672398,4.646398,Rosellini Philippe,ChIJFYn0ydh1thIRGn7HPWD8hzI,"[u'point_of_interest', u'establishment']"
0,43.6729175,4.6463081,Sofilec,ChIJaUpRSt91thIRCXH9yWoD5OY,"[u'point_of_interest', u'establishment']"
0,43.6712532,4.6464113,Natura Concept,ChIJa-Fn69h1thIRQD0PHsLIsrY,"[u'general_contractor', u'point_of_interest', u'establishment']"
0,43.6727546,4.6455586,Faye Seynabou,ChIJ7YPSUt91thIRebaCnDmEHMI,"[u'point_of_interest', u'establishment']"
0,43.6740854,4.645463,Blondel Sylvie,ChIJ7zYcZ991thIRz8rA_GfLleo,"[u'point_of_interest', u'establishment']"
0,43.6722312,4.6451644,El Alami L'rhiati Hafida,ChIJAZ0bqNh1thIRAeVHZsg550A,"[u'grocery_or_supermarket', u'food', u'store', u'point_of_interest', u'establishment']"
0,43.6733656,4.6446883,Balcells Christophe,ChIJmTtp-nV2thIRhE4a-aV81x4,"[u'point_of_interest', u'establishment']"
0,43.6722648,4.6447345,Oliver Cindy,ChIJNy9nA3Z2thIRf5KsE9F0dsM,"[u'point_of_interest', u'establishment']"
0,43.6732923,4.644603,Arles Détection Sécurité Controle,ChIJ2YRD-nV2thIRHE_R-3lkF9U,"[u'point_of_interest', u'establishment']"
0,43.6733048,4.6445951,Earl Du Julian,ChIJP79C-nV2thIRKSYDWm2QiFE,"[u'point_of_interest', u'establishment']"
0,43.6749254,4.6446678,Benazza Hamid,ChIJp-TevXV2thIRIvugo-lqHb4,"[u'point_of_interest', u'establishment']"
0,43.6766799,4.6428997,Artifs,ChIJVZ0GI3V2thIRD09j36fGjhA,"[u'hair_care', u'point_of_interest', u'establishment']"
0,43.6699468,4.6455017,Azur Matériaux,ChIJzfVzeNh1thIR7lajvbYatkE,"[u'hardware_store', u'store', u'point_of_interest', u'establishment']"
0,43.6754666,4.6448474,M Rodiere Jerome Associat Rodiere Jerome,ChIJtXWCfnV2thIRiybYxPQ7irM,"[u'point_of_interest', u'establishment']"
0,43.6712662,4.6445908,Bire Y & Schmidt M,ChIJu1XGJHZ2thIRyjDJTC_gpHI,"[u'point_of_interest', u'establishment']"
0,43.6754264,4.6447572,Ami,ChIJiy-PGc50thIR3Yu-y6THDpA,"[u'point_of_interest', u'establishment']"
0,43.6754264,4.6447572,Mebarek Mohamed,ChIJK3SCfnV2thIRbPO3wPEr5Cw,"[u'point_of_interest', u'establishment']"
0,43.6755847,4.6446055,Blatier Stephanie,ChIJtTR_e3V2thIRRYmiweJQQiw,"[u'point_of_interest', u'establishment']"
0,43.6720156,4.6427604,Codol Stephane Michel,ChIJDzdgYXZ2thIR6dgAQkkDz8k,"[u'clothing_store', u'store', u'point_of_interest', u'establishment']"
0,43.675937,4.6445767,D.I.S.S. Centre Médicaux Sociaux,ChIJH-kNZXV2thIR7DhYicGZWnU,"[u'doctor', u'health', u'point_of_interest', u'establishment']"
0,43.671446,4.6438912,Petit Marion,ChIJt8YDP3Z2thIRglSn0KKMMng,"[u'point_of_interest', u'establishment']"
0,43.6759187,4.6442998,Chouetta Jalal,ChIJI2KHZXV2thIR454GU1SvN9E,"[u'store', u'point_of_interest', u'establishment']"
0,43.6710545,4.6438867,Babot Martine,ChIJAeUtOHZ2thIRir1nKNMflZY,"[u'point_of_interest', u'establishment']"
0,43.6753137,4.6436656,Judo Club Arlésien,ChIJGX3QmHV2thIRpF6UYAJhyD8,"[u'point_of_interest', u'establishment']"
0,43.6763473,4.6440941,Chidekh Habiba,ChIJyxzxaXV2thIRHuwBXXZvRmE,"[u'point_of_interest', u'establishment']"
0,43.6691174,4.6446482,BTP Teixeira,ChIJy0Q_53d2thIRCXcvfWBDjN8,"[u'point_of_interest', u'establishment']"
0,43.6742414,4.6426765,"L' Atelier Margaux JOANNY Sculpteur, Artiste Peintre, Designer",ChIJg8hItHV2thIRMN2QSFxtPJc,"[u'point_of_interest', u'establishment']"
0,43.6762768,4.6434857,Zannouh Abdeslam,ChIJcW3LFXV2thIR8a2V83mVXGQ,"[u'point_of_interest', u'establishment']"
0,43.6770324,4.6439254,Maison de la justice et du droit de Arles,ChIJD7maO3V2thIRhjHaUR5qcPQ,"[u'point_of_interest', u'establishment']"
0,43.673479,4.642446,13200,ChIJveaqMnR2thIRPXOX5JTJn4A,"[u'church', u'place_of_worship', u'point_of_interest', u'establishment']"
0,43.6716777,4.6426296,Berthet Berthet Bernard Claire,ChIJlZ6BYHZ2thIRulAFy1lZJxk,"[u'point_of_interest', u'establishment']"
0,43.677326,4.643919,13200,ChIJHbTTS3V2thIRnzJQW9PAPSo,"[u'city_hall', u'local_government_office', u'point_of_interest', u'establishment']"
0,43.6764871,4.6432605,Rachet & Rachet,ChIJu6IeI3V2thIR5UnmDPxdieo,"[u'plumber', u'point_of_interest', u'establishment']"
0,43.6736861,4.6422225,Camille Peinture,ChIJn9K-M3R2thIRML-SuHEiAR8,"[u'point_of_interest', u'establishment']"
0,43.6722876,4.64214,Cheddadi Isabelle,ChIJyUk8hnZ2thIR3Z2NnGhvCpg,"[u'point_of_interest', u'establishment']"
0,43.666691,4.6798031,ATP Coordination,ChIJKacr9aV1thIRIHGMJOA15zw,"[u'point_of_interest', u'establishment']"
0,43.666691,4.6798031,Estève Roger et Fils (Sté),ChIJKacr9aV1thIRVuCePvLgxyQ,"[u'general_contractor', u'point_of_interest', u'establishment']"
0,43.666698,4.679927,Soc Esteve Roger Et Fils,ChIJKacr9aV1thIRXa2iAWE28ys,"[u'point_of_interest', u'establishment']"
0,43.6631471,4.6880745,Bénelli Gino,ChIJj_WVEQd1thIRTdrYr6jAKbU,"[u'point_of_interest', u'establishment']"
0,43.6631471,4.6880745,Chapellot Aimé,ChIJc_8GHjB1thIRn6BL4S2v76c,"[u'real_estate_agency', u'point_of_interest', u'establishment']"
0,43.6631471,4.6880745,Aravecchia Pierre,ChIJc_8GHjB1thIR_fe8SaH7TZo,"[u'food', u'point_of_interest', u'establishment']"
0,43.6631471,4.6880745,Verhoest Geraldine,ChIJc_8GHjB1thIRSBXa2rxSvn0,"[u'health', u'point_of_interest', u'establishment']"
0,43.6631471,4.6880745,Ridolfi Persyn Valerie Sandra,ChIJc_8GHjB1thIRcGEMFxV9rlQ,"[u'point_of_interest', u'establishment']"
0,43.6631471,4.6880745,Roux Maurice,ChIJc_8GHjB1thIRXGEr0RLdDlA,"[u'point_of_interest', u'establishment']"
0,43.6631471,4.6880745,Favat Joël,ChIJc_8GHjB1thIRFsqCpYYxZiI,"[u'plumber', u'point_of_interest', u'establishment']"
0,43.6631471,4.6880745,Faisse Maurice,ChIJc_8GHjB1thIR1OAiOg2acRA,"[u'point_of_interest', u'establishment']"
0,43.6631471,4.6880745,Trabut Lionel,ChIJc_8GHjB1thIRiizjZ-OdUgY,"[u'painter', u'point_of_interest', u'establishment']"
0,43.662884,4.637421,Hôtel Kyriad Arles,ChIJ2ZfFg3x2thIRIWNTv2GLDxw,"[u'parking', u'lodging', u'point_of_interest', u'establishment']"
0,43.665479,4.633945,Hôtel Campanile Arles,ChIJK36V1mR2thIRT4iH8ZxjveQ,"[u'parking', u'lodging', u'restaurant', u'food', u'point_of_interest', u'establishment']"
0,43.66429,4.6343303,Crau Hôtel,ChIJR9tNsGR2thIRW_9Ed4SG6ig,"[u'lodging', u'point_of_interest', u'establishment']"
0,43.6653479,4.6354937,La halle aux chaussures,ChIJfehIJXt2thIRnKlNbG3Z-jA,"[u'shoe_store', u'store', u'point_of_interest', u'establishment']"
0,43.6649,4.633644,Hotel ibis budget Arles Sud Fourchon,ChIJQ6RGwGR2thIRW3Vbak4N7fE,"[u'lodging', u'point_of_interest', u'establishment']"
0,43.6655282,4.6387319,Casino Drive,ChIJc82OH3t2thIR5L0lkTiM6Hg,"[u'grocery_or_supermarket', u'food', u'store', u'point_of_interest', u'establishment']"
0,43.6678086,4.6362761,Bleu Libellule Arles,ChIJwcb833p2thIRhbv6xBbXnls,"[u'store', u'point_of_interest', u'establishment']"
0,43.671262,4.637271,Chapelle Saint-Honorat,ChIJV5gDqHF2thIRiuAJdMFsgRQ,"[u'church', u'place_of_worship', u'point_of_interest', u'establishment']"
0,43.664995,4.635034,Decathlon Arles,ChIJfehIJXt2thIRsAdwr6wZlys,"[u'shoe_store', u'store', u'point_of_interest', u'establishment']"
0,43.663942,4.636709,GiFi ARLES,ChIJSRXXG3l2thIRmRPSKT8e3Kk,"[u'home_goods_store', u'furniture_store', u'store', u'point_of_interest', u'establishment']"
0,43.665502,4.634728,Aubert Arles,ChIJt1RVVRVxthIR8wJpWdfPMo8,"[u'clothing_store', u'store', u'point_of_interest', u'establishment']"
0,43.6655309,4.6384022,La Pataterie Arles,ChIJfwh03np2thIRn_7Egmye14A,"[u'restaurant', u'food', u'point_of_interest', u'establishment']"
0,43.6662674,4.6388387,Jennyfer,ChIJw7xxFX12thIRAAoGne5-Jy4,"[u'clothing_store', u'store', u'point_of_interest', u'establishment']"
0,43.66799,4.636509,Maisons du Monde,ChIJ1SoLAH52thIR0rsLV_HDBvM,"[u'furniture_store', u'home_goods_store', u'store', u'point_of_interest', u'establishment']"
0,43.6641683,4.6375182,C.P.D.E.M.,ChIJZcCh6Hh2thIR8NhozmtFqpA,"[u'home_goods_store', u'store', u'point_of_interest', u'establishment']"
0,43.664114,4.636614,Sport 2000 Arles,ChIJZcCh6Hh2thIR6OZ_UAbpCm4,"[u'clothing_store', u'store', u'point_of_interest', u'establishment']"
0,43.664674,4.638437,Keep Cool Arles Fourchon,ChIJ5VmX6nt2thIRY0UQYgu835U,"[u'gym', u'health', u'point_of_interest', u'establishment']"
0,43.6654169,4.6355734,La Halle Mode et Accessoires,ChIJfehIJXt2thIRFxxCgil3j48,"[u'clothing_store', u'store', u'point_of_interest', u'establishment']"
0,43.666884,4.633275,Bowling d'Arles,ChIJccJdFmV2thIROB8DY4L2OLA,"[u'point_of_interest', u'establishment']"
0,43.664376,4.6373184,Décor Discount,ChIJAZMaEWt2thIR6ihY-zYM5Gs,"[u'home_goods_store', u'store', u'point_of_interest', u'establishment']"
0,43.6669224,4.6361436,La Grande Récré,ChIJAZMaEWt2thIRgqnMisgpRyQ,"[u'store', u'point_of_interest', u'establishment']"
0,43.6660227,4.6386151,Caisse d'Epargne Arles Fourchon,ChIJ92CkEWt2thIR91mMiqmHp4w,"[u'bank', u'atm', u'finance', u'point_of_interest', u'establishment']"
0,43.667389,4.63637,Intersport,ChIJz7H4vXp2thIREk6KWcYgPfA,"[u'clothing_store', u'store', u'point_of_interest', u'establishment']"
0,43.664645,4.638727,Optical Center ARLES,ChIJu05i6nt2thIRYHG2cy_I9cY,"[u'health', u'store', u'point_of_interest', u'establishment']"
0,43.664459,4.638905,Fitnessboutique Arles,ChIJ5VmX6nt2thIRzX4HxKwHmiM,"[u'health', u'point_of_interest', u'establishment']"
0,43.665819,4.638711,Yves Rocher,ChIJt1RVVRVxthIRqoQlr4NR9jo,"[u'beauty_salon', u'hair_care', u'spa', u'health', u'store', u'point_of_interest', u'establishment']"
0,43.6640286,4.6391372,Autodistribution FARSY,ChIJja2Q6nt2thIRfbOkQ12bn4Y,"[u'car_repair', u'store', u'point_of_interest', u'establishment']"
0,43.664714,4.63875,Centre contrôle technique Dekra,ChIJ_____z9xthIRxVdUZzZxV-U,"[u'car_repair', u'point_of_interest', u'establishment']"
0,43.667122,4.634877,Quick d'Arles,ChIJba4BFmV2thIRniKjXX0DEnk,"[u'restaurant', u'food', u'point_of_interest', u'establishment']"
0,43.666115,4.63843,Optical Concept,ChIJaxymP3p2thIRocuRaWOc_i0,"[u'health', u'store', u'point_of_interest', u'establishment']"
0,43.666451,4.638977,Lynx Optique,ChIJAZMaEWt2thIR_2q5ZrHmUmo,"[u'health', u'store', u'point_of_interest', u'establishment']"
0,43.6664689,4.63902,Martin Caille,ChIJwcb833p2thIRVFpcGOaKGnw,"[u'pharmacy', u'health', u'store', u'point_of_interest', u'establishment']"
0,43.667095,4.634234,Veloland,ChIJwY1TNmV2thIRqO6izF0arQ0,"[u'bicycle_store', u'store', u'point_of_interest', u'establishment']"
0,43.6660234,4.636097,BP France,ChIJwcb833p2thIR8_QPQevFJd8,"[u'gas_station', u'point_of_interest', u'establishment']"
0,43.665944,4.638376,Internity,ChIJ_____z9xthIRAQc9oDyI-AE,"[u'store', u'point_of_interest', u'establishment']"
0,43.654462,4.699979,La Jansonne,ChIJ7dw2ReJ0thIRWgeBjfoF2A8,"[u'sublocality_level_1', u'sublocality', u'political']"
0,43.658287,4.700668,Earl Du Grand Peyras,ChIJ9ZqQfKp1thIRVCCAJboJBD4,"[u'point_of_interest', u'establishment']"
0,43.656512,4.631471,Unité Jean Gérardin,ChIJ04wJCIl2thIR4QMrDf2S5NA,"[u'hospital', u'health', u'point_of_interest', u'establishment']"
0,43.6630783,4.6369399,BUFFALO GRILL ARLES,ChIJXadVgnx2thIRKyUlmruDSt0,"[u'restaurant', u'food', u'point_of_interest', u'establishment']"
0,43.663353,4.636431,But Arles,ChIJbTacm3x2thIRq_TGrP0YyzU,"[u'furniture_store', u'home_goods_store', u'store', u'point_of_interest', u'establishment']"
0,43.6634039,4.6369892,Donjon,ChIJ2ZfFg3x2thIRMwOxTqJDZMY,"[u'jewelry_store', u'store', u'point_of_interest', u'establishment']"
0,43.6634039,4.6369892,Groupe Norbert Dentressangle,ChIJ2ZfFg3x2thIRC7890f4wvXo,"[u'car_repair', u'point_of_interest', u'establishment']"
0,43.663777,4.637875,L'Atelier De Reprographie,ChIJZcCh6Hh2thIRcVci-4ZqKOg,"[u'point_of_interest', u'establishment']"
0,43.6556039,4.632301,13200,ChIJDY554Yh2thIRcCfhsUhhYjM,"[u'point_of_interest', u'establishment']"
0,43.658834,4.6315039,13200,ChIJKVuE14l2thIROLLPsmrhQyQ,"[u'point_of_interest', u'establishment']"
0,43.66009,4.63605,Mare Stein Eric Alain,ChIJtTCF3ol2thIRBgK6qni49_g,"[u'point_of_interest', u'establishment']"
0,43.66009,4.63605,Gourraud Valerie,ChIJtTCF3ol2thIREc4b9A4JFPg,"[u'point_of_interest', u'establishment']"
0,43.66009,4.63605,Gourraud Marestein,ChIJtTCF3ol2thIR2U9lB1J6CF0,"[u'point_of_interest', u'establishment']"
0,43.660092,4.636053,Distri Talange,ChIJAZMaEWt2thIRx6uMDQkIWqc,"[u'store', u'point_of_interest', u'establishment']"
0,43.660092,4.636053,Bank Company,ChIJAZMaEWt2thIR33L65qvC6aM,"[u'real_estate_agency', u'point_of_interest', u'establishment']"
0,43.660092,4.636053,Canal Architecture Jean-Lou Charra,ChIJAZMaEWt2thIRFHc6QecUHXY,"[u'point_of_interest', u'establishment']"
0,43.660092,4.636053,Pellegrin Maurice,ChIJAZMaEWt2thIRMulRh-YdSmg,"[u'food', u'point_of_interest', u'establishment']"
0,43.660092,4.636053,IRM du Pays d'Arles,ChIJw7xxFX12thIR9q5fT-IARmc,"[u'doctor', u'health', u'point_of_interest', u'establishment']"
0,43.660092,4.636053,Marque Denis Jean,ChIJAZMaEWt2thIRZbFQVZuXaWA,"[u'food', u'point_of_interest', u'establishment']"
0,43.660092,4.636053,Arpes,ChIJGZ1xFX12thIRHLlFpiaPxVA,"[u'hospital', u'point_of_interest', u'establishment']"
0,43.660092,4.636053,Bognier Michel,ChIJAZMaEWt2thIRqCmpc6QAu0s,"[u'point_of_interest', u'establishment']"
0,43.6489286,4.7049809,Camping La Bienheureuse,ChIJ_____z9xthIRvvQISQjbkAQ,"[u'campground', u'park', u'lodging', u'point_of_interest', u'establishment']"
0,43.648139,4.702438,Alain Delia Horticulteur,ChIJDxD_tuh0thIRPgbpdd8769Q,"[u'store', u'point_of_interest', u'establishment']"
0,43.645383,4.703986,Crédit Agricole Alpes Provence,ChIJe6Kqjeh0thIRi_BAlfisWvA,"[u'point_of_interest', u'establishment']"
0,43.648328,4.704976,Lapeyre Guy,ChIJ6T-qr-d0thIR8E5snSFC_Wg,"[u'point_of_interest', u'establishment']"
0,43.6489812,4.7053014,Camping La Bienheureuse,ChIJpdoeCed0thIR3P1SHB2ENIE,"[u'bar', u'point_of_interest', u'establishment']"
0,43.64833,4.70497,Restaurant La Bergerie Provençale,ChIJAZMaEWt2thIRBzAke-W8NE0,"[u'restaurant', u'bar', u'food', u'point_of_interest', u'establishment']"
0,43.642868,4.707667,Tallet 1870,ChIJYTRlcsJ0thIRCI_CSyuprKg,"[u'point_of_interest', u'establishment']"
0,43.649537,4.623369,13200,ChIJ9YXQXu12thIR1gVjeP7_olo,"[u'point_of_interest', u'establishment']"
0,43.652912,4.621767,13200,ChIJIUmCp_N2thIRXkL4c8K90Z0,"[u'point_of_interest', u'establishment']"
0,43.643628,4.7121025,Camargue Découverte,ChIJRbaMkWx2thIR1Sv_tabR0do,"[u'food', u'point_of_interest', u'establishment']"
0,43.6425863,4.7161941,Je@Nette Freynet,ChIJne6kZcV0thIRlA8rSF-gZSs,"[u'point_of_interest', u'establishment']"
0,43.6444786,4.7137172,PESAGE SERVICES,ChIJifU1OsV0thIRF8nfgPvqO0M,"[u'point_of_interest', u'establishment']"
0,43.6444786,4.7137172,Provence Auto Contrôle,ChIJ6TFk7MR0thIRwCWfocUODcE,"[u'point_of_interest', u'establishment']"
0,43.6444786,4.7137172,Centre contrôle technique Autocontrol,ChIJUQ-s5MR0thIR7m7wb5fSOx4,"[u'car_repair', u'point_of_interest', u'establishment']"
0,43.630517,4.598237,Mas Antonine,ChIJhXCASS93thIRcwfILiTtNsY,"[u'restaurant', u'food', u'point_of_interest', u'establishment']"
0,43.608929,4.582094,Gfa de O M A,ChIJuWT0ubhwthIRyq6WTR_hKPI,"[u'point_of_interest', u'establishment']"
0,43.608929,4.582094,SCEA Monrose,ChIJf4HzubhwthIR0MK7RGVioSM,"[u'point_of_interest', u'establishment']"
0,43.6153758,4.5812029,Pessione Alfred,ChIJlUVpsrdwthIRA-stLvnDT8o,"[u'point_of_interest', u'establishment']"
0,43.6153758,4.5812029,Amghare Chaouki Mariam,ChIJlUVpsrdwthIRHxd0AB2efBc,"[u'point_of_interest', u'establishment']"
0,43.594358,4.760948,Intermer,ChIJWe0MoNgLthIRcKdbJQ2GqKY,"[u'store', u'point_of_interest', u'establishment']"
0,43.594358,4.760948,Société Méridionale Formulation,ChIJJQMy-_IMthIRJEdMBimRvJo,"[u'home_goods_store', u'store', u'point_of_interest', u'establishment']"
0,43.594358,4.760948,Secomoc,ChIJsZ7Ob9gLthIR-D3BvIWbEvo,"[u'point_of_interest', u'establishment']"
0,43.594358,4.760948,Istrans,ChIJWe0MoNgLthIR4Dm-xhTmqt0,"[u'moving_company', u'point_of_interest', u'establishment']"
0,43.594358,4.760948,Guigard Et Associes,ChIJJQMy-_IMthIRf0UY9NsL9RI,"[u'point_of_interest', u'establishment']"
0,43.594358,4.760948,Nd Logistics,ChIJWe0MoNgLthIRpuxNb2XZp20,"[u'moving_company', u'point_of_interest', u'establishment']"
0,43.594358,4.760948,Kohler France,ChIJJQMy-_IMthIRZnLRpG9SIlE,"[u'moving_company', u'point_of_interest', u'establishment']"
0,43.594358,4.760948,Maten Developpement,ChIJJQMy-_IMthIR6n9J6VwsXAg,"[u'point_of_interest', u'establishment']"
0,43.592446,4.563025,Pont Ferry,ChIJA405hoJwthIRc69F4x9lqRQ,"[u'premise', u'point_of_interest', u'establishment']"
0,43.546853,4.80157,L'Oule,ChIJZ1QPNuUNthIRGbDWwhAHbWk,"[u'point_of_interest', u'establishment']"
0,43.40309,4.655531,Machine du Petit Rascaillan,ChIJu92JqBBqthIRQNAGy_t7Dak,"[u'point_of_interest', u'establishment']"
0,43.411184,4.676749,Tourvieille,ChIJ9TH0x1xqthIRzGT_oF5Vfvs,"[u'premise', u'point_of_interest', u'establishment']"
0,43.4231793,4.6894177,Mas de la belugue,ChIJS6v75P5qthIRxzLnl68NRmk,"[u'park', u'point_of_interest', u'establishment']"
0,43.423067,4.689656,Puget Yonnet-julien Francoise,ChIJG55C7_5qthIRYJXojwfAP98,"[u'point_of_interest', u'establishment']"
0,43.423067,4.689656,SM de Gest Parc Naturel Région Camargue,ChIJG55C7_5qthIRS0RxtcnXBUs,"[u'local_government_office', u'point_of_interest', u'establishment']"
0,43.439549,4.616736,13129,ChIJG-tszRFpthIRgaf8lLs6zEs,"[u'parking', u'point_of_interest', u'establishment']"
0,43.475062,4.737805,13200,ChIJf8Sufk8TthIRAqHaRh0iiBA,"[u'point_of_interest', u'establishment']"
0,43.5136514,4.7846938,Réserve Naturelle des Marais du Vigueirat,ChIJl74PC7VythIRUI5RlgXXQBk,"[u'park', u'point_of_interest', u'establishment']"
0,43.690897,4.656416,Les Franquières,ChIJDwxCt_B1thIRmW2jPLnd4MA,"[u'premise', u'point_of_interest', u'establishment']"
0,43.691071,4.650847,Cimetière des Neuf Collines,ChIJG1AO5Pt1thIRmrqn1TNOOqE,"[u'cemetery', u'premise', u'point_of_interest', u'establishment']"
0,43.725522,4.70941,Fontvieille,ChIJV35J3rXftRIRzjh6N8YM9x4,"[u'locality', u'political']"
0,43.6820374,4.6800747,A Rocha France,ChIJncf739N1thIRmigO4ocQi5o,"[u'point_of_interest', u'establishment']"
0,43.6800848,4.6421309,Mairie (Services Techniques),ChIJIXgZf3R2thIRMxQM2muD7ek,"[u'point_of_interest', u'establishment']"
0,43.6825933,4.6419126,Gem Arles,ChIJ-WLsfAl2thIRmz-Wr1JCWiA,"[u'point_of_interest', u'establishment']"
0,43.6792273,4.6422088,Digital Restore,ChIJra_JHQt2thIRVbwx0ofOJpQ,"[u'point_of_interest', u'establishment']"
0,43.6786041,4.6434939,HikTechnology,ChIJ_3BRMTl2thIRMNooP0c31QU,"[u'electronics_store', u'electrician', u'store', u'point_of_interest', u'establishment']"
0,43.68348,4.642026,Mur Marcel,ChIJa_NQcwl2thIRy1IF0nSUbxw,"[u'point_of_interest', u'establishment']"
0,43.6785611,4.6429561,Bernasconi Pierre-François,ChIJqdqAOQ52thIRPi5IXyVToSU,"[u'health', u'point_of_interest', u'establishment']"
0,43.6782697,4.6431532,Soc Travaux Maconnerie Gen Renov 13,ChIJyepExQp2thIREeh8m_VebtA,"[u'point_of_interest', u'establishment']"
0,43.6780556,4.6429357,Sarl Net Et Plus Nouridine,ChIJeU27zQp2thIRoZI3hZgnq5c,"[u'point_of_interest', u'establishment']"
0,43.677353,4.643464,Marco Brico Pro,ChIJEaUaNHV2thIRu1vc6F3QXNU,"[u'general_contractor', u'point_of_interest', u'establishment']"
0,43.6783983,4.6425955,Sarl CCR,ChIJ4zEi2Ap2thIRxh6_8zSEZ0s,"[u'point_of_interest', u'establishment']"
0,43.6783983,4.6425955,Bernasconi Marc,ChIJ4zEi2Ap2thIR6V8D6qXbWCU,"[u'health', u'point_of_interest', u'establishment']"
0,43.6835845,4.6410833,Brizio Vieux Stephanie,ChIJ84Bwagl2thIRcAC7tmpWyxU,"[u'health', u'point_of_interest', u'establishment']"
0,43.6808258,4.6410483,Casanova Danielle,ChIJg1Owlwt2thIRFvaB9Xpj5Sk,"[u'point_of_interest', u'establishment']"
0,43.6859214,4.641944,Les Alpilles,ChIJXQL68gh2thIRJ_kMY9QEO38,"[u'point_of_interest', u'establishment']"
0,43.684227,4.6410268,Schneider Jean,ChIJl9Q9Igl2thIRviTz4-aOy7U,"[u'point_of_interest', u'establishment']"
0,43.684227,4.6410268,Viziati Laure,ChIJMU4iPQl2thIRhr6vUX98KaY,"[u'point_of_interest', u'establishment']"
0,43.6780892,4.6420347,Quenin Marc,ChIJfT26Lgt2thIRHK6Y26mE1VQ,"[u'electrician', u'point_of_interest', u'establishment']"
0,43.681204,4.643334,Pont d'Ens,ChIJo0NgRwp2thIRmvTx5vU0VJc,"[u'premise', u'point_of_interest', u'establishment']"
0,43.6715167,4.6369,Alyscamps,ChIJ79tpzW12thIRKFZRLd3pW20,"[u'point_of_interest', u'establishment']"
0,43.6719663,4.6353844,Clinique Jean Paoli,ChIJd_5BxXF2thIRfd3O9J_GzVk,"[u'health', u'point_of_interest', u'establishment']"
0,43.6768599,4.6398354,Clinical Jeanne D'arc,ChIJ73VLWXN2thIR84yyN8z_9Rg,"[u'health', u'point_of_interest', u'establishment']"
0,43.6731548,4.6392023,Communauté d'agglomération Arles Crau Camargue Montagnette - ACCM,ChIJp6r0VHF2thIRa6KymL5Sr-A,"[u'point_of_interest', u'establishment']"
0,43.674909,4.635344,Le Stradivarius,ChIJO0wbb3J2thIRFXvcG1yMOnM,"[u'restaurant', u'cafe', u'grocery_or_supermarket', u'food', u'store', u'point_of_interest', u'establishment']"
0,43.6791584,4.6376728,Middle School Van Gogh Vincent,ChIJPXLCZg12thIRhB1s1RR-qWg,"[u'school', u'point_of_interest', u'establishment']"
0,43.674964,4.638649,Crédit Agricole Alpes Provence,ChIJk547onN2thIRi7R5bH7ZDx0,"[u'bank', u'atm', u'finance', u'point_of_interest', u'establishment']"
0,43.6748832,4.6356551,Anciens Ateliers SNCF,ChIJVWwxb3J2thIRMnKVTDz06CY,"[u'point_of_interest', u'establishment']"
0,43.6775715,4.6395581,Dialysis Center D'arles,ChIJc0-fU3N2thIReHIRxidMtPo,"[u'hospital', u'health', u'point_of_interest', u'establishment']"
0,43.6723861,4.6397332,IUT d'Aix-Marseille site d'Arles,ChIJPe5LfnF2thIRXeMz2X_PYGs,"[u'university', u'point_of_interest', u'establishment']"
0,43.6767415,4.6370249,LES ATELIERS D'ÉCRITURE DE VIRGINIE LOU,ChIJLUJW53J2thIRhYlfzuW0gcU,"[u'point_of_interest', u'establishment']"
0,43.6772163,4.6388102,Bécaud André,ChIJh3V1T3N2thIRazGb1l9ozcs,"[u'doctor', u'health', u'point_of_interest', u'establishment']"
0,43.6747541,4.6335857,Agence Manaranche,ChIJC3SjvW12thIRdIiiH_taxrA,"[u'real_estate_agency', u'point_of_interest', u'establishment']"
0,43.6747778,4.6400397,Hôpital de Jour,ChIJMYHrd3R2thIROeyfzQ7s9rc,"[u'hospital', u'health', u'point_of_interest', u'establishment']"
0,43.6765531,4.6414062,Post Office,ChIJ1T9_wnR2thIRBTUAxA4Rql4,"[u'post_office', u'finance', u'point_of_interest', u'establishment']"
0,43.6772163,4.6388102,Masset,ChIJh3V1T3N2thIRVp4HvNWHo8c,"[u'doctor', u'health', u'point_of_interest', u'establishment']"
0,43.6768864,4.6393744,Selarl Bioalpilles,ChIJf_foUXN2thIR77ih-tk3rTA,"[u'health', u'point_of_interest', u'establishment']"
0,43.6732424,4.6392005,Delta Flash,ChIJr9SY_HN2thIR--JalsAN0ss,"[u'point_of_interest', u'establishment']"
0,43.6692724,4.6384074,Techniques Energétiques,ChIJneB50BJ2thIR2Gpa87uXtzc,"[u'health', u'point_of_interest', u'establishment']"
0,43.673019,4.639857,Ecole Supinfocom,ChIJr9SY_HN2thIR56RnHpnEFw0,"[u'point_of_interest', u'establishment']"
0,43.6716918,4.6381211,Villa des Alyscamps,ChIJNw-pE3F2thIRnB05gyOgJGs,"[u'real_estate_agency', u'lodging', u'point_of_interest', u'establishment']"
0,43.6740614,4.6319677,Caisse Primaire Centrale Assurance Maladie,ChIJ79tpzW12thIRBJqrlNPSf_0,"[u'point_of_interest', u'establishment']"
0,43.6733191,4.6394254,Alto Info-systems,ChIJr9SY_HN2thIRPUvUGoHDu1Q,"[u'point_of_interest', u'establishment']"
0,43.6733191,4.6394254,Brun Marius et Fils,ChIJr9SY_HN2thIRMluvbrLWhmI,"[u'point_of_interest', u'establishment']"
0,43.671358,4.634438,Profac,ChIJ82a7KG52thIRl36JMKb7zig,"[u'point_of_interest', u'establishment']"
0,43.675202,4.638254,Anouilh Paul Architecte,ChIJf2_FoHN2thIR2iCGaSod6NY,"[u'point_of_interest', u'establishment']"
0,43.6746962,4.6342337,Centre Auditif Amplifon Arles Victor Hugo,ChIJkbk9jm12thIRdj9d88scdAk,"[u'health', u'store', u'point_of_interest', u'establishment']"
0,43.67366,4.638751,Audition Confort - Audioprothésiste - Thomas BERTRET,ChIJNYSI6HN2thIRtccY7s4OGXw,"[u'health', u'store', u'point_of_interest', u'establishment']"
0,43.6732802,4.6393133,Cyber Nostra,ChIJC08LVHF2thIRedF3lf5baBQ,"[u'point_of_interest', u'establishment']"
0,43.6733191,4.6394254,Picard Marc,ChIJr9SY_HN2thIRNOE3PzRtyFg,"[u'health', u'point_of_interest', u'establishment']"
0,43.6752253,4.6359356,GMF Assurances,ChIJO0wbb3J2thIRWWTc83B90M8,"[u'insurance_agency', u'point_of_interest', u'establishment']"
0,43.6768162,4.641218,Syndicat Des Coproprietaires,ChIJX50mx3R2thIRkaxl4lQw8m8,"[u'real_estate_agency', u'point_of_interest', u'establishment']"
0,43.669643,4.637701,Mairie,ChIJ85-h83B2thIRzcd3kb4MVfo,"[u'point_of_interest', u'establishment']"
0,43.6722909,4.6404566,I . U . T,ChIJFYMTsHZ2thIR-0KDPmGIGWM,"[u'point_of_interest', u'establishment']"
0,43.6655028,4.694672,S.a.m.e.,ChIJRfQNqw91thIRvePNkeIkhck,"[u'general_contractor', u'point_of_interest', u'establishment']"
0,43.665255,4.693591,masconceptions,ChIJpRz2mgV1thIR3LAnVJIiJYU,"[u'point_of_interest', u'establishment']"
0,43.6706766,4.6301169,Auberge de Jeunesse Arles,ChIJORWn0mh2thIRGGm3o0Wfw18,"[u'lodging', u'point_of_interest', u'establishment']"
0,43.6683902,4.6304419,Office des Sports de la Ville d'Arles,ChIJzebb92V2thIRCR6YsepqpY4,"[u'point_of_interest', u'establishment']"
0,43.666458,4.632942,Hotel ibis Arles,ChIJCQIhQ2V2thIRmOxMaPjU2fA,"[u'lodging', u'point_of_interest', u'establishment']"
0,43.666885,4.633193,Bouticycle Arles,ChIJMYXsFmV2thIR53WzL2ffWUs,"[u'store', u'point_of_interest', u'establishment']"
0,43.6668914,4.6338554,Les Bébés Troqueurs,ChIJCQIhQ2V2thIR6HLX7n5YQm0,"[u'clothing_store', u'store', u'point_of_interest', u'establishment']"
0,43.6691906,4.6339137,Athletic Club Arles Avignon,ChIJ8UoEh292thIRVxQiFGOGlco,"[u'point_of_interest', u'establishment']"
0,43.6672363,4.6338401,Roady,ChIJL7ZFGmt2thIRMgETariteD0,"[u'car_repair', u'point_of_interest', u'establishment']"
0,43.6683902,4.6304419,Stade Olympique Arlésien,ChIJX6AkEWt2thIR5MW08gTpxCA,"[u'point_of_interest', u'establishment']"
0,43.6666,4.6329,Auto Sécurité - Arles auto securite,ChIJj07c1mR2thIR0R98cW5cdL0,"[u'car_repair', u'store', u'point_of_interest', u'establishment']"
0,43.6650271,4.6333828,Delta Plomberie,ChIJHX5SsWR2thIRUfloO24tGec,"[u'plumber', u'general_contractor', u'point_of_interest', u'establishment']"
0,43.6649237,4.6333964,FD2i,ChIJQ6RGwGR2thIRfI6nqyfMqzE,"[u'real_estate_agency', u'finance', u'point_of_interest', u'establishment']"
0,43.655652,4.709303,Pont de Villarde,ChIJqVYph990thIRdpsWRoh8JlY,"[u'premise', u'point_of_interest', u'establishment']"
0,43.6569469,4.6210257,Van Gogh Bridge,ChIJu5zCTfR2thIRs72OkksNp28,"[u'point_of_interest', u'establishment']"
0,43.661064,4.6214381,Jauffret,ChIJA-8ScV92thIR-SsAfSwuiVE,"[u'point_of_interest', u'establishment']"
0,43.6597326,4.6201296,vetement glamour,ChIJGzYYXF92thIRCnl9HI7Vpck,"[u'clothing_store', u'store', u'point_of_interest', u'establishment']"
0,43.6605481,4.6221199,LA LIBERTE LE COMMERCIAL,ChIJESYqe192thIRvyf8mocVQlE,"[u'point_of_interest', u'establishment']"
0,43.6634754,4.6262473,Unitair,ChIJ5RP_zmB2thIRhisANOJgb5k,"[u'general_contractor', u'point_of_interest', u'establishment']"
0,43.6610627,4.6177872,La Chrysalide Arles et arrondissement,ChIJgZXzylh2thIRHcjyf-P4HtQ,"[u'health', u'point_of_interest', u'establishment']"
0,43.66352,4.626144,Petite Reine - Leau Calme,ChIJV6P_zmB2thIRZeQBSjSG9zM,"[u'point_of_interest', u'establishment']"
0,43.6609881,4.6176277,ainhoa3D,ChIJvyYwR1l2thIRLjcpxtvBGHA,"[u'point_of_interest', u'establishment']"
0,43.6625102,4.6198879,T.e.d.d,ChIJEWNmxV52thIRZ7lvk2CgM0Y,"[u'point_of_interest', u'establishment']"
0,43.6638265,4.6247741,SME,ChIJ5cNF_V12thIRLKPGTZAD0ug,"[u'point_of_interest', u'establishment']"
0,43.6569429,4.6210974,13200,ChIJv6YjTfR2thIRSWQ0qFwf0k4,"[u'point_of_interest', u'establishment']"
0,43.6595237,4.6211519,Chauffage Climatisation Sanitaire,ChIJH_jVYl92thIRn1kJTdeUiTg,"[u'veterinary_care', u'point_of_interest', u'establishment']"
0,43.6605481,4.6221199,Sape,ChIJk8EBol92thIRfWWB_WGshFU,"[u'point_of_interest', u'establishment']"
0,43.6594876,4.618497,Rodriguez Luchard Sandrine,ChIJYZn1p1h2thIR6WBi2DlM-DM,"[u'grocery_or_supermarket', u'food', u'store', u'point_of_interest', u'establishment']"
0,43.6597115,4.6182253,Troillet Marie-Christine,ChIJwdE1oVh2thIRzhUxjbxNHlc,"[u'point_of_interest', u'establishment']"
0,43.660825,4.6196594,Casès Jean-Marc,ChIJsUHlNl92thIRX4j4XBYwPIE,"[u'point_of_interest', u'establishment']"
0,43.6624953,4.6226413,C.C.S. Chauffage Climatisation Sanitaire,ChIJV4sqRF52thIR-6z2ApHeHXU,"[u'plumber', u'point_of_interest', u'establishment']"
0,43.6624953,4.6226413,Ital Pierres,ChIJV4sqRF52thIRHyniJeNlMDs,"[u'store', u'point_of_interest', u'establishment']"
0,43.6627442,4.6233215,Mairie (Service Pompes Funèbres),ChIJ4RRePl52thIRVrn_D5wzuSg,"[u'point_of_interest', u'establishment']"
0,43.661643,4.619741,Giraud Emilie,ChIJeT3wKF92thIR4Zd6fu-iqYk,"[u'grocery_or_supermarket', u'food', u'store', u'point_of_interest', u'establishment']"
0,43.6619633,4.620303,Fourniol Gisele,ChIJg9dK3l52thIRcPyIpejeZAI,"[u'point_of_interest', u'establishment']"
0,43.661791,4.619495,Lou Souleu,ChIJM4EaKl92thIRIyk0Sa-f2DM,"[u'grocery_or_supermarket', u'food', u'store', u'point_of_interest', u'establishment']"
0,43.6635256,4.6261441,Sarl GF Alu,ChIJ5RP_zmB2thIRmKJtXLDTEv0,"[u'point_of_interest', u'establishment']"
0,43.6609761,4.6177509,Action Group Psychopédagogique,ChIJK4zS61h2thIR95BK9F09wtk,"[u'school', u'point_of_interest', u'establishment']"
0,43.6609881,4.6176277,Foyer Le Mas Saint Pierre,ChIJj-LJQFl2thIRaVy-E2Xc0sA,"[u'point_of_interest', u'establishment']"
0,43.663642,4.62639,Le Pescalune - Chambres d'hôtes,ChIJs9D00WB2thIRn_rhC0ffIZs,"[u'lodging', u'point_of_interest', u'establishment']"
0,43.661387,4.6178314,Gymnase Louis Brun,ChIJS6S_51h2thIRIiZIYiv6gik,"[u'gym', u'health', u'point_of_interest', u'establishment']"
0,43.6620541,4.6187645,Buntz Sebastien,ChIJVbIaKVl2thIRlSI-3eJ4WJQ,"[u'general_contractor', u'point_of_interest', u'establishment']"
