,Latitude,Longitude,Name,Place_id,Type
0,43.2926781,5.5676425,Aubagne,ChIJyyal8DOjyRIRvMKMseEhjSw,"[u'locality', u'political']"
0,43.2943271,5.5688992,HOTEL SOULEIA,ChIJPepMwjajyRIR9RS36i8kMZY,"[u'lodging', u'point_of_interest', u'establishment']"
0,43.2945144,5.5672075,Société Générale,ChIJrVG6oTajyRIRq01U7T3WkeY,"[u'bank', u'atm', u'insurance_agency', u'finance', u'point_of_interest', u'establishment']"
0,43.2988709,5.5689887,Randstad Aubagne,ChIJOwMEsTGjyRIRYdnJmP-PxEM,"[u'point_of_interest', u'establishment']"
0,43.2926906,5.5694588,Asylium tattoo piercing,ChIJC6-mUzajyRIRL8xaT2v1o14,"[u'store', u'point_of_interest', u'establishment']"
0,43.2937652,5.5680099,Nikki Sushi Aubagne,ChIJgwx4kTajyRIRQ3JCvUaYJiA,"[u'meal_delivery', u'food', u'point_of_interest', u'establishment']"
0,43.2909155,5.5703599,Europa Formation,ChIJOeyj2TejyRIRwQx25niYve0,"[u'point_of_interest', u'establishment']"
0,43.2939959,5.5667332,An(i)mage,ChIJuyvsHK_AyRIR7JEBY4xyo8k,"[u'point_of_interest', u'establishment']"
0,43.29334,5.564097,McDonald's,ChIJV4fj5TSjyRIRydbfOVziE5A,"[u'restaurant', u'food', u'point_of_interest', u'establishment']"
0,43.292438,5.5532375,COMMANDEMENT DE LA LEGION ETRANGERE,ChIJ7QMJLba8yRIRVzb_vvnj8H0,"[u'point_of_interest', u'establishment']"
0,43.2924389,5.5727557,MJC L'Escale,ChIJd8rSMTijyRIRGm9CQRWlxKo,"[u'point_of_interest', u'establishment']"
0,43.293249,5.570271,Syndicat Zone Industrielle Des Paluds,ChIJjaipCDejyRIRXHxejakw61U,"[u'real_estate_agency', u'point_of_interest', u'establishment']"
0,43.2950951,5.5667327,Commissariat de Police d'Aubagne,ChIJRSJNHTSjyRIR-GV6_0rRYSk,"[u'police', u'point_of_interest', u'establishment']"
0,43.2945148,5.5677227,Cinéma Le Pagnol,ChIJMyJjhDajyRIR8h0NxaXgmVY,"[u'movie_theater', u'point_of_interest', u'establishment']"
0,43.2957061,5.5678337,Action,ChIJa50YTDGjyRIRW72fvtJiczM,"[u'health', u'point_of_interest', u'establishment']"
0,43.2914546,5.569439,CENTURY 21 Agence Beaumond,ChIJ_yKfMzajyRIRwXCZOAK9YOY,"[u'real_estate_agency', u'point_of_interest', u'establishment']"
0,43.292312,5.569231,Le Borsalino,ChIJ3_NvTjajyRIRSj5fnXk3pps,"[u'bar', u'restaurant', u'food', u'point_of_interest', u'establishment']"
0,43.2922957,5.5693714,Mairie,ChIJK2QCTTajyRIRaIC9pMTYB5U,"[u'city_hall', u'local_government_office', u'point_of_interest', u'establishment']"
0,43.293918,5.568802,hammam d'aubagne,ChIJ5Xw7azejyRIRNdr_qe4jGoE,"[u'beauty_salon', u'point_of_interest', u'establishment']"
0,43.2923622,5.5702864,Le Pub's,ChIJNwAyrjejyRIRzJmkvk79sGs,"[u'point_of_interest', u'establishment']"
0,43.2894999,5.5716415,Agence Immobiliere Bresson,ChIJW-VDCUijyRIRfdYe7jp5j2Q,"[u'real_estate_agency', u'point_of_interest', u'establishment']"
0,43.2900789,5.5597795,Le Hong Kong,ChIJlTIuC7W8yRIR2fTfrvrWEVI,"[u'restaurant', u'bar', u'food', u'point_of_interest', u'establishment']"
0,43.2943103,5.5592332,Red Lion,ChIJPWrGizSjyRIRRuS7u5c3RtE,"[u'bar', u'point_of_interest', u'establishment']"
0,43.2919131,5.5698898,dragon de jade,ChIJzamAyjejyRIRglcu-b6WYUY,"[u'restaurant', u'food', u'point_of_interest', u'establishment']"
0,43.2934855,5.5637115,Bowling du Bras d'Or d'Aubagne,ChIJV4fj5TSjyRIRhVJCwVnjhgk,"[u'bowling_alley', u'gym', u'health', u'point_of_interest', u'establishment']"
0,43.2949821,5.5682472,Adecco France,ChIJpzuKtzajyRIR82qCTtqS8_4,"[u'point_of_interest', u'establishment']"
0,43.29932,5.56941,Aubagne Nature,ChIJGa3B1C-jyRIRuSELYZEVzgk,"[u'restaurant', u'food', u'point_of_interest', u'establishment']"
0,43.293255,5.570281,Dans les arbres,ChIJ1VKpCDejyRIRg1ciSqZWlO8,"[u'bar', u'point_of_interest', u'establishment']"
0,43.2927888,5.5664993,Banque Populaire Provençale et Corse,ChIJA1Zg0TWjyRIRB6xSfQ7vHR0,"[u'bank', u'finance', u'point_of_interest', u'establishment']"
0,43.293311,5.5651941,Centre de gynecologie et obstétrique,ChIJB1wBTzSjyRIR-UvoMmQYDOM,"[u'doctor', u'health', u'point_of_interest', u'establishment']"
0,43.2914918,5.5632928,Centre hospitalier Edmond Garcin (Aubagne),ChIJo8M5ZzWjyRIRbcNj2eEiqzw,"[u'hospital', u'point_of_interest', u'establishment']"
0,43.2928936,5.5679315,LCL - Le Crédit Lyonnais,ChIJGUyTYjajyRIR2IYYw6TlTYI,"[u'bank', u'atm', u'insurance_agency', u'finance', u'point_of_interest', u'establishment']"
0,43.2918216,5.5613041,High School Middle School Joliot Curie,ChIJYTDcpcq8yRIRsJeZ1JQLXKU,"[u'school', u'point_of_interest', u'establishment']"
0,43.293738,5.561975,Complexe du Bras d'or,ChIJC1Pr0zSjyRIRMpDblTcjHoU,"[u'point_of_interest', u'establishment']"
0,43.2923756,5.5701749,Grains de Siècle,ChIJNwAyrjejyRIRiHagskVNzAk,"[u'restaurant', u'food', u'point_of_interest', u'establishment']"
0,43.2896188,5.5714872,pôle emploi Aubagne,ChIJTSIR5TSjyRIRqm1BxzvQufQ,"[u'point_of_interest', u'establishment']"
0,43.2890637,5.5697995,Gendarmerie Nationale,ChIJzRkItzajyRIRxeQoL7bqdN4,"[u'point_of_interest', u'establishment']"
0,43.2948907,5.5702294,Monsieur Meuble Aubagne,ChIJO9axNzejyRIRF8GbPA2seGY,"[u'furniture_store', u'subpremise', u'home_goods_store', u'store', u'point_of_interest', u'establishment']"
0,43.2924419,5.5649698,Cabinet Marlène Chaix,ChIJtWXQpDWjyRIRVbVt0T75FEU,"[u'real_estate_agency', u'point_of_interest', u'establishment']"
0,43.2922106,5.5683569,Dr Norreel Paula,ChIJ7RmwaDajyRIRuiiZOiKRGo4,"[u'dentist', u'real_estate_agency', u'health', u'point_of_interest', u'establishment']"
0,43.2933917,5.5665668,Post Office Aubagne,ChIJWx8x0zWjyRIR7EZWnDpF3Go,"[u'post_office', u'finance', u'point_of_interest', u'establishment']"
0,43.2939281,5.5683098,Cimm Aubagne,ChIJM09c6zajyRIRmckUNWKLQlg,"[u'real_estate_agency', u'point_of_interest', u'establishment']"
0,43.2891135,5.5717944,Central Parc Bat A,ChIJVzIGc0ijyRIRd_XwIyGuc1U,"[u'premise', u'point_of_interest', u'establishment']"
0,43.2899627,5.5681391,Form'Action,ChIJyyal8DOjyRIRf_vVUk2qgp4,"[u'gym', u'health', u'point_of_interest', u'establishment']"
0,43.2955344,5.5692332,Maison de la Justice et du Droit du Pays d'Aubagne,ChIJh4RuLjGjyRIROBwA8QydndM,"[u'courthouse', u'point_of_interest', u'establishment']"
0,43.2938596,5.570987,Le Temple des Dames,ChIJ5Xw7azejyRIREjQBpEuERvg,"[u'beauty_salon', u'point_of_interest', u'establishment']"
0,43.29443,5.56701,"Agence d’intérim Manpower Aubagne Recrutement, offres d’emploi/jobs, CDI, CDD",ChIJAyD2oDajyRIRu441LF4WiMw,"[u'local_government_office', u'point_of_interest', u'establishment']"
0,43.2947421,5.5671358,Trinôme l'agence RH,ChIJ2b9TpjajyRIRDZXr94ZpavE,"[u'point_of_interest', u'establishment']"
0,43.2945477,5.5669923,BNP Paribas - Aubagne,ChIJiwv7oDajyRIRqtapvPZxs6o,"[u'bank', u'atm', u'finance', u'point_of_interest', u'establishment']"
0,43.2921714,5.5689357,Eovi Mcd mutuelle,ChIJoX9ARjajyRIRCv_ONG8Jago,"[u'insurance_agency', u'health', u'point_of_interest', u'establishment']"
0,43.29218,5.569336,Synergie,ChIJjaipCDejyRIRx-BMpvp8mmo,"[u'point_of_interest', u'establishment']"
0,43.294739,5.5688246,Centre de Rhumatologie,ChIJQYiixTajyRIR5wU0rR1_-ZY,"[u'doctor', u'health', u'point_of_interest', u'establishment']"
0,43.2928551,5.5678718,"GERES Groupe Energies Renouvelables, Environnement et Solidarités",ChIJVZEIijajyRIR7TY-1MY_wq0,"[u'point_of_interest', u'establishment']"
0,43.2963654,5.5702844,Naturhouse,ChIJN4AhxDCjyRIR8UHhIqvG7vc,"[u'grocery_or_supermarket', u'food', u'store', u'point_of_interest', u'establishment']"
0,43.2928473,5.5683405,Lavande Boutique,ChIJvZ0EXjajyRIRbruKva_8YQM,"[u'clothing_store', u'store', u'point_of_interest', u'establishment']"
0,43.2961284,5.5684697,Magic Frag,ChIJl02ANzGjyRIRVAqEuzQqXBo,"[u'store', u'point_of_interest', u'establishment']"
0,43.292774,5.566772,Office de Tourisme Intercommunal du Pays d'Aubagne et de l'Etoile,ChIJ6fjt1jWjyRIRhp2CrhkaNKk,"[u'travel_agency', u'point_of_interest', u'establishment']"
0,43.2945939,5.5668205,La Bolée Bretonne,ChIJg1v6oDajyRIRIx1PQW_w8Dc,"[u'meal_takeaway', u'restaurant', u'food', u'store', u'point_of_interest', u'establishment']"
0,43.292816,5.5667398,Société Marseillaise de Crédit - Aubagne,ChIJEy-e1jWjyRIRSsgRIJSAv30,"[u'bank', u'atm', u'finance', u'point_of_interest', u'establishment']"
0,43.2924793,5.5705936,NéO ENERGY,ChIJ065upDejyRIRTkzkoZ6Cnss,"[u'plumber', u'general_contractor', u'point_of_interest', u'establishment']"
0,43.2781785,5.5593499,Groupe La Varappe,ChIJAw2Otqy8yRIRfv_HdQjUPMw,"[u'general_contractor', u'point_of_interest', u'establishment']"
0,43.2880911,5.5729305,Barbotine Poterie,ChIJR0IozUejyRIRz7aXSMxs_gg,"[u'store', u'point_of_interest', u'establishment']"
0,43.29008,5.559766,Le Stromboli,ChIJp8QvC7W8yRIRjlUjCcOQcLM,"[u'restaurant', u'food', u'point_of_interest', u'establishment']"
0,43.2893095,5.566898,Adia,ChIJ8btzlUmjyRIRszN2GHtsbNs,"[u'point_of_interest', u'establishment']"
0,43.2916106,5.5627533,La Cave à Pizza Aubagne,ChIJjU9iQzWjyRIRBosyMdgw8wY,"[u'meal_delivery', u'meal_takeaway', u'restaurant', u'food', u'point_of_interest', u'establishment']"
0,43.2869372,5.5601925,Centre Provencal de Medecine Du Sport,ChIJO-1QvLS8yRIRs0LlF05Rtn4,"[u'doctor', u'health', u'point_of_interest', u'establishment']"
0,43.2914095,5.5611633,Saveurs d'Asie,ChIJvaf3ZrW8yRIRJjxXkxZ5gOg,"[u'restaurant', u'bar', u'food', u'point_of_interest', u'establishment']"
0,43.282789,5.5676119,L'Agrié,ChIJhwUicE6jyRIR1YDH0dbLJfo,"[u'sublocality_level_1', u'sublocality', u'political']"
0,43.291271,5.560496,Poterie Ravel,ChIJe2T0ssq8yRIRCYGPCSBGh7w,"[u'home_goods_store', u'store', u'point_of_interest', u'establishment']"
0,43.2894252,5.5683371,Mairie Loisirs Vie des Quartiers et 3ème âge,ChIJPa2iv0mjyRIRXrIbXlOI82I,"[u'city_hall', u'local_government_office', u'point_of_interest', u'establishment']"
0,43.2893456,5.5717963,Post Office (Office Aubagne Central Parc),ChIJCeVDCUijyRIRqKV6fgf5jMc,"[u'post_office', u'finance', u'point_of_interest', u'establishment']"
0,43.2914057,5.5611701,Pizzeria les Goums,ChIJvaf3ZrW8yRIRy19lhZ_KR8Q,"[u'restaurant', u'food', u'point_of_interest', u'establishment']"
0,43.2867721,5.5588118,Centre de Secours,ChIJdWj4tLS8yRIRO676F3ZLe4s,"[u'fire_station', u'point_of_interest', u'establishment']"
0,43.2853001,5.5547174,Société d'Administration de Grands Ensembles et Copropriétés,ChIJ5yfdF7G8yRIRhLxWD6-67Uk,"[u'point_of_interest', u'establishment']"
0,43.289164,5.568089,Gentiletti,ChIJTeaak0mjyRIRXnKniy45gj8,"[u'electrician', u'point_of_interest', u'establishment']"
0,43.2840889,5.5714058,Assemblée de Dieu,ChIJ1U2Fbk-jyRIRxBQH-KwJJIY,"[u'church', u'place_of_worship', u'point_of_interest', u'establishment']"
0,43.29023,5.55992,récupération de points du permis de conduire,ChIJjUAbxpqjyRIRdZhdmLGWGwo,"[u'point_of_interest', u'establishment']"
0,43.287882,5.565857,Résidence l'Hermitage,ChIJLZzwyEujyRIRdgxNM_kzsEs,"[u'health', u'point_of_interest', u'establishment']"
0,43.288296,5.56981,Action Reliance,ChIJKRywVUijyRIRe50wcrrUHGs,"[u'point_of_interest', u'establishment']"
0,43.2880463,5.5700527,Football Club Galactic,ChIJO19j-EijyRIR6RN5bsrfO5M,"[u'point_of_interest', u'establishment']"
0,43.2871829,5.5657359,Sauvegarde 13,ChIJbfgewEujyRIRtRgEV181af0,"[u'hospital', u'point_of_interest', u'establishment']"
0,43.284133,5.560004,électric'avenir,ChIJb5iwFrO8yRIR-HyIW9MBL8s,"[u'electrician', u'general_contractor', u'point_of_interest', u'establishment']"
0,43.291487,5.562413,Shaolin Kung Fu Aubagne Provence,ChIJY3f3RDWjyRIRQtaXOS3EA50,"[u'health', u'point_of_interest', u'establishment']"
0,43.2891769,5.5664457,V A K S,ChIJeTehJEqjyRIRWlsjzIxt1xw,"[u'hair_care', u'point_of_interest', u'establishment']"
0,43.2886543,5.5633655,Acro Elagage,ChIJgTF-4UqjyRIRed0S7LYFPZw,"[u'point_of_interest', u'establishment']"
0,43.2838788,5.5637519,Chareyre Nicolas Franck Jules,ChIJ8YYxV0yjyRIRXQcgzEhxKbM,"[u'furniture_store', u'home_goods_store', u'store', u'point_of_interest', u'establishment']"
0,43.2895126,5.5679354,Les Deux Provencales,ChIJz58vlUmjyRIRru46PyN3CGc,"[u'store', u'point_of_interest', u'establishment']"
0,43.2841615,5.5674414,Déco Décor,ChIJl62sm06jyRIRdeoIp80BQJc,"[u'painter', u'point_of_interest', u'establishment']"
0,43.2841615,5.5674414,C.R.E.S. Les Bastides,ChIJl62sm06jyRIR9IXTamidrKs,"[u'point_of_interest', u'establishment']"
0,43.2879217,5.5730962,Sarl Aubagne Garlaban Barbotine,ChIJR0IozUejyRIR0kKlNFQqmI8,"[u'furniture_store', u'home_goods_store', u'store', u'point_of_interest', u'establishment']"
0,43.2870805,5.5615266,Pizza du Parc,ChIJF9FqtLS8yRIRIHa2zAhYLl8,"[u'restaurant', u'food', u'point_of_interest', u'establishment']"
0,43.286612,5.555491,Meditec Provence,ChIJDyjGVSajyRIRIKf-EUXcwdM,"[u'accounting', u'finance', u'point_of_interest', u'establishment']"
0,43.2891601,5.5670227,L'instant D,ChIJF23jikmjyRIROK04j3l61cs,"[u'beauty_salon', u'point_of_interest', u'establishment']"
0,43.2878478,5.5574522,Traversa Thomas,ChIJ4TV4PLS8yRIRR6moHpG56hk,"[u'health', u'point_of_interest', u'establishment']"
0,43.2898353,5.5598241,Smatec,ChIJTwtKDbW8yRIRHTkod3M066U,"[u'general_contractor', u'point_of_interest', u'establishment']"
0,43.287069,5.560039,Centre d'Accueil de Jour Alzheimer,ChIJhUI4kbS8yRIRKod5L0fHlkw,"[u'health', u'point_of_interest', u'establishment']"
0,43.2911136,5.5666266,Adoma,ChIJjzV2-zWjyRIRmrC6gtw6fFA,"[u'point_of_interest', u'establishment']"
0,43.28562,5.553824,Dr Marchis-Mouren Christophe,ChIJM0hk37C8yRIRtUsrN9uFoYY,"[u'dentist', u'health', u'point_of_interest', u'establishment']"
0,43.2900789,5.5597795,Le STROMBOLI,ChIJvaf3ZrW8yRIR9ZmHw2vxJWE,"[u'restaurant', u'food', u'point_of_interest', u'establishment']"
0,43.2880294,5.563815,Témoins de Jéhovah,ChIJPYfjBEujyRIR_DIfxJTAI_E,"[u'place_of_worship', u'point_of_interest', u'establishment']"
0,43.280565,5.565664,Société d'Usinage de Précision,ChIJC8AReEWjyRIRfrG9WGjQrCI,"[u'general_contractor', u'point_of_interest', u'establishment']"
0,43.2876593,5.5558496,Domicil,ChIJQzCEora8yRIR_4nxW1bxh0E,"[u'real_estate_agency', u'point_of_interest', u'establishment']"
0,43.291044,5.56156,investissement en immobilier,ChIJARpiqsq8yRIREmH6wjmIkic,"[u'point_of_interest', u'establishment']"
0,43.2857203,5.5564446,Planete Begonias,ChIJuxa24rO8yRIRLyg8lwzMAyI,"[u'point_of_interest', u'establishment']"
0,43.2853001,5.5547174,SEA informatique,ChIJrW-eYX68yRIR7aWmOZibQeI,"[u'point_of_interest', u'establishment']"
0,43.289231,5.567065,Adecco aubagne,ChIJQ-ohikmjyRIR44zu_zb1teg,"[u'point_of_interest', u'establishment']"
0,43.3082773,5.5597468,Association JB Fouque Aide A L Enfance,ChIJtzj36dS8yRIRDJPrWxR77-E,"[u'point_of_interest', u'establishment']"
0,43.2972612,5.5690339,PROMAN,ChIJFVT3DzGjyRIRMPOX7mI3yeY,"[u'local_government_office', u'point_of_interest', u'establishment']"
0,43.2994387,5.5694313,J Lou Peche & Chasse,ChIJw3RszDGjyRIRcW0tRmuJxBs,"[u'point_of_interest', u'establishment']"
0,43.2970122,5.5689776,A.d.e.f (Association Départementale D'etudes Et Formation),ChIJQ-TMFzGjyRIRL4AKElV-5Xw,"[u'point_of_interest', u'establishment']"
0,43.303612,5.5718759,Le Napollon,ChIJZ1W_sd2iyRIR9ygMpeICKWM,"[u'restaurant', u'bar', u'food', u'point_of_interest', u'establishment']"
0,43.3035284,5.5719214,Sushi Kost Aubagne,ChIJMbPD-3GjyRIRXEtTrsQcxog,"[u'restaurant', u'food', u'point_of_interest', u'establishment']"
0,43.2954601,5.5665792,Dragées Régence Ets,ChIJQz89ATSjyRIR-qkhPyMv9h8,"[u'food', u'store', u'point_of_interest', u'establishment']"
0,43.2994463,5.5694326,Tryba,ChIJpWGZ0zGjyRIRG_k5Y-Ti1Tw,"[u'hardware_store', u'locksmith', u'general_contractor', u'subpremise', u'store', u'point_of_interest', u'establishment']"
0,43.3003311,5.5694387,Banque Populaire Provençale et Corse,ChIJCX1c0y-jyRIRk45g_klDLeU,"[u'bank', u'finance', u'point_of_interest', u'establishment']"
0,43.305045,5.560534,Castel Roseraie,ChIJ_-xjTdO8yRIRtEWg_3Sr2q4,"[u'health', u'point_of_interest', u'establishment']"
0,43.2988213,5.5690549,Scooter Plus,ChIJOwMEsTGjyRIRJblVsktHr0s,"[u'store', u'point_of_interest', u'establishment']"
0,43.3012806,5.5697194,Pharmacie du Pin Vert,ChIJFfk_0jGjyRIRPznA-ftCzDs,"[u'pharmacy', u'health', u'store', u'point_of_interest', u'establishment']"
0,43.2995973,5.5694708,"Flash Pub Enseignes, Panneaux, Impressions Numériques",ChIJGa3B1C-jyRIR4EydTDXXhrk,"[u'point_of_interest', u'establishment']"
0,43.3061073,5.5662501,Coprodex,ChIJaVke5iujyRIRJSpCs4NL15Q,"[u'point_of_interest', u'establishment']"
0,43.3004869,5.5694195,Station-service TOTAL,ChIJB8-Lzi-jyRIR6GGBc51hAOc,"[u'gas_station', u'point_of_interest', u'establishment']"
0,43.3048223,5.5616317,Maison d'Accueil Spécialisé L'Eveil,ChIJ_-xjTdO8yRIRwv4m3JT2q18,"[u'point_of_interest', u'establishment']"
0,43.3022444,5.5678854,Destock Chic,ChIJwycmZC6jyRIR1P92xAvHIxY,"[u'clothing_store', u'store', u'point_of_interest', u'establishment']"
0,43.3044191,5.5620284,Grues Services,ChIJA99WtCyjyRIRzdvcrQO18n4,"[u'point_of_interest', u'establishment']"
0,43.3004869,5.5694195,Total Relais du Pin Vert,ChIJB8-Lzi-jyRIRKYSp7I9-gD4,"[u'gas_station', u'point_of_interest', u'establishment']"
0,43.300118,5.572181,Ckintelec - Intelligence économique,ChIJLQPj_y-jyRIRd_rN1YlHBg4,"[u'point_of_interest', u'establishment']"
0,43.2984017,5.5692399,Grand Conseil de la Mutualite,ChIJX8tO0TWjyRIRTf4NfRV8HII,"[u'dentist', u'health', u'store', u'point_of_interest', u'establishment']"
0,43.297221,5.562118,Photographe Frédéric DE SOUZA,ChIJiYG-NjOjyRIRRvF0nHVH50o,"[u'point_of_interest', u'establishment']"
0,43.3013276,5.5649452,MonServicePlus,ChIJebNcmi2jyRIRIdv73vqpCwg,"[u'point_of_interest', u'establishment']"
0,43.294642,5.5655698,Nursery School Antide Boyer,ChIJzRkItzajyRIRgVbnWXLJqig,"[u'school', u'point_of_interest', u'establishment']"
0,43.299043,5.567648,Korian Val Pré,ChIJE5bXpDGjyRIRxxQBb4xcuTY,"[u'health', u'point_of_interest', u'establishment']"
0,43.3061073,5.5662501,Music,ChIJaVke5iujyRIRX19K1ij-jTo,"[u'point_of_interest', u'establishment']"
0,43.3035284,5.5719214,Provence Automatisme,ChIJZ1W_sd2iyRIRpMOxogQIIJE,"[u'point_of_interest', u'establishment']"
0,43.3009509,5.5592762,Air midi decapage,ChIJO1QegdK8yRIRgxERDQy8IrU,"[u'point_of_interest', u'establishment']"
0,43.2993662,5.5649158,College Nathalie Sarraute,ChIJOT1xYNe8yRIR-UxZhKA_ar4,"[u'school', u'point_of_interest', u'establishment']"
0,43.3022462,5.558054,Comète,ChIJf_SS7s2YyRIRYM10-MISOOI,"[u'point_of_interest', u'establishment']"
0,43.3093062,5.56829,Gîte Les Blanchets,ChIJ8-j_5ymjyRIR0wzcLqD5emc,"[u'lodging', u'point_of_interest', u'establishment']"
0,43.3008898,5.569312,Transversales,ChIJEbgaMi6jyRIRdERoR7iSz3I,"[u'point_of_interest', u'establishment']"
0,43.295972,5.567395,Admi'com,ChIJ78MfUTGjyRIRCqVMJfRo3e0,"[u'point_of_interest', u'establishment']"
0,43.3004869,5.5694195,Logis Mediterranee,ChIJGw7uKy6jyRIROl-UEjqh8c4,"[u'point_of_interest', u'establishment']"
0,43.3004869,5.5694195,Tabac Du Pin Vert,ChIJGw7uKy6jyRIREa93UteiNms,"[u'store', u'point_of_interest', u'establishment']"
0,43.2986722,5.5674773,Résidence Médica L'Hermitage,ChIJgfaqjzGjyRIRAD8aoMfTom4,"[u'health', u'point_of_interest', u'establishment']"
0,43.29972,5.569357,Actiser,ChIJFfk_0jGjyRIRLPR0LDdK5-Q,"[u'point_of_interest', u'establishment']"
0,43.3035284,5.5719214,Azur Vidange,ChIJZ1W_sd2iyRIR60lCWEy5cGU,"[u'point_of_interest', u'establishment']"
0,43.3050361,5.5567694,Dynamo,ChIJAw1Q49O8yRIRlkDRyMqwyu0,"[u'electrician', u'point_of_interest', u'establishment']"
0,43.299565,5.552312,Rêve de beauté,ChIJWy_hSM-8yRIR1549ctl0LME,"[u'beauty_salon', u'spa', u'point_of_interest', u'establishment']"
0,43.3033966,5.5721964,Cavavin Aubagne,ChIJL1eF0y-jyRIRqebW9sq42tM,"[u'liquor_store', u'food', u'store', u'point_of_interest', u'establishment']"
0,43.2988213,5.5690549,Horizon Bleu,ChIJUco9tzGjyRIRb2xY-CxANv8,"[u'point_of_interest', u'establishment']"
0,43.3035284,5.5719214,Species,ChIJZ1W_sd2iyRIRP40lBhX6598,"[u'point_of_interest', u'establishment']"
0,43.3035284,5.5719214,Vidange Martin Sarl,ChIJZ1W_sd2iyRIRj8Tw-DJgkBM,"[u'point_of_interest', u'establishment']"
0,43.300105,5.572229,celio Aubagne,ChIJqQEAADCjyRIRmSRCcta1tdo,"[u'clothing_store', u'store', u'point_of_interest', u'establishment']"
0,43.2958332,5.5787169,Mas de la Nona,ChIJ06NXPDyjyRIRqpuZiOlbB7E,"[u'lodging', u'point_of_interest', u'establishment']"
0,43.2978858,5.5799399,Studio Map,ChIJr1Fl0iKjyRIRfKUZttynlbU,"[u'point_of_interest', u'establishment']"
0,43.2968196,5.5756185,Squash Club D'aubagne,ChIJ98Jb0DijyRIRTG5a2cPb_Fk,"[u'point_of_interest', u'establishment']"
0,43.2877946,5.5783151,Le Royaume du Vin,ChIJwxK4x0ejyRIRq6bO8o_5ZT8,"[u'liquor_store', u'food', u'store', u'point_of_interest', u'establishment']"
0,43.288064,5.57494,L'Auberge Provençale,ChIJ1ztsAUejyRIRXKE7W06B5BU,"[u'restaurant', u'bar', u'lodging', u'food', u'point_of_interest', u'establishment']"
0,43.2899927,5.5739451,Les Acteurs de la Distillerie,ChIJT3ymjkejyRIRRJ9CxWaHL9g,"[u'point_of_interest', u'establishment']"
0,43.2886887,5.5736658,Foncia Aubagne,ChIJc-OZ3UejyRIRD488tbZEhKQ,"[u'real_estate_agency', u'point_of_interest', u'establishment']"
0,43.288608,5.547194,Parascandola Sa - Citroën,ChIJK-hpMLm8yRIR_7u7_6JpgYs,"[u'car_dealer', u'store', u'point_of_interest', u'establishment']"
0,43.2999838,5.5521293,Grapefruit Club,ChIJOT1xYNe8yRIRAWRpB2dFgvY,"[u'gym', u'health', u'point_of_interest', u'establishment']"
0,43.2959684,5.5557714,Société Nationale Immobilière,ChIJIbSlUsm8yRIRIbmuS91OdQ4,"[u'point_of_interest', u'establishment']"
0,43.3001512,5.5520068,"Le kalliste,",ChIJdfT968-8yRIRjCs2EMYW8OA,"[u'health', u'point_of_interest', u'establishment']"
0,43.291893,5.561196,Greta Aubagne la Ciotat,ChIJVxbQ4EGjyRIR0H925cqVzXg,"[u'point_of_interest', u'establishment']"
0,43.287772,5.5536096,La Tourtelle,ChIJK2QCTTajyRIRMxNIDsUX43c,"[u'point_of_interest', u'establishment']"
0,43.2934239,5.5532806,Musée de la Légion,ChIJQ1V0W8i8yRIR9KolWt_GjQU,"[u'museum', u'point_of_interest', u'establishment']"
0,43.288017,5.551717,Santons Campana,ChIJdQuZO8W_yRIRxm9vjJd_JKc,"[u'store', u'point_of_interest', u'establishment']"
0,43.2914095,5.5611633,Alliance Driving School,ChIJvaf3ZrW8yRIRTPPSfmDJci8,"[u'point_of_interest', u'establishment']"
0,43.2886636,5.5537933,Divertissements Philippe,ChIJjaipCDejyRIRkAa4otZFiSk,"[u'travel_agency', u'point_of_interest', u'establishment']"
0,43.2912971,5.5610549,Masseur-kinésithérapeute,ChIJYTDcpcq8yRIR0gfIFKiVcCw,"[u'physiotherapist', u'dentist', u'veterinary_care', u'health', u'point_of_interest', u'establishment']"
0,43.2938223,5.564913,Pérez Thomas,ChIJB1wBTzSjyRIRi5FJyZk9WqQ,"[u'doctor', u'health', u'point_of_interest', u'establishment']"
0,43.2870859,5.5489314,Vocational High School Gustave Eiffel,ChIJY9Qxhbm8yRIRDxh_pF0SwXg,"[u'point_of_interest', u'establishment']"
0,43.2917255,5.5626696,Provence Médical Genovini,ChIJ_1BlRDWjyRIR7I7gCongaFc,"[u'health', u'point_of_interest', u'establishment']"
0,43.2897925,5.5509508,Centre Régional Cheminée - Aubagne,ChIJjaipCDejyRIRVmcOKFZJRD4,"[u'point_of_interest', u'establishment']"
0,43.2959904,5.5581154,Ciel-bien-être,ChIJkZbksEejyRIRy6G8pYRVvUk,"[u'health', u'point_of_interest', u'establishment']"
0,43.296677,5.552201,Resto des Iles,ChIJzTWihcG8yRIRlGxwHx99i_Q,"[u'restaurant', u'food', u'point_of_interest', u'establishment']"
0,43.296725,5.552306,Rêve de beauté,ChIJWy_hSM-8yRIRsqc92l7_Fi8,"[u'beauty_salon', u'point_of_interest', u'establishment']"
0,43.2881341,5.5518563,Atelier Romain Bernex,ChIJKVLfPra8yRIR-YmITwJGCHo,"[u'store', u'point_of_interest', u'establishment']"
0,43.2924191,5.5622525,Picard,ChIJTdTAs8q8yRIRATJYDYE-58I,"[u'food', u'store', u'point_of_interest', u'establishment']"
0,43.294637,5.559924,Esso,ChIJ64YnE8u8yRIRM0qKrF-Hksw,"[u'gas_station', u'point_of_interest', u'establishment']"
0,43.2925217,5.5637866,Agence Groupama Aubagne,ChIJ7y4LpjWjyRIR1mFFXavfV6Q,"[u'insurance_agency', u'bank', u'finance', u'point_of_interest', u'establishment']"
0,43.2939307,5.564425,Parking Q-Park Aubagne 8 mai 1945,ChIJmR-4Rsu8yRIRdipA3JSIIlM,"[u'parking', u'point_of_interest', u'establishment']"
0,43.3000801,5.5520352,Kalliste Maison de Retraite,ChIJ-Yix7c-8yRIRhm_O8C3WXIA,"[u'health', u'point_of_interest', u'establishment']"
0,43.2904565,5.5565629,Stade de la Botte,ChIJIe1d4rW8yRIRZxKF16dTZCY,"[u'stadium', u'point_of_interest', u'establishment']"
0,43.2911639,5.5615903,Enproma,ChIJ4ZBnW7W8yRIRvwz3alRpv1A,"[u'general_contractor', u'point_of_interest', u'establishment']"
0,43.290857,5.561549,Laurent13401,ChIJr92rVbW8yRIRJPNpTRqFzjw,"[u'plumber', u'car_repair', u'point_of_interest', u'establishment']"
0,43.2921085,5.5619266,Au genre qui decoiff,ChIJs0l_tMq8yRIR7ud2T0BgI6U,"[u'hair_care', u'point_of_interest', u'establishment']"
0,43.2910502,5.5608531,Fernandez Michel,ChIJi_z2ZrW8yRIRGm6nql9RaSQ,"[u'point_of_interest', u'establishment']"
0,43.2918936,5.561539,Ravel Decroix et Fils,ChIJA1-Hs8q8yRIR2hld_UrbIrQ,"[u'point_of_interest', u'establishment']"
0,43.2918936,5.561539,Societe Kiosque Sodiap,ChIJA1-Hs8q8yRIR6KWRZUx1vkY,"[u'point_of_interest', u'establishment']"
0,43.294043,5.565073,Dr Gilles LEVY,ChIJ6WJcQTSjyRIRx7zXBysT9JM,"[u'doctor', u'health', u'point_of_interest', u'establishment']"
0,43.2899666,5.5482313,2M Studio Photo,ChIJ7abulvKjyRIRwLBfr2Uwr6Q,"[u'point_of_interest', u'establishment']"
0,43.2924784,5.5646198,Cuevas,ChIJJWpgpjWjyRIRTUehJYYdDf8,"[u'plumber', u'general_contractor', u'electrician', u'point_of_interest', u'establishment']"
0,43.292482,5.5647269,Didier David,ChIJZ08eBjWjyRIRSL6dTvjT-pI,"[u'health', u'point_of_interest', u'establishment']"
0,43.2936503,5.5651027,Aubagne Sport Hand Ball,ChIJ7x4HTzSjyRIRKvc6OCCv-ic,"[u'point_of_interest', u'establishment']"
0,43.275958,5.554986,hotelF1 Epone,ChIJvXycQBaU5kcRzpMY0bVGewI,"[u'lodging', u'point_of_interest', u'establishment']"
0,43.2793125,5.5558722,La bonne heure,ChIJw76fYq68yRIRAwfGKUWp9Do,"[u'lodging', u'point_of_interest', u'establishment']"
0,43.2779989,5.5626742,Maconnerie et Tradition,ChIJWbMUPlOjyRIRJXpbgDC8ZYo,"[u'general_contractor', u'point_of_interest', u'establishment']"
0,43.274607,5.554941,L.BOUDEREAUX - EURL LOU PARPAIOUN,ChIJ4YOzC6m8yRIRPqyma78BZW4,"[u'point_of_interest', u'establishment']"
0,43.2781785,5.5593499,Evolio,ChIJAw2Otqy8yRIRX-jzUaG_gqo,"[u'point_of_interest', u'establishment']"
0,43.278179,5.55935,Lvd Environnement,ChIJURUsuqy8yRIRJxwxsLKxllU,"[u'point_of_interest', u'establishment']"
0,43.2774951,5.560849,FEI PACA,ChIJFxdkuay8yRIRkoUVCktBr74,"[u'point_of_interest', u'establishment']"
0,43.276746,5.5547579,MSA Provence,ChIJFcZyM6m8yRIRW0oY7Nqbajo,"[u'point_of_interest', u'establishment']"
0,43.2799228,5.5551894,ERDF,ChIJ79sYaK68yRIRvjoXVboIzI4,"[u'point_of_interest', u'establishment']"
0,43.2799228,5.5551894,Noveli,ChIJ79sYaK68yRIRiXB9rTq6gX8,"[u'point_of_interest', u'establishment']"
0,43.2760968,5.5521867,musiques et orgues,ChIJdyL5u6i8yRIRos08G8pCb5U,"[u'school', u'point_of_interest', u'establishment']"
0,43.280501,5.55424,Erilia,ChIJ4dUAZ668yRIR_kgl3xstqGk,"[u'real_estate_agency', u'point_of_interest', u'establishment']"
0,43.280501,5.55424,SNC Auclair Sempere,ChIJ4dUAZ668yRIRYRvy_v1NWh0,"[u'pharmacy', u'health', u'store', u'point_of_interest', u'establishment']"
0,43.281666,5.571219,LA TRAMONTANE,ChIJx10u6U-jyRIR-14n4s7xug4,"[u'lodging', u'point_of_interest', u'establishment']"
0,43.2745681,5.5591586,Crématorium D'Aubagne,ChIJLS82P6m8yRIRWiZd2rDU6JA,"[u'point_of_interest', u'establishment']"
0,43.2801994,5.5651659,Garage Fenestrelle,ChIJGStGfUmjyRIRZaNaZX8Ljos,"[u'food', u'car_repair', u'point_of_interest', u'establishment']"
0,43.273568,5.562921,13400,ChIJlePvIlWjyRIRn07sPzwhQ_I,"[u'parking', u'point_of_interest', u'establishment']"
0,43.275003,5.560036,13400,ChIJz0o6Eau8yRIR6Ws-Jc8o8lE,"[u'parking', u'point_of_interest', u'establishment']"
0,43.277252,5.560659,13400,ChIJ8Q3AvKy8yRIRkR19QKLLqdA,"[u'point_of_interest', u'establishment']"
0,43.2780885,5.5632695,Biogram,ChIJZ9jDFlOjyRIRJkg9tKmtwtU,"[u'health', u'point_of_interest', u'establishment']"
0,43.278111,5.563485,Valent Wailly Emilie,ChIJExPjEFOjyRIRxiRfD0GfSLo,"[u'point_of_interest', u'establishment']"
0,43.277751,5.561178,13400,ChIJg8TYt6y8yRIRdy93U-Ym_Bs,"[u'point_of_interest', u'establishment']"
0,43.277551,5.56081,13400,ChIJ810_uay8yRIRzceLjmXuStU,"[u'point_of_interest', u'establishment']"
0,43.2781785,5.5593499,Horizon Habitat,ChIJl5yi9qy8yRIR7_KIcsw3X_8,"[u'point_of_interest', u'establishment']"
0,43.2781785,5.5593499,Optima,ChIJl5yi9qy8yRIRoeqEtw3m5P4,"[u'point_of_interest', u'establishment']"
0,43.2761777,5.5687582,Blossin Jean-orus,ChIJJ23TzFajyRIRbNGXcA-JFuo,"[u'food', u'point_of_interest', u'establishment']"
0,43.2794059,5.5643481,Balicchi Carine,ChIJZVZ0WFKjyRIR7pQmVhfIZzQ,"[u'health', u'point_of_interest', u'establishment']"
0,43.2772669,5.5578073,Bianchi Stephane,ChIJ79sYaK68yRIRqOn6hFS2KUY,"[u'health', u'point_of_interest', u'establishment']"
0,43.277394,5.5578781,Odermatt bianchi Anne-Sophie,ChIJGTkVbay8yRIRMPBTpqtzaGw,"[u'point_of_interest', u'establishment']"
0,43.2801994,5.5651659,Cardon Roger,ChIJGStGfUmjyRIRjjHLqZN-v4M,"[u'food', u'point_of_interest', u'establishment']"
0,43.2801994,5.5651659,Dichard Diffusion Funéraire,ChIJ9dffaFKjyRIRfu0wM0SNIiA,"[u'funeral_home', u'point_of_interest', u'establishment']"
0,43.2801994,5.5651659,Berthoz Nathalie,ChIJGStGfUmjyRIRtw82C_aelBo,"[u'food', u'point_of_interest', u'establishment']"
0,43.2801994,5.5651659,Isnard Giraudo Marthe E,ChIJGStGfUmjyRIREN2dTlVIYgI,"[u'food', u'point_of_interest', u'establishment']"
0,43.2812591,5.5655167,Bonavia Georges,ChIJp5X2ik2jyRIRghngssC0eLE,"[u'plumber', u'point_of_interest', u'establishment']"
0,43.2767737,5.5548558,Maraucci Aude,ChIJF5NyM6m8yRIROq0kAgRQVv4,"[u'point_of_interest', u'establishment']"
0,43.2767737,5.5548558,Anim'mer,ChIJiZJyM6m8yRIR6lJvvEvg-Lg,"[u'point_of_interest', u'establishment']"
0,43.2767737,5.5548558,PCA - Prest Commerc Alimentaires,ChIJJclw3668yRIRpqHxvlDUVVE,"[u'point_of_interest', u'establishment']"
0,43.278661,5.555842,Choisir un opérateur,ChIJ1R9aha68yRIRQ-VEyDVIkzs,"[u'point_of_interest', u'establishment']"
0,43.2820792,5.5654109,DecoKarine,ChIJGQILlE2jyRIREr4Z6nhigUQ,"[u'point_of_interest', u'establishment']"
0,43.2791603,5.5713717,Idsyssas,ChIJFX1Jb1CjyRIRrIs661Bx4wU,"[u'point_of_interest', u'establishment']"
0,43.2799228,5.5551894,Marchoud Mimoune,ChIJ79sYaK68yRIR8Nz2S5kHDKI,"[u'point_of_interest', u'establishment']"
0,43.2799228,5.5551894,Aubagne Marée,ChIJ79sYaK68yRIRuyxQ-0V2eoI,"[u'point_of_interest', u'establishment']"
0,43.2799228,5.5551894,Notiax,ChIJ79sYaK68yRIRz7eGejCacXM,"[u'point_of_interest', u'establishment']"
0,43.2799228,5.5551894,Navassart,ChIJ79sYaK68yRIR5MyHRfMwUHA,"[u'real_estate_agency', u'point_of_interest', u'establishment']"
0,43.2799228,5.5551894,Mairie (Ghb Pays d'Aubagne),ChIJ79sYaK68yRIRlx9t1hj_sBo,"[u'cemetery', u'point_of_interest', u'establishment']"
0,43.2798523,5.5551127,Sarl Hansen LMP,ChIJ79sYaK68yRIRrgq482YTfog,"[u'point_of_interest', u'establishment']"
0,43.2798523,5.5551127,Verrando René,ChIJ79sYaK68yRIRDZSPfR0P3gA,"[u'point_of_interest', u'establishment']"
0,43.2824125,5.5597161,Giraudo Marie Therese,ChIJ5WYMjrK8yRIRtJDq492LjLg,"[u'point_of_interest', u'establishment']"
0,43.2824125,5.5597161,Marchica Rubi Leone,ChIJ5WYMjrK8yRIRqLmy_lWGECY,"[u'point_of_interest', u'establishment']"
0,43.2824125,5.5597161,Bensoussan Family,ChIJ5WYMjrK8yRIRPiQHNqnCWBc,"[u'point_of_interest', u'establishment']"
0,43.279075,5.5542792,Agnelli Nicolas,ChIJNbkU-a68yRIRxVg-Ttcc7_M,"[u'point_of_interest', u'establishment']"
0,43.2806357,5.5711361,TS@,ChIJ_0XEHlCjyRIRZpIAYUTvwik,"[u'point_of_interest', u'establishment']"
0,43.2799234,5.5545392,Cabridasso,ChIJIYdQRa68yRIR9WX3xRg1zz0,"[u'point_of_interest', u'establishment']"
0,43.283248,5.565185,Cabanel Ricard Laura,ChIJ0dV5sU2jyRIR9txVbuf_8GE,"[u'health', u'point_of_interest', u'establishment']"
0,43.2796926,5.5538907,Logier Maurice,ChIJL1a-rK-8yRIRKsJQ7dHjbNk,"[u'point_of_interest', u'establishment']"
0,43.2841705,5.5796547,Tati,ChIJP3IWdCu7yRIRO9YlYFYfMG0,"[u'clothing_store', u'store', u'point_of_interest', u'establishment']"
0,43.2862376,5.5799628,Manger Sans Gêne,ChIJA0Q3dEGjyRIRepKj19Ks4Qw,"[u'grocery_or_supermarket', u'health', u'food', u'store', u'point_of_interest', u'establishment']"
0,43.284964,5.5812673,Office DEPOT Aubagne,ChIJu9JWPmajyRIRPyfAxFlw9fc,"[u'furniture_store', u'home_goods_store', u'store', u'point_of_interest', u'establishment']"
0,43.2843695,5.5790121,Aubagne Ice Rink,ChIJNdowy0OjyRIRiDC65MXX_Ns,"[u'point_of_interest', u'establishment']"
0,43.283959,5.579188,Gedimat Tonetti,ChIJrTg9y0OjyRIR9aM0w20fhPk,"[u'store', u'point_of_interest', u'establishment']"
0,43.284455,5.581969,Le Paradiso,ChIJrTg9y0OjyRIRiLLRMVwYZXs,"[u'bar', u'night_club', u'restaurant', u'food', u'point_of_interest', u'establishment']"
0,43.2875791,5.5812455,Scaturro Daniel,ChIJyWOWx0ejyRIRtzXsLx6sb9E,"[u'point_of_interest', u'establishment']"
0,43.2876723,5.5779166,Best Drive,ChIJG0zK1UCjyRIR3WO-g-bQFoY,"[u'car_repair', u'point_of_interest', u'establishment']"
0,43.2882228,5.5767674,Macif Assurances,ChIJVfQCKUejyRIRMQFhI4Xqyu4,"[u'insurance_agency', u'point_of_interest', u'establishment']"
0,43.2882362,5.5764236,Tribunal d'Instance,ChIJjaipCDejyRIRJZ-FbxiL3IA,"[u'courthouse', u'point_of_interest', u'establishment']"
0,43.2914006,5.5730503,Library Marcel Pagnol,ChIJifumFzijyRIRt3byvlACJ4w,"[u'library', u'point_of_interest', u'establishment']"
0,43.2851577,5.5782144,Materiaux Modernes,ChIJbb0ReEWjyRIRz3BY4s431Vs,"[u'home_goods_store', u'store', u'point_of_interest', u'establishment']"
0,43.2881858,5.5764942,Cafpi Aubagne courtier en prêts immobiliers,ChIJVfQCKUejyRIRoukDI-GgpTU,"[u'insurance_agency', u'real_estate_agency', u'finance', u'point_of_interest', u'establishment']"
0,43.2893762,5.5725457,Crédit Agricole Alpes Provence,ChIJJwRtD0ijyRIRCvmuqO9yT40,"[u'bank', u'atm', u'finance', u'point_of_interest', u'establishment']"
0,43.2909192,5.5703631,Parking Q-Park Aubagne Beaumond,ChIJ1a200DejyRIRI_Y_Ylw6r4w,"[u'parking', u'point_of_interest', u'establishment']"
0,43.28397,5.58117,Lidl,ChIJc2q9QEKjyRIR1fqrvnK7Kbk,"[u'grocery_or_supermarket', u'food', u'store', u'point_of_interest', u'establishment']"
0,43.285506,5.5833078,Middle School Joseph Lakanal,ChIJzRkItzajyRIRUmNlb65kmC8,"[u'school', u'point_of_interest', u'establishment']"
0,43.2907019,5.5706448,Agence Du Sud Aubagne,ChIJP5Qe3zejyRIRz0ldJQwTM2s,"[u'real_estate_agency', u'point_of_interest', u'establishment']"
0,43.2890641,5.5746655,Mairie,ChIJx8cnoEejyRIRRfdVnNIhTs8,"[u'point_of_interest', u'establishment']"
0,43.2905782,5.5708753,Envol Voyages,ChIJgdTo3zejyRIR3UcLdDA8Rp4,"[u'travel_agency', u'point_of_interest', u'establishment']"
0,43.2866177,5.575528,Primary School Jean Mermoz 2,ChIJzRkItzajyRIRE52zJUuDc-I,"[u'school', u'point_of_interest', u'establishment']"
0,43.2911761,5.5698373,Swiss Life,ChIJwVBx0jejyRIRYf0A0CLsoD4,"[u'insurance_agency', u'finance', u'point_of_interest', u'establishment']"
0,43.2903343,5.5710781,Amplifon Aubagne Republique,ChIJE6MGHEijyRIRk-bPgqfGOP4,"[u'health', u'store', u'point_of_interest', u'establishment']"
0,43.284828,5.581762,Restaurant Paradiso Before Club,ChIJm2_hG0KjyRIRExssmyDX2IQ,"[u'restaurant', u'food', u'point_of_interest', u'establishment']"
0,43.288169,5.576752,"Maîtres : Coulomb, Vallarino et Hatala",ChIJ-7HTA7e8yRIRkP7-5WKCSTQ,"[u'finance', u'lawyer', u'point_of_interest', u'establishment']"
0,43.2904476,5.5707733,Pompes funèbres Roc-Eclerc Aubagne,ChIJEUpj3zejyRIRLmrjKQwK3XE,"[u'funeral_home', u'point_of_interest', u'establishment']"
0,43.2899465,5.5714567,Eurêka,ChIJh2u_GkijyRIR6wrkD1RPkyo,"[u'point_of_interest', u'establishment']"
0,43.2860534,5.5806931,BNP Paribas - Aubagne Garlaban,ChIJu9JWPmajyRIRwtcm0EdyGng,"[u'bank', u'atm', u'finance', u'point_of_interest', u'establishment']"
0,43.2904576,5.5711694,Immobilier Aubagne Solvimo,ChIJNwGVMjajyRIRCAu8uGQfkOk,"[u'real_estate_agency', u'finance', u'point_of_interest', u'establishment']"
0,43.2873775,5.5787652,AMC,ChIJwZpl1kCjyRIRjHK_2n4Gk3U,"[u'store', u'point_of_interest', u'establishment']"
0,43.286551,5.573329,GASEL SARL,ChIJMQRvFEajyRIRZBJvBKLCWmU,"[u'electronics_store', u'store', u'point_of_interest', u'establishment']"
0,43.2902004,5.5704774,La Marseillaise,ChIJFaS5KEijyRIRRVPI1FO1ReQ,"[u'point_of_interest', u'establishment']"
0,43.2830236,5.5440457,Hôtel Du Parc,ChIJrRUkfru8yRIRPHc-YJmYhDQ,"[u'lodging', u'point_of_interest', u'establishment']"
0,43.2843583,5.5480542,Piscine Alain-Bernard - Oasis Du Charrel,ChIJw2FYeLu8yRIRKx3iE0uKQjQ,"[u'point_of_interest', u'establishment']"
0,43.2809909,5.5486019,Middle School Lou Garlaban,ChIJqxp8taS8yRIRqMzpBPtpnuU,"[u'school', u'point_of_interest', u'establishment']"
0,43.284661,5.547062,Le Relais des Césars,ChIJDeMHnru8yRIRHleHfXk84OA,"[u'restaurant', u'food', u'point_of_interest', u'establishment']"
0,43.28587,5.548916,GiFi AUBAGNE,ChIJ3xcBNLq8yRIRXjN_qIZ5L1Q,"[u'home_goods_store', u'furniture_store', u'store', u'point_of_interest', u'establishment']"
0,43.2841784,5.5481014,Piscine Municipale Alain Bernard,ChIJYeWQO7e8yRIRvpJr7aJPbu0,"[u'point_of_interest', u'establishment']"
0,43.2818539,5.5471853,Ecole Maternelle La Garenne,ChIJYeWQO7e8yRIRrmvJ4k4ew08,"[u'city_hall', u'local_government_office', u'point_of_interest', u'establishment']"
0,43.2840598,5.5434862,Casino supermarché Aubagne Pin-Vert,ChIJyyal8DOjyRIRQGmYkiFCeMo,"[u'convenience_store', u'grocery_or_supermarket', u'food', u'store', u'point_of_interest', u'establishment']"
0,43.2856024,5.5536637,WOJTASINSKI Nelly,ChIJDVVVNzGjyRIRHTuSK4e1q8g,"[u'health', u'point_of_interest', u'establishment']"
0,43.2859474,5.5490946,E.d,ChIJK6101bu8yRIRqQFUC2BRqLo,"[u'grocery_or_supermarket', u'food', u'store', u'point_of_interest', u'establishment']"
0,43.2864331,5.546777,Assistante maternelle agréée Aubagne,ChIJ16z75Lu8yRIRjPvt992GH8I,"[u'point_of_interest', u'establishment']"
0,43.281162,5.5509892,Town Hall Maison De Quartier,ChIJ0RniSa68yRIRvSeYkhdk4-M,"[u'point_of_interest', u'establishment']"
0,43.2847616,5.553888,Nirvanails,ChIJgbdSPnKjyRIRz2IBZVdP0DI,"[u'point_of_interest', u'establishment']"
0,43.2840831,5.545238,Patisserie Nougandine,ChIJMbPD-3GjyRIRzWKWHn5SYMc,"[u'bakery', u'food', u'store', u'point_of_interest', u'establishment']"
0,43.2852559,5.5483295,Post Office,ChIJDyjGVSajyRIRr65_qEsNLLk,"[u'post_office', u'finance', u'point_of_interest', u'establishment']"
0,43.2853695,5.5541507,Ecologic Cosmetic Evolution,ChIJaf3QIbG8yRIRTyZMCpryV-Q,"[u'point_of_interest', u'establishment']"
0,43.2852637,5.5461427,Public Primary School Camp Major,ChIJZ0PGibu8yRIRzySnxqk7IXg,"[u'point_of_interest', u'establishment']"
0,43.2853402,5.5541565,Au Wouah Wouah Club,ChIJ9QjhIbG8yRIRhxswsS2Bq00,"[u'point_of_interest', u'establishment']"
0,43.2804703,5.5509818,FARISSIER André électricité générale,ChIJM1JUW6W8yRIR_TQO1-A99KM,"[u'electrician', u'point_of_interest', u'establishment']"
0,43.2856212,5.5536638,Marchis-Mouren Christophe,ChIJjaipCDejyRIRM3IsoXv-Lgk,"[u'dentist', u'health', u'point_of_interest', u'establishment']"
0,43.284436,5.544329,m,ChIJz8JS9Ly8yRIRHvT9z1aoIIA,"[u'florist', u'store', u'point_of_interest', u'establishment']"
0,43.2865888,5.5465386,Corale Industrie,ChIJy5Q9-7u8yRIRc_1j-wy1bho,"[u'point_of_interest', u'establishment']"
0,43.2853695,5.5541507,Imprimerie Provencale,ChIJaf3QIbG8yRIR8KIpmHuW6Oc,"[u'store', u'point_of_interest', u'establishment']"
0,43.285693,5.554259,Tabac la tourtelle,ChIJTYsuZy-jyRIRo7ULIY-VLfg,"[u'bar', u'store', u'point_of_interest', u'establishment']"
0,43.2875186,5.5534114,Restaurant Scolaire,ChIJAYWBokajyRIRULrw5OX5Hog,"[u'restaurant', u'food', u'point_of_interest', u'establishment']"
0,43.284517,5.5538729,Julie Dépil à Aubagne,ChIJMSzQHL28yRIRkxLYxbQgCMc,"[u'beauty_salon', u'hair_care', u'spa', u'health', u'point_of_interest', u'establishment']"
0,43.286745,5.555675,Agence Ollivier Architectes,ChIJw22msba8yRIRjUJrVj7Fjtw,"[u'point_of_interest', u'establishment']"
0,43.286916,5.553277,Formation Langues,ChIJa7ESLre8yRIRUXY476fJM5E,"[u'point_of_interest', u'establishment']"
0,43.287102,5.553234,Cosmeco-shop,ChIJXVndL7e8yRIR_SYVYvkVdTs,"[u'store', u'point_of_interest', u'establishment']"
0,43.287281,5.553057,Autocars Et Voyages Vmt,ChIJ--HzOre8yRIRUpJg5d0p76g,"[u'point_of_interest', u'establishment']"
0,43.2879766,5.5512084,Service Urbanisme,ChIJVzgy0y-jyRIRjQwn3W5gHXs,"[u'city_hall', u'local_government_office', u'point_of_interest', u'establishment']"
0,43.2806507,5.551303,IDDES,ChIJUyigiq-8yRIRF16fRui2XKs,"[u'point_of_interest', u'establishment']"
0,43.28525,5.548332,AUBAGNE LE CHARREL BP,ChIJt0nps7u8yRIROaMlVvMVZpc,"[u'post_office', u'finance', u'point_of_interest', u'establishment']"
0,43.314116,5.564658,Club Amadeus,ChIJlfI9XtSiyRIR9IC7Maq7umA,"[u'point_of_interest', u'establishment']"
0,43.3098095,5.5692062,Ecurie Spirit Horse,ChIJU2aiRSijyRIRszwa-qtZGpU,"[u'food', u'point_of_interest', u'establishment']"
0,43.3132407,5.5683393,kramerphotographie,ChIJm5sWTDajyRIRv7gZ7t5iIP0,"[u'point_of_interest', u'establishment']"
0,43.3137103,5.5633708,Stages Enfants,ChIJbf-X59SiyRIR7Q3UpmfIJNA,"[u'point_of_interest', u'establishment']"
0,43.309316,5.5644205,Transversales,ChIJY6AaMi6jyRIRDr9rgVUYM_s,"[u'point_of_interest', u'establishment']"
0,43.3137103,5.5633708,During Piano,ChIJbf-X59SiyRIRJmSxJQjKPpo,"[u'point_of_interest', u'establishment']"
0,43.3141038,5.5633612,Amadeus,ChIJpZqsltSiyRIRYHxaq8-hj9Y,"[u'point_of_interest', u'establishment']"
0,43.3147403,5.5626247,Maison de retraite ORPEA La Bretagne,ChIJ0U_bV9OiyRIRThYVxSx_wH0,"[u'health', u'point_of_interest', u'establishment']"
0,43.3139912,5.5702497,Cidée Clim,ChIJQ4AGMNeiyRIREpl-AnyiW1o,"[u'plumber', u'point_of_interest', u'establishment']"
0,43.3147855,5.5683088,Evolia Sante,ChIJs-9ZNdGiyRIR5xJKfXuCAj4,"[u'point_of_interest', u'establishment']"
0,43.315014,5.57012,Directives Web,ChIJX_8utdaiyRIRkuYxEDYey4g,"[u'point_of_interest', u'establishment']"
0,43.3156056,5.5708162,Callot Simon,ChIJ07g7wdCiyRIRzEPQ6SfcSKA,"[u'general_contractor', u'point_of_interest', u'establishment']"
0,43.3092125,5.573162,Boyer Emilie,ChIJb1Sa8SejyRIRiSUurPtywIM,"[u'point_of_interest', u'establishment']"
0,43.317356,5.556488,D'ascoli Bernard,ChIJ1z-qrSi9yRIRQ5B2wln34Xc,"[u'point_of_interest', u'establishment']"
0,43.3127217,5.5749773,Richaud Philippe,ChIJHzRFCNmiyRIRStp4Aq0mvr4,"[u'point_of_interest', u'establishment']"
0,43.311826,5.564088,Beaumond Nathalie,ChIJ267cCNWiyRIRNTF9-TDCp-I,"[u'point_of_interest', u'establishment']"
0,43.311826,5.564088,Leporini Gilbert,ChIJ267cCNWiyRIRmR5BbthfiKM,"[u'point_of_interest', u'establishment']"
0,43.311826,5.564088,Clerici Bernard Albert,ChIJ267cCNWiyRIR9F0bUXhqfGU,"[u'point_of_interest', u'establishment']"
0,43.3113738,5.5619322,Cabinet infirmier,ChIJORmTS9WiyRIR4vmmrbQRj9Q,"[u'health', u'point_of_interest', u'establishment']"
0,43.3112579,5.5619711,Alexandra Leonard,ChIJxbl6ote8yRIRRqtfejGot9I,"[u'health', u'point_of_interest', u'establishment']"
0,43.31458,5.562077,La Bretaane,ChIJxQJ8rtSiyRIRdILgRDc3FXo,"[u'health', u'point_of_interest', u'establishment']"
0,43.3085397,5.5620278,Vogue La Galere,ChIJhXrazSqjyRIR6zRqMIuYsxM,"[u'place_of_worship', u'point_of_interest', u'establishment']"
0,43.3119851,5.5688602,Dehbi Jamal,ChIJuUEiWtaiyRIRQk9ovVc5SSg,"[u'point_of_interest', u'establishment']"
0,43.3153305,5.5655112,Brugnoni Eric,ChIJ4c5ttdaiyRIRBC8euTxqFyM,"[u'point_of_interest', u'establishment']"
0,43.3120894,5.5690782,Dominati Lionel,ChIJt5AZV9aiyRIRW1m61JA2Rgs,"[u'point_of_interest', u'establishment']"
0,43.3156709,5.5616962,Rubert Christophe,ChIJdTKosiy9yRIRaxTlYBRzn2A,"[u'point_of_interest', u'establishment']"
0,43.3147288,5.5682667,Batiloc Blanc Et Fils,ChIJ4c5ttdaiyRIR_mVwad1hFfs,"[u'real_estate_agency', u'point_of_interest', u'establishment']"
0,43.3147288,5.5682667,Dumafe,ChIJ4c5ttdaiyRIRwvBjTx6lno4,"[u'point_of_interest', u'establishment']"
0,43.3147288,5.5682667,Sci Auriane,ChIJ4c5ttdaiyRIRDF46rcJ7bHo,"[u'real_estate_agency', u'point_of_interest', u'establishment']"
0,43.3162613,5.5650187,Montersino Yannick,ChIJc6YYvdOiyRIRx47XbZlBd_c,"[u'point_of_interest', u'establishment']"
0,43.3162613,5.5650187,Briere Myriam,ChIJc6YYvdOiyRIRiOetYQBq5gY,"[u'point_of_interest', u'establishment']"
0,43.3092399,5.5694756,TarenteSound Studio,ChIJ162cKyijyRIRiOCrKtDh-SU,"[u'point_of_interest', u'establishment']"
0,43.3137545,5.569921,campagne maillet,ChIJOf9UIdeiyRIRn3DrClM68cg,"[u'lodging', u'point_of_interest', u'establishment']"
0,43.3137545,5.569921,EVOLIA SANTE,ChIJeY4GMNeiyRIRXhcXiuTxOh8,"[u'point_of_interest', u'establishment']"
0,43.3160638,5.5586923,Horras Yves,ChIJ485mZCy9yRIRSzOReXYVtOg,"[u'doctor', u'health', u'point_of_interest', u'establishment']"
0,43.3106355,5.5710412,Perasso André,ChIJoQjt3NeiyRIRlwepyoZRIak,"[u'health', u'point_of_interest', u'establishment']"
0,43.3064254,5.559542,Etablissement Roussel,ChIJD3ucjtS8yRIRLpqHtfOQRA0,"[u'general_contractor', u'home_goods_store', u'store', u'point_of_interest', u'establishment']"
0,43.3061073,5.5662501,Rousseau Christian Michel And,ChIJaVke5iujyRIR1HTLgoBeFtE,"[u'food', u'point_of_interest', u'establishment']"
0,43.3061073,5.5662501,Astier Bernollin Marie Caroline,ChIJaVke5iujyRIREyd624qBWHA,"[u'point_of_interest', u'establishment']"
0,43.3082706,5.570425,Bertora Magali,ChIJU2aiRSijyRIRL_pIo7T3C80,"[u'food', u'point_of_interest', u'establishment']"
0,43.309875,5.5549664,Isnard Claude,ChIJBWu7PNa8yRIRIo9xYOv_vas,"[u'point_of_interest', u'establishment']"
0,43.3175227,5.5591703,Scorpion,ChIJsaPJAi29yRIRzjzQn-3DD80,"[u'point_of_interest', u'establishment']"
0,43.3134183,5.5724354,Visite Virtuelle Immobilier,ChIJUVjt4NmiyRIRZmy1LU6qKOQ,"[u'point_of_interest', u'establishment']"
0,43.3093761,5.5726486,Icare,ChIJ1-Vu-SejyRIRUhGUs8S_890,"[u'point_of_interest', u'establishment']"
0,43.3052684,5.5584739,Caccialupi Michel,ChIJB5H7hdO8yRIRJB6iX3vCo14,"[u'point_of_interest', u'establishment']"
0,43.3097813,5.5532806,Bronte Joseph,ChIJgyQ2z9e8yRIRE4ATiiGEBKY,"[u'point_of_interest', u'establishment']"
0,43.3097547,5.5532187,Aleaderclim Laurent,ChIJmZisyNe8yRIRHTBQw93oKIo,"[u'point_of_interest', u'establishment']"
0,43.3116596,5.5738006,Chipot Berenguier Christine Angele,ChIJDdw8SdiiyRIRnRZ3-42riDE,"[u'point_of_interest', u'establishment']"
0,43.3036965,5.5620915,Grairi Chaouki,ChIJw0JyziyjyRIRUikbE-Fz9To,"[u'point_of_interest', u'establishment']"
0,43.3071498,5.5726497,Guo Scaramelli PEI Fang,ChIJkVteLCajyRIR6RCZXNY60PA,"[u'point_of_interest', u'establishment']"
0,43.3087641,5.5525662,Jad,ChIJd12Eote8yRIRfYjXFvIysfQ,"[u'point_of_interest', u'establishment']"
0,43.30679,5.574735,POINT.P,ChIJZ1W_sd2iyRIR1AJR95a5is8,"[u'store', u'point_of_interest', u'establishment']"
0,43.2988091,5.57573,Restaurants du Coeur,ChIJm7XfPTujyRIRYdbG38t6TX0,"[u'point_of_interest', u'establishment']"
0,43.29653,5.573937,Eco Média Conseils,ChIJ08F5ATqjyRIRCUMPoG6j66s,"[u'point_of_interest', u'establishment']"
0,43.3018821,5.5809426,Pony Club Le Faré,ChIJdaxgrxijyRIRNdfJ1nsF1YU,"[u'gym', u'health', u'point_of_interest', u'establishment']"
0,43.304214,5.57738,Starkit,ChIJNaZl8nqlyRIRtc9J5XFqwzM,"[u'point_of_interest', u'establishment']"
0,43.294845,5.571234,Passion Laine,ChIJ08F5ATqjyRIRolwM0G_Z9eQ,"[u'clothing_store', u'store', u'point_of_interest', u'establishment']"
0,43.301774,5.575277,Serge Boissonnet,ChIJ9VM0-ySjyRIRRU3gQHZMvpI,"[u'physiotherapist', u'health', u'point_of_interest', u'establishment']"
0,43.3033188,5.5753367,Depassons Nos Differences,ChIJZ6_RTiSjyRIRZppVLglJXjU,"[u'point_of_interest', u'establishment']"
0,43.3031316,5.578091,Sigec,ChIJGZxjDiCjyRIRplVOHlJ3Wsw,"[u'point_of_interest', u'establishment']"
0,43.301781,5.575368,Accord de Corps,ChIJ9VM0-ySjyRIRhrEQdZeSdw0,"[u'physiotherapist', u'health', u'point_of_interest', u'establishment']"
0,43.2983825,5.5794022,Horizon Bleu,ChIJOwMEsTGjyRIRRxunDD2bAn0,"[u'point_of_interest', u'establishment']"
0,43.2967787,5.5721391,Hospital Center Specialized Valvert,ChIJHScksTCjyRIRlMncJVC3CCM,"[u'hospital', u'point_of_interest', u'establishment']"
0,43.3045217,5.5796275,Christian Elagage,ChIJHenc3yOjyRIRReiGJUbL60o,"[u'park', u'general_contractor', u'point_of_interest', u'establishment']"
0,43.2990643,5.5716866,Sud Habitat,ChIJR-fnDDCjyRIRWN5hPs4_KKY,"[u'point_of_interest', u'establishment']"
0,43.2957911,5.5698977,Filippini Jean-Charles,ChIJWdQ21TCjyRIRJfvQa9OzjlE,"[u'health', u'point_of_interest', u'establishment']"
0,43.2985095,5.5778478,Cabinet d'expertise comptable Jean-Luc JAVELAUD,ChIJI68UmTyjyRIRH5FT1Y4Q2BM,"[u'accounting', u'finance', u'point_of_interest', u'establishment']"
0,43.30255,5.573241,Alziary Alain,ChIJjY8yszqjyRIRxAvh7VLCCVo,"[u'accounting', u'finance', u'point_of_interest', u'establishment']"
0,43.297821,5.5743465,Fabienne LHERMET,ChIJu6Ad-TqjyRIRwIZzLmJk8u0,"[u'health', u'point_of_interest', u'establishment']"
0,43.300106,5.57223,La Libellule,ChIJc1VVVSWjyRIRDDkbMtbhYfs,"[u'point_of_interest', u'establishment']"
0,43.3062105,5.5499889,Royal Palmeraie,ChIJHTSo4tm8yRIRq4CotVTmuFA,"[u'lodging', u'point_of_interest', u'establishment']"
0,43.3014845,5.5495236,La Royante,ChIJlf3wfM-8yRIR-Fo5UGj4W04,"[u'lodging', u'point_of_interest', u'establishment']"
0,43.300732,5.552012,Le Moulin Des Amis De La Picholine,ChIJUVB6A9C8yRIRdQfvlywLvM0,"[u'point_of_interest', u'establishment']"
0,43.3015508,5.5458187,Association d'aide aux syndics bénévoles,ChIJs9xUqty8yRIRtHCdXlU5-Ig,"[u'point_of_interest', u'establishment']"
0,43.3045058,5.5536543,Pawlowski Jean Pierre,ChIJp5D64NC8yRIRpoeoa1r9XL0,"[u'point_of_interest', u'establishment']"
0,43.3000602,5.5519192,Ostéopathe Julia Baroni,ChIJNQrIPvOiyRIRdkl_QoueVu8,"[u'health', u'point_of_interest', u'establishment']"
0,43.2983375,5.5552857,BG.Peinture,ChIJ7y-1i868yRIRgAsfolTA9XM,"[u'painter', u'point_of_interest', u'establishment']"
0,43.2984712,5.5520122,l'orée des tilleuls,ChIJN_MZd8-8yRIRBfIYdSz-QNE,"[u'lodging', u'point_of_interest', u'establishment']"
0,43.3070821,5.5512899,Dupre Pierre,ChIJOT1xYNe8yRIRHwtx0AEqbck,"[u'point_of_interest', u'establishment']"
0,43.3071649,5.551338,Les Arcades,ChIJOT1xYNe8yRIRAW6SHPTUy_Q,"[u'health', u'point_of_interest', u'establishment']"
0,43.3071649,5.551338,Mairie (Centres Aérés),ChIJOT1xYNe8yRIRstQthHGNMdw,"[u'point_of_interest', u'establishment']"
0,43.3071649,5.551338,Fornara Nicolas,ChIJOT1xYNe8yRIRa6yfa6YxM68,"[u'point_of_interest', u'establishment']"
0,43.3071649,5.551338,Henry Fornara Valerie,ChIJOT1xYNe8yRIRvrATX9uh9YQ,"[u'point_of_interest', u'establishment']"
0,43.3071649,5.551338,Societe Altroff,ChIJjaipCDejyRIREIGzp3njE14,"[u'point_of_interest', u'establishment']"
0,43.3071649,5.551338,Saussaye Bruno,ChIJOT1xYNe8yRIRXnmqBKpFUDc,"[u'point_of_interest', u'establishment']"
0,43.3071649,5.551338,Sarl Des Quatre Saisons,ChIJOT1xYNe8yRIRB5iiu71GMjY,"[u'health', u'point_of_interest', u'establishment']"
0,43.3071649,5.551338,Rossi Jan-marc Claude,ChIJOT1xYNe8yRIRUBtZj1uaCCI,"[u'point_of_interest', u'establishment']"
0,43.3071649,5.551338,Sci Du Cap D Ail,ChIJOT1xYNe8yRIRAk6AjCrHNQs,"[u'health', u'point_of_interest', u'establishment']"
0,43.3020479,5.5468341,Sambroni Marilyne Jackie,ChIJ_xalRdu8yRIR9ogsKDcJc2I,"[u'point_of_interest', u'establishment']"
0,43.304264,5.5470119,13400,ChIJN9CSmdu8yRIRln5tF1bXImA,"[u'church', u'place_of_worship', u'point_of_interest', u'establishment']"
0,43.3080818,5.5528791,Leonard Alexandra,ChIJIypjCde8yRIRPTYsFueib54,"[u'point_of_interest', u'establishment']"
0,43.296955,5.552552,Monsieur Gilbert Audo,ChIJowx3OM-8yRIR9MeUNbnz_vU,"[u'point_of_interest', u'establishment']"
0,43.304371,5.546779,13400,ChIJi6p-kNu8yRIRVdTubXQNsm0,"[u'health', u'point_of_interest', u'establishment']"
0,43.3031676,5.5622411,Construction L M G,ChIJz0B81yyjyRIR8vvQSclhJbk,"[u'general_contractor', u'point_of_interest', u'establishment']"
0,43.2968552,5.5523402,Mairata Marie Pierre,ChIJWy_hSM-8yRIR5qf_mnl1GZ4,"[u'health', u'point_of_interest', u'establishment']"
0,43.296725,5.552306,Barbaste Sandrine,ChIJWy_hSM-8yRIRkWWsVwwtXa0,"[u'hair_care', u'point_of_interest', u'establishment']"
0,43.2966774,5.5522011,Duvillier Jean Marc Edouard Philippe,ChIJWy_hSM-8yRIRKA0tfa6DCoQ,"[u'florist', u'store', u'point_of_interest', u'establishment']"
0,43.2994503,5.562283,Groupe La Murta,ChIJ2Wz5tzKjyRIRJzcKxZUWCMY,"[u'point_of_interest', u'establishment']"
0,43.3024677,5.5450861,Sud Parrots,ChIJx7qfvty8yRIRtxD2YJUOpZg,"[u'point_of_interest', u'establishment']"
0,43.3024677,5.5450861,Nieto Arnaud Stephane Albert,ChIJx7qfvty8yRIRsraQEkcd7wE,"[u'general_contractor', u'point_of_interest', u'establishment']"
0,43.302414,5.544987,Lallemand Jean,ChIJx7qfvty8yRIR8vYZo9ScRLs,"[u'point_of_interest', u'establishment']"
0,43.302414,5.544987,Joel Cantona Organisation,ChIJx7qfvty8yRIR82HlR7wymEA,"[u'point_of_interest', u'establishment']"
0,43.2961319,5.5576348,Saad Jamel,ChIJFS__Csy8yRIRfwGaHPeJTbw,"[u'point_of_interest', u'establishment']"
0,43.2961319,5.5576348,Planet Velo,ChIJFS__Csy8yRIRXllR-MKmZVU,"[u'point_of_interest', u'establishment']"
0,43.2958826,5.557058,Cocchiello Michel Gerard,ChIJdRI1-Mu8yRIR2DdguOUxAXY,"[u'point_of_interest', u'establishment']"
0,43.2973015,5.5881132,Alta Rocca,ChIJ_6b0jTmjyRIRa-Dh88pKWb0,"[u'night_club', u'bar', u'restaurant', u'food', u'point_of_interest', u'establishment']"
0,43.2932961,5.5913546,Opticien GrandOptical Aubagne,ChIJyyal8DOjyRIRp550Vh5aNIM,"[u'health', u'store', u'point_of_interest', u'establishment']"
0,43.2903742,5.5924311,La Grande Récré,ChIJgeDD0BGjyRIRbjf0CHgci4E,"[u'store', u'point_of_interest', u'establishment']"
0,43.293793,5.592062,Auchan Aubagne,ChIJhTKNixGjyRIRXaTAa1LHlJM,"[u'grocery_or_supermarket', u'food', u'store', u'point_of_interest', u'establishment']"
0,43.291974,5.588801,Conforama Aubagne,ChIJ_V7WA3WjyRIRTJCRHmb6WJA,"[u'home_goods_store', u'electronics_store', u'furniture_store', u'store', u'point_of_interest', u'establishment']"
0,43.2881919,5.5842939,Renault Aubagne,ChIJm5sWTDajyRIRRRkcMmqAFyo,"[u'car_dealer', u'car_rental', u'car_repair', u'store', u'point_of_interest', u'establishment']"
0,43.2961839,5.592844,La Martelle,ChIJgeDD0BGjyRIRAf8uhdEtOfs,"[u'sublocality_level_1', u'sublocality', u'political']"
0,43.2919355,5.5922208,flunch,ChIJwctWDzejyRIRBXaikwBLFes,"[u'restaurant', u'food', u'point_of_interest', u'establishment']"
0,43.2937042,5.5780728,Neighborhood House Des Passons,ChIJzRkItzajyRIRbwbqJajb3x8,"[u'point_of_interest', u'establishment']"
0,43.294875,5.589742,KFC,ChIJwctWDzejyRIRQvIvkQXYjXo,"[u'restaurant', u'food', u'point_of_interest', u'establishment']"
0,43.293396,5.590988,Ada,ChIJrdPqCBOjyRIR_BC6wNxAxLw,"[u'car_rental', u'point_of_interest', u'establishment']"
0,43.2943839,5.5908509,Micromania,ChIJjaipCDejyRIRriaSwJmz1g8,"[u'store', u'point_of_interest', u'establishment']"
0,43.294183,5.5891564,KIABI,ChIJtTcq9RCjyRIRbxXlNS0UkXA,"[u'clothing_store', u'shoe_store', u'store', u'point_of_interest', u'establishment']"
0,43.28678,5.582433,Thiriet,ChIJX123_qO-yRIRWIcZL2DZwbA,"[u'food', u'store', u'point_of_interest', u'establishment']"
0,43.293961,5.5918968,Traiteur Auchan Aubagne en Provence,ChIJbSY2GBKjyRIRGEJWmvXkgdo,"[u'bakery', u'food', u'store', u'point_of_interest', u'establishment']"
0,43.29439,5.59213,Agence de Voyages Auchan Aubagne,ChIJtTcq9RCjyRIRXEq_1QwJyxY,"[u'travel_agency', u'real_estate_agency', u'car_rental', u'point_of_interest', u'establishment']"
0,43.2960488,5.5836612,DAPA - PIECES AUTO,ChIJNf7YaRajyRIRA0pIinu-O9k,"[u'car_dealer', u'car_repair', u'store', u'point_of_interest', u'establishment']"
0,43.2938044,5.5709775,Délice Box,ChIJRQjE8jmjyRIRmV84M3cZWh8,"[u'point_of_interest', u'establishment']"
0,43.291454,5.584257,Assistante maternelle AUBAIL Carine,ChIJJQ2XExWjyRIRP50P5AyjXsI,"[u'point_of_interest', u'establishment']"
0,43.2912306,5.5926799,But Marseille Aubagne,ChIJc_5E-RKjyRIRb5kN7mFYWEg,"[u'furniture_store', u'home_goods_store', u'store', u'point_of_interest', u'establishment']"
0,43.292146,5.592201,Hippopotamus Aubagne,ChIJG5lDYRKjyRIR7y8Xjc-W_mQ,"[u'restaurant', u'food', u'point_of_interest', u'establishment']"
0,43.296912,5.5854946,Station-service TOTAL,ChIJn6f0jTmjyRIRrCMZRRGd-TI,"[u'gas_station', u'point_of_interest', u'establishment']"
0,43.2937708,5.5909449,Quick d'Aubagne Ccial,ChIJwctWDzejyRIRTPpwkmcz1v4,"[u'restaurant', u'food', u'point_of_interest', u'establishment']"
0,43.2946054,5.5824719,Eglise Evangelique Libre,ChIJVwrj5z-jyRIRxNeKkNTdOKE,"[u'church', u'place_of_worship', u'point_of_interest', u'establishment']"
0,43.2977227,5.5366205,Claire Fontaine,ChIJtwAdQ-m8yRIRb6nHEGzkdDU,"[u'campground', u'park', u'lodging', u'point_of_interest', u'establishment']"
0,43.298257,5.5364241,Camping du Garlaban,ChIJ26toFem8yRIRpi-89fJnDtg,"[u'campground', u'park', u'lodging', u'point_of_interest', u'establishment']"
0,43.2881157,5.5400665,Motos Génération 3 - MG3,ChIJjaipCDejyRIRWlGtL5GugSc,"[u'car_repair', u'store', u'point_of_interest', u'establishment']"
0,43.291955,5.5348341,Maison de Retraite Verte Colline,ChIJZSClmuy8yRIRuXKpFyJY2Zk,"[u'health', u'point_of_interest', u'establishment']"
0,43.290092,5.5421357,Pépinières Trolliet,ChIJjaipCDejyRIRwNKdnoWrcak,"[u'food', u'point_of_interest', u'establishment']"
0,43.2869737,5.5444984,CENTRE CANIN SYM DOG,ChIJ6ej4Z-aiyRIR2hc6xR4Wnjw,"[u'point_of_interest', u'establishment']"
0,43.286792,5.5441324,Solotour,ChIJxRV6nb68yRIR3fJ38C0O2fg,"[u'travel_agency', u'point_of_interest', u'establishment']"
0,43.2881062,5.5378846,MAZEL,ChIJIwJXMpS8yRIRCN0gmdj_9cY,"[u'car_rental', u'car_repair', u'store', u'point_of_interest', u'establishment']"
0,43.287115,5.543232,Azur Alu Sécurité,ChIJQeYyFFS_yRIRNDbyNbNzOuI,"[u'point_of_interest', u'establishment']"
0,43.2963626,5.5428613,Paysages Méditerraneens,ChIJzTWihcG8yRIRajE0onT-T3U,"[u'general_contractor', u'point_of_interest', u'establishment']"
0,43.2975019,5.5383441,Ambc Controles,ChIJSQGZnem8yRIRe5u59FPXp30,"[u'car_repair', u'point_of_interest', u'establishment']"
0,43.2964077,5.5425399,Cgme,ChIJYZIpj8G8yRIRzDXTSAiGaac,"[u'point_of_interest', u'establishment']"
0,43.2905049,5.5388989,SSV Environnement,ChIJgfNZEJW8yRIR8Xv3cbhnkek,"[u'point_of_interest', u'establishment']"
0,43.2886107,5.5465104,Station-service TOTAL,ChIJHwWoMbm8yRIRjIpTadjY248,"[u'car_repair', u'point_of_interest', u'establishment']"
0,43.2880612,5.5433175,Massucco Claude,ChIJjaipCDejyRIR_muVo0DacGY,"[u'point_of_interest', u'establishment']"
0,43.286792,5.5441324,Tétines et Biberons,ChIJxRV6nb68yRIRll4NTwzvkA4,"[u'point_of_interest', u'establishment']"
0,43.290437,5.53869,Bernex,ChIJVV-KGpW8yRIRT-2zhukdq64,"[u'point_of_interest', u'establishment']"
0,43.290437,5.53869,Scopelec,ChIJVV-KGpW8yRIRLMxukI_IHmQ,"[u'point_of_interest', u'establishment']"
0,43.2882292,5.5420768,Le Vestiaire des Petits,ChIJ18jIar68yRIRptsQ8OhBwRY,"[u'store', u'point_of_interest', u'establishment']"
0,43.2875451,5.5470961,Sogate (Société Gabutti Télécommunication Electrification),ChIJ0ZcHQ7m8yRIRK5oawDDDlsE,"[u'point_of_interest', u'establishment']"
0,43.287889,5.541014,YSENTIA,ChIJtVjcHb68yRIRD02ExVsM6m4,"[u'point_of_interest', u'establishment']"
0,43.2875523,5.546862,Commerciale Des Metaux,ChIJaaZSmb68yRIR2J54BbRexNU,"[u'point_of_interest', u'establishment']"
0,43.2873094,5.5443784,Cuisine A,ChIJAUS-nr68yRIRc1bRKQymgVw,"[u'furniture_store', u'home_goods_store', u'store', u'point_of_interest', u'establishment']"
0,43.2872291,5.5445018,Corsiglia,ChIJzfXfnr68yRIRbNnsKDxe90c,"[u'point_of_interest', u'establishment']"
0,43.2881829,5.5405485,AUTOPASSION13,ChIJKbvPar68yRIRA-3rQMS7-0U,"[u'car_dealer', u'store', u'point_of_interest', u'establishment']"
0,43.2971832,5.5377677,Digital Online,ChIJB2Yljum8yRIR4BIKU940gxw,"[u'point_of_interest', u'establishment']"
0,43.287651,5.539782,FRECHE LOCATION,ChIJC86ikIW8yRIRaZMpUPPJ7Kk,"[u'point_of_interest', u'establishment']"
0,43.2870795,5.5429357,Kiloutou,ChIJqcmfeL68yRIRzNJQPKUxMOU,"[u'point_of_interest', u'establishment']"
0,43.2881132,5.5391891,C.a.t Le Rouet,ChIJA7Gow5W8yRIR7eRcHbgGkIU,"[u'point_of_interest', u'establishment']"
0,43.2881132,5.5391891,Sarl Cactustory,ChIJA7Gow5W8yRIRUT_pvPrDuGA,"[u'point_of_interest', u'establishment']"
0,43.2879952,5.537834,MAZEL,ChIJIwJXMpS8yRIRHabZIRhu0Ik,"[u'car_dealer', u'car_repair', u'store', u'point_of_interest', u'establishment']"
0,43.2856435,5.5458285,AF2I,ChIJyU3sdLy8yRIRrMKABOpe1eE,"[u'point_of_interest', u'establishment']"
0,43.291955,5.534834,La Source,ChIJKQT9UZO8yRIRtYVXuWRY2U8,"[u'health', u'point_of_interest', u'establishment']"
0,43.2865681,5.5394568,Corsiglia,ChIJff9VDZa8yRIRrC_bL-oxIS4,"[u'food', u'store', u'point_of_interest', u'establishment']"
0,43.2855181,5.5443618,Agite,ChIJGbwgRLy8yRIRPJ8im_OPtTM,"[u'point_of_interest', u'establishment']"
0,43.2602217,5.5619943,La Villa Cassis,ChIJs-3YzbKkyRIRH6iqveVCgwA,"[u'lodging', u'point_of_interest', u'establishment']"
0,43.2635833,5.5671127,Carnoux-en-Provence,ChIJrVLIhje7yRIR8l4NddeaH0E,"[u'point_of_interest', u'establishment']"
0,43.258996,5.565438,association gymnastique carnoux cassis,ChIJy3kZt7OkyRIRuBi1C4fMu4w,"[u'point_of_interest', u'establishment']"
0,43.2659894,5.5680739,Atelier vitrail,ChIJg2tot66kyRIRugSDDWZZJos,"[u'point_of_interest', u'establishment']"
0,43.2593003,5.5659583,Arnaud Dominique,ChIJ3xoCuLOkyRIR7uzuWPQvqbE,"[u'real_estate_agency', u'point_of_interest', u'establishment']"
0,43.264369,5.5664135,Mairie,ChIJFwYNLaykyRIRC7CeMNJI5_c,"[u'local_government_office', u'point_of_interest', u'establishment']"
0,43.264749,5.567903,Ari,ChIJzy4ajq6kyRIRcwUASf-oXFA,"[u'point_of_interest', u'establishment']"
0,43.2620007,5.5679047,Globe Diffusion,ChIJY0A1HK6kyRIRwLnaliIh89w,"[u'point_of_interest', u'establishment']"
0,43.2605113,5.5650212,Lefranc Antoine,ChIJtf2xXLKkyRIRwiyZY2tKuVI,"[u'point_of_interest', u'establishment']"
0,43.2589961,5.565438,Clim’Froid,ChIJ5XtoFTm7yRIRBON2T0DjM2w,"[u'general_contractor', u'point_of_interest', u'establishment']"
0,43.258996,5.565438,Assurance Generali - Fort Et Garcia,ChIJy3kZt7OkyRIRPdI28Qe7n7A,"[u'insurance_agency', u'health', u'finance', u'point_of_interest', u'establishment']"
0,43.2631957,5.5733386,Societe Alize Location,ChIJe8RPiK-kyRIRWHGa2VbJSkM,"[u'store', u'point_of_interest', u'establishment']"
0,43.2604551,5.5724153,Le Gardian,ChIJi-ikHrGkyRIRnfnV5M9DiCo,"[u'clothing_store', u'home_goods_store', u'store', u'point_of_interest', u'establishment']"
0,43.2640572,5.5657483,Chenil des Lavandes,ChIJk1Mdyq2kyRIRpQ89sMgUzEc,"[u'point_of_interest', u'establishment']"
0,43.257736,5.5657416,A.s.c Tennis,ChIJuxvRkrOkyRIRMUgCALKPd4o,"[u'point_of_interest', u'establishment']"
0,43.2657386,5.5675985,Graziani Francois,ChIJfxawpK6kyRIRpIGxGQXsPaA,"[u'point_of_interest', u'establishment']"
0,43.2659579,5.5680183,Patrone Agnes,ChIJ2XPkua6kyRIRoMbinNQVeoo,"[u'point_of_interest', u'establishment']"
0,43.265101,5.56804,Ateliers de Provence,ChIJg-AMlK6kyRIRHzMHJw0ZIy0,"[u'point_of_interest', u'establishment']"
0,43.258996,5.565438,Carnoux-en-Provence,ChIJQb_dybOkyRIRIP6W_aUZCAQ,"[u'locality', u'political']"
0,43.262746,5.564552,13470,ChIJG_JInK2kyRIRluHLh7_VKj8,"[u'parking', u'point_of_interest', u'establishment']"
0,43.2661532,5.5684961,Cap Anguilla,ChIJ7SoOya6kyRIRLnx3hJp2lvg,"[u'lodging', u'point_of_interest', u'establishment']"
0,43.2655081,5.5687104,Becca Gallo Patricia,ChIJrYl0lK6kyRIRS1ZuJycpv2g,"[u'beauty_salon', u'point_of_interest', u'establishment']"
0,43.261659,5.563913,13470,ChIJm9WJg7KkyRIRoSGctHikcgc,"[u'parking', u'point_of_interest', u'establishment']"
0,43.2621054,5.5676093,Canu Pierre,ChIJtequBK6kyRIRxYTUqblciBU,"[u'point_of_interest', u'establishment']"
0,43.261262,5.565765,Desliers-Scolan Béatrice,ChIJHahYErKkyRIRAn9tfGabNzQ,"[u'health', u'point_of_interest', u'establishment']"
0,43.2611263,5.5657431,Garcia Et Cie,ChIJWahYErKkyRIRDqlGfnCEv_A,"[u'point_of_interest', u'establishment']"
0,43.260833,5.565939,unnamed,ChIJARoxFLKkyRIRLwikCkrmUBw,"[u'point_of_interest', u'establishment']"
0,43.2613988,5.5678115,Com.Impulsion,ChIJt8q95LGkyRIRJblU5zpkGVQ,"[u'point_of_interest', u'establishment']"
0,43.2605113,5.5650212,Mamberta Lefranc Sylvie Anne Patricia,ChIJhf2xXLKkyRIRPvtR4ezrVj0,"[u'point_of_interest', u'establishment']"
0,43.2603779,5.5613037,Einsargueix Charlotte,ChIJszi8MU27yRIRIvdMXacXjOs,"[u'point_of_interest', u'establishment']"
0,43.2601732,5.5664022,Bergamini Laurent,ChIJqS0gJbKkyRIRSdwPvmUr5-w,"[u'point_of_interest', u'establishment']"
0,43.2597806,5.5621279,Delmas Nathalie,ChIJb4FE5LKkyRIRGOqqS3b-FLk,"[u'point_of_interest', u'establishment']"
0,43.2598303,5.5604473,Pelletier Christian,ChIJ-QV9H027yRIRzojrUPXo8KI,"[u'point_of_interest', u'establishment']"
0,43.2594861,5.5637854,Danvin Didier,ChIJW1AkArOkyRIRyuZVf9vcKPg,"[u'point_of_interest', u'establishment']"
0,43.2605537,5.5694939,Eurl Debert,ChIJ7xrIS7CkyRIRMvB3GlnG_xg,"[u'plumber', u'point_of_interest', u'establishment']"
0,43.259625,5.5674187,Chez Dom et Nico,ChIJwSuRg7GkyRIRs5aBzRa7geo,"[u'point_of_interest', u'establishment']"
0,43.2600114,5.5685951,Smadja Frederic Pierre,ChIJYSOZvLGkyRIR8nI3nntjWT8,"[u'point_of_interest', u'establishment']"
0,43.258996,5.565438,Coiff et Cut,ChIJq20Mq7akyRIRdmSxq4nWe9w,"[u'hair_care', u'point_of_interest', u'establishment']"
0,43.258996,5.565438,Citerne Carnoux,ChIJy3kZt7OkyRIRtqRFZw9RHlw,"[u'point_of_interest', u'establishment']"
0,43.258863,5.565309,Dermotop - Laetitia - Carnoux-en-Provence,ChIJm48GurOkyRIRVYT9YitljlE,"[u'spa', u'point_of_interest', u'establishment']"
0,43.2587279,5.5625451,Simon Brigitte,ChIJy0UrOrOkyRIRqDnLSozo9Ag,"[u'point_of_interest', u'establishment']"
0,43.2587242,5.561728,Garcin Michel,ChIJMdWsNLOkyRIRsyhtT1MyDS0,"[u'general_contractor', u'point_of_interest', u'establishment']"
0,43.2591908,5.5593618,Fiacchetti Pisani Claudine,ChIJUcPm-Uy7yRIRxDt99bqol4A,"[u'point_of_interest', u'establishment']"
0,43.2586272,5.5637819,Achache-Gauthier Joëlle,ChIJubCXDbOkyRIR1PeWf_DjNqE,"[u'point_of_interest', u'establishment']"
0,43.2591399,5.5591005,Lejeune Jean-Luc,ChIJnb-250y7yRIR4lt-_JgxNjg,"[u'point_of_interest', u'establishment']"
0,43.2618965,5.5726412,Levy Richard Olivier Anselme,ChIJSQlqUaWkyRIR4dzSLlDSKww,"[u'point_of_interest', u'establishment']"
0,43.2580851,5.5633058,Boronad Paul,ChIJS9pAabOkyRIRcaLvW5EsDMg,"[u'doctor', u'real_estate_agency', u'health', u'point_of_interest', u'establishment']"
0,43.2623148,5.5733719,Sarl Gillet,ChIJzb3hRqWkyRIREvfkqbn-Idg,"[u'electrician', u'point_of_interest', u'establishment']"
0,43.2599374,5.5706716,Petit Etienne,ChIJ74-ARLCkyRIRmhzz8znbMzU,"[u'point_of_interest', u'establishment']"
0,43.2579869,5.5661836,Dubois André,ChIJX1WJ8LOkyRIR1eFZUpmob-o,"[u'car_rental', u'point_of_interest', u'establishment']"
0,43.2594763,5.5707605,SARL M.P.E,ChIJ45dGXrCkyRIR3pGBlPmnpRw,"[u'electrician', u'point_of_interest', u'establishment']"
0,43.2626176,5.5743803,Michèle MARCEAU,ChIJV0xjIqWkyRIRexxmozdHvvs,"[u'clothing_store', u'store', u'point_of_interest', u'establishment']"
0,43.258072,5.558868,Geosud,ChIJi1QUY0y7yRIRngtiYMbwfr0,"[u'point_of_interest', u'establishment']"
0,43.2589636,5.5701744,Jervolino Stéphanie,ChIJi-ikHrGkyRIRWEUmX6HOYz8,"[u'lawyer', u'finance', u'point_of_interest', u'establishment']"
0,43.2587279,5.5625451,BSS Formation,ChIJy0UrOrOkyRIRd0E7axxmqcw,"[u'point_of_interest', u'establishment']"
0,43.2783457,5.5802702,Long Maurice Plomb Chauf Energ Nvelle,ChIJISb2AV2jyRIR0vC8MkwT8K8,"[u'plumber', u'point_of_interest', u'establishment']"
0,43.2830673,5.5726287,Rossi Toiture,ChIJx_YgeUWjyRIRoQ3G6BEdOxc,"[u'roofing_contractor', u'point_of_interest', u'establishment']"
0,43.283172,5.57283,2IAS,ChIJC8AReEWjyRIR3JbI7BeUh94,"[u'point_of_interest', u'establishment']"
0,43.2834923,5.573895,Manger Sans Gene,ChIJj8wFpEWjyRIRcFOMAh-duMw,"[u'point_of_interest', u'establishment']"
0,43.2836433,5.5757861,Tron Roger,ChIJpRxPW0SjyRIR5ZJRv7F70YY,"[u'point_of_interest', u'establishment']"
0,43.2838682,5.5746481,New Nett,ChIJaYNNskWjyRIRSVDTuw6wlUA,"[u'point_of_interest', u'establishment']"
0,43.2827754,5.5742924,Santacruz Olivier,ChIJbwbQEUWjyRIRmGXqBO9QrDY,"[u'point_of_interest', u'establishment']"
0,43.2759393,5.5770578,Adiery Dilip,ChIJ8QhL_FujyRIRDApXhb7bw5c,"[u'point_of_interest', u'establishment']"
0,43.2747541,5.5792666,Cossurel Henri Leonce Andre Jean,ChIJd4Lyk16jyRIROjcoV6Dm-dQ,"[u'point_of_interest', u'establishment']"
0,43.2805943,5.5733605,Niederoest Tony,ChIJFcWbtVqjyRIRclGZjXdRSes,"[u'point_of_interest', u'establishment']"
0,43.2805943,5.5733605,Deleuze Drodron Boissonnet Catherine,ChIJFcWbtVqjyRIRnwGoVdGJJIM,"[u'point_of_interest', u'establishment']"
0,43.2805943,5.5733605,Ferme Avicole des Espilleres,ChIJFcWbtVqjyRIRNj1KqvOmCkA,"[u'point_of_interest', u'establishment']"
0,43.280597,5.573484,Masoni Serge,ChIJFcWbtVqjyRIROxdVkm9JXo4,"[u'point_of_interest', u'establishment']"
0,43.2800993,5.5766773,"Clair d'Angelune, institut de beauté, centre de bien-être: massage, shiatsu, reiki; Aubagne 13",ChIJUSIuXVujyRIRuC35PmLEh4I,"[u'point_of_interest', u'establishment']"
0,43.2810973,5.5734376,Saidia Mustapha,ChIJFcWbtVqjyRIRKX1Vtw7HLrg,"[u'painter', u'point_of_interest', u'establishment']"
0,43.2797261,5.5788254,Muller Jacques,ChIJk9Kux1yjyRIRwQwC3QFBSkc,"[u'real_estate_agency', u'point_of_interest', u'establishment']"
0,43.2797261,5.5788254,Guirao Thierry,ChIJk9Kux1yjyRIR2TWS_4IOfwU,"[u'finance', u'point_of_interest', u'establishment']"
0,43.2821514,5.5735868,Renaudin Emilie,ChIJiWLaFEWjyRIRQEKeGiDwAJs,"[u'point_of_interest', u'establishment']"
0,43.2830347,5.5728227,Hypercut,ChIJk91EeEWjyRIRzerEAgC0-fU,"[u'hair_care', u'point_of_interest', u'establishment']"
0,43.2830347,5.5728227,Atelier Thalassa,ChIJk91EeEWjyRIRbUTTHXTZNNg,"[u'point_of_interest', u'establishment']"
0,43.2830673,5.5726287,Boucherie Du Midi,ChIJx_YgeUWjyRIRU6AerwGz4fo,"[u'point_of_interest', u'establishment']"
0,43.2830673,5.5726287,Energies d'avenir,ChIJx_YgeUWjyRIRoQeMYmZdSsA,"[u'department_store', u'store', u'point_of_interest', u'establishment']"
0,43.283115,5.572768,Ecole du corps,ChIJ491EeEWjyRIR2vTFFMYT03M,"[u'point_of_interest', u'establishment']"
0,43.2832246,5.5727928,Laboratoire Decoster,ChIJbb0ReEWjyRIR_gpjzI529Cs,"[u'doctor', u'health', u'point_of_interest', u'establishment']"
0,43.2838637,5.5720287,Napoletano Jean Camille Andre,ChIJw-Cdgk-jyRIReivzri5uSpQ,"[u'health', u'point_of_interest', u'establishment']"
0,43.2838637,5.5720287,Napoletano Marie Helene,ChIJw-Cdgk-jyRIRt9Xo98pPpYU,"[u'health', u'point_of_interest', u'establishment']"
0,43.283141,5.567429,Sarl Deco Decor Mr Christophe Curci,ChIJbfePe06jyRIROB5X_iKiEJw,"[u'painter', u'point_of_interest', u'establishment']"
0,43.2723249,5.5515519,Ecurie Des Cèdres,ChIJMUuvSq68yRIRlMaYT2q56-0,"[u'point_of_interest', u'establishment']"
0,43.2747487,5.550985,Aubagne Natation,ChIJESezhqi8yRIR7yVJIrDwC28,"[u'point_of_interest', u'establishment']"
0,43.275779,5.550728,Samat Gérard,ChIJxZ0DI6a8yRIR6gZl1Enxdi4,"[u'food', u'point_of_interest', u'establishment']"
0,43.2758494,5.5489313,Caruso Dario,ChIJOZK9Xaa8yRIRv170FPa1wJo,"[u'point_of_interest', u'establishment']"
0,43.2748093,5.549614,Sarl Le Gout,ChIJj_NkS6a8yRIRcvxIGDGb4JU,"[u'point_of_interest', u'establishment']"
0,43.2765452,5.5475242,Media Rewards Publicité SAS,ChIJKRQ-NoPAyRIROoFs6_fZVU4,"[u'point_of_interest', u'establishment']"
0,43.280883,5.5447748,assistante maternelle agréée aubagne,ChIJf-rsaqO8yRIRg3GRSMoPziY,"[u'point_of_interest', u'establishment']"
0,43.2749402,5.5506604,Mairie Crèches Haltes Garderies - crèche La Garenne,ChIJ6baOOqa8yRIRspE0MV1mrrU,"[u'point_of_interest', u'establishment']"
0,43.2760086,5.5521445,Dalest Eric,ChIJxT4-vKi8yRIRUDPSCInZtRI,"[u'point_of_interest', u'establishment']"
0,43.2755928,5.5514078,Fournier Marion,ChIJTRdSnqi8yRIR-TEPVT5dBfs,"[u'health', u'point_of_interest', u'establishment']"
0,43.274818,5.5508753,Bon Frederic Siegfried Elie,ChIJQba5gai8yRIRPW_XnD6Z82Q,"[u'point_of_interest', u'establishment']"
0,43.2766284,5.5511807,Franco Nazzaroli,ChIJ8RWUAqa8yRIRtOwDmf0S780,"[u'accounting', u'finance', u'point_of_interest', u'establishment']"
0,43.2749402,5.5506604,Schools Primaires Et Maternelles,ChIJ6baOOqa8yRIRSF6ieUy_a6g,"[u'school', u'point_of_interest', u'establishment']"
0,43.2747682,5.5504357,Cesari Alberini Josie,ChIJg7KHLaa8yRIRld9IvtSGerU,"[u'health', u'point_of_interest', u'establishment']"
0,43.278405,5.552448,13400,ChIJA9gUa6-8yRIRJ4_mWbpWk4Y,"[u'parking', u'point_of_interest', u'establishment']"
0,43.2763863,5.5490954,Public Preschool La Garenne,ChIJu1mIZaa8yRIRvK8tFifZHuQ,"[u'school', u'point_of_interest', u'establishment']"
0,43.2787901,5.5509069,Ottomani Lafon Pierre,ChIJYzoHhqW8yRIRTR722TnJ95g,"[u'physiotherapist', u'health', u'point_of_interest', u'establishment']"
0,43.279175,5.551654,13400,ChIJoz9pea-8yRIRC_Pft1vkQWo,"[u'parking', u'point_of_interest', u'establishment']"
0,43.2736352,5.5490042,Leonnet Marina,ChIJKYL0oae8yRIRAJiMx1Gxebo,"[u'health', u'point_of_interest', u'establishment']"
0,43.274194,5.5482179,Caron Patrick Louis Georges,ChIJt2vxBae8yRIRJ5QZVbLCvys,"[u'point_of_interest', u'establishment']"
0,43.2856993,5.5874483,D.P.A,ChIJwctWDzejyRIRaFayHS2735Y,"[u'car_repair', u'store', u'point_of_interest', u'establishment']"
0,43.285999,5.587105,Provence Car's,ChIJU6_27GujyRIRIYhg-OU97k4,"[u'car_dealer', u'car_repair', u'store', u'point_of_interest', u'establishment']"
0,43.277426,5.576357,La Coueste,ChIJrdzwllujyRIR6x2orKPwQxw,"[u'sublocality_level_1', u'sublocality', u'political']"
0,43.28491,5.590356,Europcar,ChIJMbPD-3GjyRIR_NQirzo3wik,"[u'car_rental', u'point_of_interest', u'establishment']"
0,43.2842501,5.5807396,Carnivor Boucherie AUBAGNE (13400),ChIJjaipCDejyRIRnKUo6p9-vno,"[u'food', u'store', u'point_of_interest', u'establishment']"
0,43.2846284,5.5822832,Les Maisons de Manon,ChIJ6ej4Z-aiyRIRz7RyRkkaDdM,"[u'general_contractor', u'point_of_interest', u'establishment']"
0,43.2842504,5.5817649,BS Diffusion Aubagne,ChIJM1OIFkKjyRIRDoegEUGZLmc,"[u'home_goods_store', u'store', u'point_of_interest', u'establishment']"
0,43.283547,5.580754,Esprit Competition,ChIJZcuHT0KjyRIRAqUjN9A2vAU,"[u'car_dealer', u'store', u'point_of_interest', u'establishment']"
0,43.282258,5.586901,Le Tempo 9 Studio D'enregistrement,ChIJ2Y-Z3mijyRIRpg_rwiHkSJY,"[u'point_of_interest', u'establishment']"
0,43.286153,5.5798895,LADY BEAUTE CREATION,ChIJF0PLaDajyRIRAhocDoy1XTU,"[u'beauty_salon', u'hair_care', u'spa', u'health', u'point_of_interest', u'establishment']"
0,43.286921,5.576444,Lenaig Serazin-Orsini / Sage-femme,ChIJgw8NwUajyRIRJvBv_8ekDL4,"[u'health', u'point_of_interest', u'establishment']"
0,43.2837852,5.5809197,Coiff&Co,ChIJWc5mPUKjyRIRYkFC3YST6k8,"[u'beauty_salon', u'hair_care', u'point_of_interest', u'establishment']"
0,43.2869954,5.5753623,Restaurant Scolaire Mermoz,ChIJK2QCTTajyRIRiAaExIkMbqM,"[u'restaurant', u'food', u'point_of_interest', u'establishment']"
0,43.2877328,5.58125,Souchon Immobilier,ChIJMTqUx0ejyRIR8zUb8kd1hgI,"[u'real_estate_agency', u'point_of_interest', u'establishment']"
0,43.2848895,5.5774941,Eurorepar Garage S.M. Auto,ChIJrTg9y0OjyRIRChni2_gnloQ,"[u'car_repair', u'point_of_interest', u'establishment']"
0,43.28639,5.580904,negresko automobiles,ChIJZ2_Ol0GjyRIRwN6_EcFnH9c,"[u'car_dealer', u'store', u'point_of_interest', u'establishment']"
0,43.285093,5.573903,starlight événements,ChIJf1F620WjyRIRopN_0etN2wM,"[u'food', u'store', u'point_of_interest', u'establishment']"
0,43.2878683,5.5774099,PACA-BIEN-ÊTRE,ChIJG0zK1UCjyRIRN5rKAULaFgE,"[u'point_of_interest', u'establishment']"
0,43.2866122,5.5731893,Cogefim Fouque,ChIJ1dm1FkajyRIRK_gheNSdWbc,"[u'real_estate_agency', u'point_of_interest', u'establishment']"
0,43.2818157,5.5831894,Gamm' Auto,ChIJqaG-J36YyRIRLvxB4TXU5b8,"[u'car_dealer', u'car_repair', u'store', u'point_of_interest', u'establishment']"
0,43.286242,5.575109,Jaeger Purchasing Consulting,ChIJk8fdiEajyRIRyVlrJC_ufy8,"[u'point_of_interest', u'establishment']"
0,43.284217,5.582079,Le Paradiso,ChIJZc5sn0WjyRIRgH8dK3dyLBA,"[u'restaurant', u'food', u'point_of_interest', u'establishment']"
0,43.2880206,5.5777516,A.b.c.,ChIJG0zK1UCjyRIRySGChA6QZh4,"[u'accounting', u'finance', u'point_of_interest', u'establishment']"
0,43.2841702,5.5800188,Idris,ChIJrTg9y0OjyRIRoBC7dMt1hLo,"[u'bakery', u'food', u'store', u'point_of_interest', u'establishment']"
0,43.2873154,5.5774694,agnès esthétique,ChIJewB_00ajyRIRtPGFfQNFLgs,"[u'beauty_salon', u'point_of_interest', u'establishment']"
0,43.2841702,5.5800188,Aventure,ChIJrTg9y0OjyRIRmf_4d3Yi2w4,"[u'grocery_or_supermarket', u'food', u'store', u'point_of_interest', u'establishment']"
0,43.287444,5.576933,KOTEBAT,ChIJ5RLp0EajyRIRjBPGoFgD260,"[u'finance', u'point_of_interest', u'establishment']"
0,43.280239,5.536428,Chambres d'hôtes Chez Jean,ChIJ-8U7nJm8yRIR7Jd8cQBQnWw,"[u'lodging', u'point_of_interest', u'establishment']"
0,43.2840026,5.5350683,Parcs Enchères,ChIJMbPD-3GjyRIRsMC8oTWjn18,"[u'car_dealer', u'store', u'point_of_interest', u'establishment']"
0,43.283664,5.540821,Héran-Mutti Julie,ChIJMbPD-3GjyRIRmxsRp7u8Nfk,"[u'doctor', u'health', u'point_of_interest', u'establishment']"
0,43.2847701,5.5374566,Garlaban Automobile,ChIJv4N9HJe8yRIR1NFCYXqC2QA,"[u'car_dealer', u'car_repair', u'store', u'point_of_interest', u'establishment']"
0,43.287084,5.536257,Ford Aubagne,ChIJ6461J5S8yRIRzb0us9cxjBg,"[u'car_dealer', u'car_repair', u'store', u'point_of_interest', u'establishment']"
0,43.2832193,5.5407998,Permanence Médicale du Charrel,ChIJMbPD-3GjyRIRbGNMGH3KbdQ,"[u'doctor', u'health', u'point_of_interest', u'establishment']"
0,43.2853264,5.539915,Entreprise Bronzo SA,ChIJv4N9HJe8yRIRyTcCAjwLHrg,"[u'general_contractor', u'point_of_interest', u'establishment']"
0,43.28714,5.535135,Tout pour la coiffure,ChIJgXBUUZG8yRIRrmOEU3GLCWI,"[u'hair_care', u'store', u'point_of_interest', u'establishment']"
0,43.2847552,5.5372687,Forzi et Fils,ChIJv4N9HJe8yRIRg8YRiYBdgYo,"[u'point_of_interest', u'establishment']"
0,43.2847552,5.5372687,France Air,ChIJv4N9HJe8yRIRn4gnzct1pT4,"[u'general_contractor', u'point_of_interest', u'establishment']"
0,43.2847451,5.5393985,Eurdekian Lumières,ChIJjaipCDejyRIRUVT7hD91STE,"[u'home_goods_store', u'store', u'point_of_interest', u'establishment']"
0,43.2806692,5.5389014,Eurotel,ChIJC4_xaJi8yRIRqcAZstAn_sk,"[u'general_contractor', u'point_of_interest', u'establishment']"
0,43.2873433,5.5365086,Concessionaire Ford : Aix Automobiles,ChIJ6461J5S8yRIRn9MElxU6Qa0,"[u'car_dealer', u'car_repair', u'store', u'point_of_interest', u'establishment']"
0,43.28475,5.54169,Clicimprim,ChIJy-z7nb28yRIRrSTUZjWB05Q,"[u'store', u'point_of_interest', u'establishment']"
0,43.284508,5.541872,Techno Solutions Services (T2S),ChIJwTlfdL28yRIRtf_5ebPbdx8,"[u'point_of_interest', u'establishment']"
0,43.284406,5.544415,Pizza Malta,ChIJFSA49Ly8yRIRw0T7S4nV4lY,"[u'restaurant', u'food', u'point_of_interest', u'establishment']"
0,43.2839538,5.53859,Parasols Flandin,ChIJO6JFBaO-yRIRlWED2yFkn-E,"[u'point_of_interest', u'establishment']"
0,43.2838836,5.5446379,Marignan Michel,ChIJUW_d7Ly8yRIRN6GbmrmgBNc,"[u'doctor', u'health', u'point_of_interest', u'establishment']"
0,43.284773,5.538171,Publicité par l'image - Medispro,ChIJv4N9HJe8yRIR0Aqt3hq8fv0,"[u'point_of_interest', u'establishment']"
0,43.2845484,5.5441826,Point Midi Batteries,ChIJjaipCDejyRIRTl_rXO2JDdI,"[u'car_repair', u'point_of_interest', u'establishment']"
0,43.284854,5.537783,ALPHA Aubagne La Penne/ Huveaune Activités,ChIJv4N9HJe8yRIRfwgAic0qRM4,"[u'point_of_interest', u'establishment']"
0,43.28475,5.54169,Papelia,ChIJv4N9HJe8yRIRJHs2gJls1jk,"[u'store', u'point_of_interest', u'establishment']"
0,43.283261,5.545943,Body Light,ChIJ1_utoLy8yRIR5CY3KTiUucU,"[u'beauty_salon', u'point_of_interest', u'establishment']"
0,43.284653,5.5360592,Klima Rodaclim,ChIJt0Hd84-8yRIRmj2nego7Alg,"[u'point_of_interest', u'establishment']"
0,43.2813411,5.541632,Public Primary School Pérussonne,ChIJ7UCMu6K8yRIR2ZjL-5Oa7OY,"[u'school', u'point_of_interest', u'establishment']"
0,43.322118,5.57113,nature-labo,ChIJxxl3dM-iyRIR68P6rwujJ64,"[u'health', u'food', u'store', u'point_of_interest', u'establishment']"
0,43.3156048,5.5733822,Resilience,ChIJlQ1mFdqiyRIR9Pvj9zf2pdc,"[u'point_of_interest', u'establishment']"
0,43.313344,5.578576,Le Moulin a Huile,ChIJGZxjDiCjyRIRmKCvfipm1G4,"[u'museum', u'point_of_interest', u'establishment']"
0,43.3121083,5.5801347,Pacifique Sud Ingrédients,ChIJv0Qbvt2iyRIRldxCPgPBO_o,"[u'store', u'point_of_interest', u'establishment']"
0,43.3129733,5.582259,La Fermière,ChIJzdNJC96iyRIR3KhCE2LeK2Y,"[u'point_of_interest', u'establishment']"
0,43.3102528,5.5789626,Le Mas du Garlaban,ChIJjaipCDejyRIRp0nj_AWesms,"[u'restaurant', u'cafe', u'bar', u'food', u'point_of_interest', u'establishment']"
0,43.3164948,5.5782271,Esprit Competition,ChIJrTg9y0OjyRIRAgruhcJnC1c,"[u'car_repair', u'point_of_interest', u'establishment']"
0,43.309901,5.577745,l'Immobilière des Collines,ChIJ7X6IUd-iyRIRu2jT8ktcPco,"[u'real_estate_agency', u'general_contractor', u'point_of_interest', u'establishment']"
0,43.311793,5.580228,Ecogia,ChIJwR0fCZ-jyRIRtXz2qEYWiWg,"[u'general_contractor', u'point_of_interest', u'establishment']"
0,43.3120877,5.580215,Fondasol MARSEILLE,ChIJ1zV8Vt6iyRIRp1hzVyF4qwI,"[u'point_of_interest', u'establishment']"
0,43.310346,5.57908,SARL MPA AUTOMOBILE,ChIJPfnva9-iyRIR5l8Nz3BFREA,"[u'car_dealer', u'store', u'point_of_interest', u'establishment']"
0,43.3160967,5.581165,DFM Distribution,ChIJb0TBlt2iyRIRLjSy1WyUyVc,"[u'car_repair', u'point_of_interest', u'establishment']"
0,43.3110552,5.5769851,Cuisines Créations Giresse,ChIJZ1W_sd2iyRIRQ4YpNMwIUp8,"[u'furniture_store', u'home_goods_store', u'store', u'point_of_interest', u'establishment']"
0,43.310565,5.577621,Lani Constructions,ChIJjaipCDejyRIRrcrfWKEPdho,"[u'general_contractor', u'point_of_interest', u'establishment']"
0,43.3085152,5.5764422,Station-Service Avia,ChIJR4j0QCejyRIRIGJq5uo23xw,"[u'gas_station', u'car_wash', u'car_repair', u'clothing_store', u'store', u'point_of_interest', u'establishment']"
0,43.309721,5.576891,SUD REA,ChIJ8RKUqNiiyRIRsQvZ52IKqPs,"[u'general_contractor', u'point_of_interest', u'establishment']"
0,43.309914,5.579245,Les Mas et Traditions de Provence,ChIJ6ej4Z-aiyRIRe-xmrVI3Vwc,"[u'general_contractor', u'point_of_interest', u'establishment']"
0,43.309776,5.577836,ecodom,ChIJ86BTUd-iyRIR84zYabDrnKI,"[u'point_of_interest', u'establishment']"
0,43.306989,5.574874,ARG GUTIERREZ PASCAL,ChIJITdh_yajyRIR8FdoidEG1uc,"[u'point_of_interest', u'establishment']"
0,43.3133282,5.5799577,Cabinet Morin Bellier,ChIJbTbLdN6iyRIRb8TeYStTqus,"[u'accounting', u'finance', u'point_of_interest', u'establishment']"
0,43.3172329,5.5788987,Matériaux Simc,ChIJ0wxm8tyiyRIRaDwq452e5IM,"[u'home_goods_store', u'store', u'point_of_interest', u'establishment']"
0,43.3133233,5.5785773,Le Moulin à Huile,ChIJcSeh9SWjyRIRlmKBlZJFqsw,"[u'point_of_interest', u'establishment']"
0,43.3156407,5.581343,Service Action Santé,ChIJv0Qbvt2iyRIRyefkIsyqS8M,"[u'point_of_interest', u'establishment']"
0,43.3142664,5.5803169,ELYPSIS,ChIJMRfWmOeiyRIRaKuivn9O3Hs,"[u'point_of_interest', u'establishment']"
0,43.3139397,5.5813355,Antea,ChIJbTbLdN6iyRIRYTY2sg6ZXpY,"[u'point_of_interest', u'establishment']"
0,43.3069289,5.5802121,l'estrade en fete,ChIJeR5VVSCjyRIRWnGOLubO5dE,"[u'travel_agency', u'school', u'point_of_interest', u'establishment']"
0,43.313894,5.581419,AGCI360,ChIJwUEBCt6iyRIRNrUbvVuoXYY,"[u'point_of_interest', u'establishment']"
0,43.3136361,5.581162,ASI Automatismes et Systèmes Industriels,ChIJZ5CL9t2iyRIRIqAZZCJ-wVw,"[u'point_of_interest', u'establishment']"
0,43.3152048,5.5800562,TC Automobiles,ChIJBfzQQ-aiyRIRISLN_87wCS8,"[u'car_dealer', u'store', u'point_of_interest', u'establishment']"
0,43.314067,5.58133,Fainox,ChIJH43L5N2iyRIRDZrgh6WKNR4,"[u'hardware_store', u'store', u'point_of_interest', u'establishment']"
0,43.313894,5.581419,AGCI,ChIJwUEBCt6iyRIR0JcBvY--MxQ,"[u'point_of_interest', u'establishment']"
0,43.3157589,5.581629,A.R.M Assemblage Rayonnage Manutention,ChIJPc_4z5SkyRIRtjasewl4464,"[u'point_of_interest', u'establishment']"
0,43.3172329,5.5788987,Napollon Location,ChIJ0wxm8tyiyRIRhaVBhI-VU6c,"[u'point_of_interest', u'establishment']"
0,43.3157589,5.581629,T.S.M Téléconcepts,ChIJb0PBlt2iyRIRQfAs2y-bvgQ,"[u'point_of_interest', u'establishment']"
0,43.3130138,5.5816408,Candy & Co,ChIJA-CwFd6iyRIRq6Y6pMn_dJM,"[u'point_of_interest', u'establishment']"
0,43.3130138,5.5816408,MTV Great Wines,ChIJA-CwFd6iyRIRxZb_wwi3uSI,"[u'point_of_interest', u'establishment']"
0,43.314067,5.58133,S A G A,ChIJH43L5N2iyRIRV6WPXbLaLQY,"[u'point_of_interest', u'establishment']"
0,43.314067,5.58133,Illumin'Alu Fenetre volet roulant volet veranda stores fenêtre Aubagne Marseille 13,ChIJqWJ4lkKiyRIRPOPoZXgk3tg,"[u'point_of_interest', u'establishment']"
0,43.3128936,5.5822334,Biscuiterie du Lacydon,ChIJzdNJC96iyRIRm6Q2zHgd6YM,"[u'point_of_interest', u'establishment']"
0,43.3148547,5.582079,Body Line Center,ChIJCYvaqDGjyRIR0J4gcFgvs6w,"[u'gym', u'beauty_salon', u'health', u'point_of_interest', u'establishment']"
0,43.3150376,5.5814443,Cofely,ChIJr1wbvt2iyRIRGPQBX6FH-54,"[u'general_contractor', u'point_of_interest', u'establishment']"
0,43.317176,5.5789944,Wegel Immobiliere,ChIJ0wxm8tyiyRIRF1SqyDo8sKY,"[u'point_of_interest', u'establishment']"
0,43.3109962,5.5474843,Domaine Jobert,ChIJITXzYSe9yRIRtgUqsV54e5M,"[u'spa', u'point_of_interest', u'establishment']"
0,43.3084794,5.5448235,Clinique Saint Michel - Aubagne,ChIJxUKfYN68yRIRKLxxmr3kM8c,"[u'health', u'point_of_interest', u'establishment']"
0,43.309191,5.545349,Parking de la Font de mai,ChIJLx7xL9-8yRIRTNrTn-YikRw,"[u'parking', u'point_of_interest', u'establishment']"
0,43.3121409,5.544523,Font de Mai,ChIJy0wHlSC9yRIRsEKtyKvTuBo,"[u'sublocality_level_1', u'sublocality', u'political']"
0,43.3153071,5.5517097,S.c.r.d,ChIJ1z-qrSi9yRIRvFKN-jfKus4,"[u'real_estate_agency', u'point_of_interest', u'establishment']"
0,43.3153071,5.5517097,Henry Patrice,ChIJ1z-qrSi9yRIRQrCw9m141ZM,"[u'general_contractor', u'point_of_interest', u'establishment']"
0,43.315422,5.5508126,Manouba Joel,ChIJWz_nBia9yRIRIg6c5RRVn6I,"[u'point_of_interest', u'establishment']"
0,43.315422,5.5508126,Richard Immo,ChIJWz_nBia9yRIRX0kF3A3QBD8,"[u'real_estate_agency', u'point_of_interest', u'establishment']"
0,43.314281,5.545456,Vtt du garlaban Font de Mai,ChIJe6fdMCG9yRIR8lGhXdOJ6E4,"[u'point_of_interest', u'establishment']"
0,43.314281,5.545371,Domaine de la Font de Mai,ChIJXWW9MCG9yRIRVrz6iGeycZ8,"[u'point_of_interest', u'establishment']"
0,43.3089752,5.5450433,Départ sentier Marcel Pagnol parking randonnée Garlaban,ChIJo3IbJN-8yRIRrpSZi9kqNn4,"[u'parking', u'point_of_interest', u'establishment']"
0,43.3083523,5.5449945,Clinique Saint Michel - Aubagne,ChIJ358v2t68yRIR1he6Tb_n-B4,"[u'real_estate_agency', u'point_of_interest', u'establishment']"
0,43.3009035,5.5864299,Jayne Racing Kart,ChIJe3JkJhijyRIROsCy7D6WVZ0,"[u'car_repair', u'point_of_interest', u'establishment']"
0,43.2979424,5.5790506,TSA VENAUT,ChIJOeyHHT6jyRIRyuMCMCWTKZY,"[u'point_of_interest', u'establishment']"
0,43.2983776,5.5793959,Aubagne-Osteopathe,ChIJWWla7zyjyRIR-OIWE9xMHI0,"[u'health', u'point_of_interest', u'establishment']"
0,43.2983776,5.5793959,Shiatsu Yin,ChIJceb44jyjyRIRLO_wKutBPw0,"[u'point_of_interest', u'establishment']"
0,43.304865,5.584745,Sylvain BON Producteur de fruits et légumes,ChIJw3zvLx-jyRIRAKmTh0NpJ7k,"[u'food', u'point_of_interest', u'establishment']"
0,43.299929,5.583785,Asco Environnement,ChIJgQEuFxijyRIRo43vMIrf2X0,"[u'general_contractor', u'point_of_interest', u'establishment']"
0,43.29801,5.579981,Music Art Productions,ChIJWTzm4jyjyRIRQ0ONvv_9EeA,"[u'point_of_interest', u'establishment']"
0,43.306946,5.59096,Garage Citroën,ChIJHbLgBR2jyRIR9fujfmIZ7Dw,"[u'car_repair', u'point_of_interest', u'establishment']"
0,43.3031561,5.5788867,Paralysés de France,ChIJ_6drviOjyRIRo3tnsYfxN88,"[u'point_of_interest', u'establishment']"
0,43.3027508,5.5783331,Marbre et Granit Concept,ChIJR6hnmiOjyRIRRhH-RBZ9ZyQ,"[u'general_contractor', u'point_of_interest', u'establishment']"
0,43.2999524,5.5785799,Careldeco,ChIJdd2SSyOjyRIRFrx-n3FN10M,"[u'point_of_interest', u'establishment']"
0,43.3018297,5.5756468,Passion Soleil,ChIJk6lJ8CSjyRIRkoVOgA9tR2w,"[u'beauty_salon', u'hair_care', u'spa', u'health', u'point_of_interest', u'establishment']"
0,43.3017757,5.5752926,BOURQUIN Manon,ChIJ5YjR5CSjyRIRvScYz1ceNsc,"[u'health', u'point_of_interest', u'establishment']"
0,43.3017491,5.574896,Moorea,ChIJrThYHSWjyRIRL3mo_Va4UXU,"[u'hair_care', u'point_of_interest', u'establishment']"
0,43.296013,5.583865,Coopérative du Garlaban,ChIJ_6b0jTmjyRIR9dUYCbhNs64,"[u'grocery_or_supermarket', u'food', u'store', u'point_of_interest', u'establishment']"
0,43.2981856,5.576548,MF Granit,ChIJD0Z_bjujyRIRQfIy5bxE1NM,"[u'point_of_interest', u'establishment']"
0,43.2975444,5.5865528,Stock Mode Brigitte,ChIJNSnq6RajyRIRWZnFLdYa26E,"[u'clothing_store', u'store', u'point_of_interest', u'establishment']"
0,43.3087459,5.581894,Hygiène Design Surface,ChIJGZxjDiCjyRIRELSG3yWppiA,"[u'furniture_store', u'home_goods_store', u'store', u'point_of_interest', u'establishment']"
0,43.295851,5.5791631,Sourire Et Image,ChIJ0QxKOTyjyRIR_Uj2PaNW8xU,"[u'point_of_interest', u'establishment']"
0,43.308805,5.5818009,store decor fermeture,ChIJQ9Y4DyCjyRIR4q4rlddxa_s,"[u'general_contractor', u'point_of_interest', u'establishment']"
0,43.308805,5.5818009,Schools Primaires Et Maternelles,ChIJGZxjDiCjyRIRQjGMk7_P6EA,"[u'school', u'point_of_interest', u'establishment']"
0,43.3033913,5.5723027,Plus viandes,ChIJif6O0y-jyRIRrOv1_jYZqfc,"[u'food', u'store', u'point_of_interest', u'establishment']"
0,43.3038733,5.572329,Handi Mobil,ChIJcSeh9SWjyRIRupBrJrnNnsM,"[u'car_repair', u'store', u'point_of_interest', u'establishment']"
0,43.3038733,5.572329,Bertosio Transports,ChIJcSeh9SWjyRIRJziER2q6TCY,"[u'point_of_interest', u'establishment']"
0,43.3038822,5.5723152,Antique Immobilier,ChIJxfah9SWjyRIRfPDpRLVqAIk,"[u'real_estate_agency', u'point_of_interest', u'establishment']"
0,43.3038822,5.5723152,L'Eventail des Jardins,ChIJxfah9SWjyRIRHo5lrUxqFD4,"[u'general_contractor', u'point_of_interest', u'establishment']"
0,43.300355,5.572487,Boutique Orange,ChIJO3kXVCWjyRIRiZLy7I0KLUQ,"[u'store', u'point_of_interest', u'establishment']"
0,43.3040889,5.5375461,Etrier D'aubagne,ChIJOT1xYNe8yRIRSyAvJUycbLg,"[u'point_of_interest', u'establishment']"
0,43.299719,5.53404,La Thuilière,ChIJY3YGH--8yRIRuPKW3xz8rqs,"[u'sublocality_level_1', u'sublocality', u'political']"
0,43.3053409,5.5347195,Chagot Philippe,ChIJZ84GPeS8yRIRUPQqRlIGzBI,"[u'point_of_interest', u'establishment']"
0,43.3065223,5.5425559,Sarl Dovetta Et Fils,ChIJG9Pydt68yRIRMvxZdOUBQ64,"[u'painter', u'point_of_interest', u'establishment']"
0,43.2979877,5.5440129,Negrel Margaux Suzanne,ChIJHdApuMO8yRIRe4XyIiU5iAE,"[u'real_estate_agency', u'point_of_interest', u'establishment']"
0,43.2982506,5.5419626,Egea Joelle,ChIJAWYfasK8yRIR6rDrsMtZlpA,"[u'point_of_interest', u'establishment']"
0,43.2982149,5.5418492,Victor Patrick Marie,ChIJAWYfasK8yRIR2Tl0VAa5BXA,"[u'point_of_interest', u'establishment']"
0,43.2982149,5.5418492,Association Ludik Attitude,ChIJAWYfasK8yRIRMUNCzsbuol4,"[u'point_of_interest', u'establishment']"
0,43.30672,5.5411472,Petit Veronique Marie,ChIJJXY0BN68yRIRmZn3vBiOxV4,"[u'point_of_interest', u'establishment']"
0,43.3074076,5.542197,Idéalis (Eurl),ChIJjwMHa968yRIRIkZQdChqNeM,"[u'furniture_store', u'home_goods_store', u'store', u'point_of_interest', u'establishment']"
0,43.2964077,5.5425399,Aubagne Services Professionnels,ChIJYZIpj8G8yRIRtzRVqE_CpHw,"[u'general_contractor', u'point_of_interest', u'establishment']"
0,43.295979,5.5440509,13400,ChIJHVXdb8G8yRIRzlZqtPWcwXs,"[u'health', u'point_of_interest', u'establishment']"
0,43.3068044,5.5382492,Hubert Celine,ChIJ9yfK1eC8yRIR-tNkMZ7QD88,"[u'point_of_interest', u'establishment']"
0,43.3075141,5.53915,Mamlouk Mohamed,ChIJf4ZpweC8yRIRHMpm3jehHqs,"[u'point_of_interest', u'establishment']"
0,43.2957796,5.5447521,Amselle Jean-Louis,ChIJwRgCRcG8yRIRg4hWRJI4aWg,"[u'point_of_interest', u'establishment']"
0,43.2909177,5.5939439,Inter-Hôtel Le Relais D'Aubagne,ChIJgeDD0BGjyRIRsaE8CAXcc9o,"[u'lodging', u'restaurant', u'food', u'point_of_interest', u'establishment']"
0,43.294665,5.595455,Chaussland,ChIJyZQTew6jyRIRCh10jyfCK2A,"[u'shoe_store', u'store', u'point_of_interest', u'establishment']"
0,43.2897651,5.592776,Fly Aubagne,ChIJPSAdvnKjyRIRK1qAy_IyRtU,"[u'furniture_store', u'home_goods_store', u'store', u'point_of_interest', u'establishment']"
0,43.29572,5.595376,Leroy Merlin Aubagne,ChIJwctWDzejyRIRwyJ6ejekwiw,"[u'furniture_store', u'home_goods_store', u'store', u'point_of_interest', u'establishment']"
0,43.29851,5.594315,Jardinerie Truffaut Aubagne,ChIJn6f0jTmjyRIRxC0WVUBqR1c,"[u'store', u'point_of_interest', u'establishment']"
0,43.2893023,5.594142,MICROCONCEPT - COMPUCITY,ChIJPSAdvnKjyRIRaL2G7v-13UM,"[u'electronics_store', u'store', u'point_of_interest', u'establishment']"
0,43.2960614,5.5970889,Alinéa Aubagne,ChIJJT_kVw6jyRIRanBhTlIJslw,"[u'furniture_store', u'home_goods_store', u'store', u'point_of_interest', u'establishment']"
0,43.297629,5.593435,Decathlon,ChIJwctWDzejyRIRgjEnIStu4KA,"[u'shoe_store', u'clothing_store', u'store', u'point_of_interest', u'establishment']"
0,43.2897955,5.593822,Orchestra,ChIJyyal8DOjyRIRqM22-QluSwY,"[u'clothing_store', u'store', u'point_of_interest', u'establishment']"
0,43.2893028,5.5981433,Ambiance & Nature,ChIJyWDKrAyjyRIRkfqAHfVxa2o,"[u'furniture_store', u'home_goods_store', u'store', u'point_of_interest', u'establishment']"
0,43.2967576,5.5950491,Norauto Aubagne - Pneu & Entretien Auto,ChIJyyal8DOjyRIRm2d6z0kKD-k,"[u'car_repair', u'store', u'point_of_interest', u'establishment']"
0,43.290046,5.593062,Maisons du Monde,ChIJLf6VzRGjyRIRPwl2VVT1cKo,"[u'furniture_store', u'home_goods_store', u'store', u'point_of_interest', u'establishment']"
0,43.290638,5.593028,ROGARAY,ChIJiT7aoRKjyRIRIyZaIZxU2Zw,"[u'home_goods_store', u'store', u'point_of_interest', u'establishment']"
0,43.297293,5.596053,Cabesto Aubagne,ChIJGUAaqQ2jyRIRzuiVjEX3CMo,"[u'clothing_store', u'store', u'point_of_interest', u'establishment']"
0,43.2896238,5.5985508,Cuisinella,ChIJXzMhqgyjyRIRmT2BQuadQAQ,"[u'general_contractor', u'furniture_store', u'home_goods_store', u'store', u'point_of_interest', u'establishment']"
0,43.290428,5.595291,Retif Aubagne,ChIJn6c5VQujyRIRLjGF7o13sH4,"[u'furniture_store', u'home_goods_store', u'store', u'point_of_interest', u'establishment']"
0,43.289067,5.5986765,Carglass® Aubagne,ChIJvZQoq3SjyRIRr9m2IJXgn1g,"[u'point_of_interest', u'establishment']"
0,43.2889764,5.5994129,Frisquet SA,ChIJZRp0tHSjyRIRIH1ls7IjTfo,"[u'point_of_interest', u'establishment']"
0,43.2915222,5.5985343,Atl,ChIJ-XDnfwujyRIRlrfsn3wmWzk,"[u'general_contractor', u'point_of_interest', u'establishment']"
0,43.289786,5.596783,Toyota Aubagne,ChIJnes-zwyjyRIRDlRLyMXdyks,"[u'car_dealer', u'car_repair', u'store', u'point_of_interest', u'establishment']"
0,43.2901687,5.5972949,O-Viva - Piscine à débordement avec volet immergé,ChIJL_1suAyjyRIRmQLcLII-0qM,"[u'general_contractor', u'store', u'point_of_interest', u'establishment']"
0,43.2882,5.59427,Soleil Rouge,ChIJPSAdvnKjyRIRQElhqw5o7wE,"[u'gym', u'beauty_salon', u'spa', u'health', u'point_of_interest', u'establishment']"
0,43.296059,5.5929084,BOUYGUES TELECOM CA AUBAGNE CC,ChIJjaipCDejyRIRWmqWDbDIp-8,"[u'store', u'point_of_interest', u'establishment']"
0,43.297902,5.596621,Animalis Aubagne,ChIJ0dWo3qOjyRIRkllDRloCY2I,"[u'store', u'point_of_interest', u'establishment']"
0,43.2884423,5.5945137,A+GLASS AUBAGNE,ChIJK5ZavXKjyRIRzCA7Cucp8_E,"[u'point_of_interest', u'establishment']"
0,43.2897093,5.5940681,Kéria,ChIJK5ZavXKjyRIRuEHQblP4S_U,"[u'home_goods_store', u'store', u'point_of_interest', u'establishment']"
0,43.2860991,5.5952665,La Part des Anges,ChIJkR1mRXKjyRIRjJgysxL__p0,"[u'liquor_store', u'food', u'store', u'point_of_interest', u'establishment']"
0,43.2892791,5.5967001,Aqua'form,ChIJV8uOLnOjyRIR758oH-gns2A,"[u'gym', u'health', u'point_of_interest', u'establishment']"
0,43.2905323,5.5950022,Roure Automobiles - Véhicules d'occasion,ChIJn4tgbA2jyRIRg2nBj6u-BJU,"[u'car_dealer', u'car_repair', u'store', u'point_of_interest', u'establishment']"
0,43.2912343,5.596735,Atelier 108,ChIJvc5g8AyjyRIR2Op2xlMtCnY,"[u'point_of_interest', u'establishment']"
0,43.294665,5.595455,JDF,ChIJyZQTew6jyRIRvICLto7HChU,"[u'store', u'point_of_interest', u'establishment']"
0,43.28876,5.5935918,Caisse d'Epargne Aubagne la Source,ChIJaQw93EejyRIRQ49Vpk6y1e0,"[u'bank', u'atm', u'finance', u'point_of_interest', u'establishment']"
0,43.2910322,5.5947629,Volkswagen Autosud Bernabeu Aubagne,ChIJyyal8DOjyRIRXRWIMhV8MA8,"[u'car_dealer', u'car_repair', u'store', u'point_of_interest', u'establishment']"
0,43.2927017,5.5958488,Chaussures Lusi France,ChIJE4nttA2jyRIRZajtUjjv1X8,"[u'clothing_store', u'store', u'point_of_interest', u'establishment']"
0,43.2909135,5.5984709,Santons Escoffier Fils,ChIJi4aSnAyjyRIRWkUC6U7X_A8,"[u'local_government_office', u'point_of_interest', u'establishment']"
0,43.2879155,5.5962218,Pimas Orthopédie,ChIJhdhaIHOjyRIR-u1norDE8-E,"[u'car_repair', u'point_of_interest', u'establishment']"
0,43.2944273,5.5933917,Barzi Voyages,ChIJPQut1AujyRIRIGk4zB5Lvws,"[u'travel_agency', u'point_of_interest', u'establishment']"
0,43.2879383,5.5945487,Prolians - Descours & Cabaud PACA,ChIJBd-NZ3KjyRIR9gFpxoUcifo,"[u'hardware_store', u'clothing_store', u'store', u'point_of_interest', u'establishment']"
0,43.2916362,5.5970574,S.F Composites,ChIJ40iB9gyjyRIR_DeDTJ8BK00,"[u'store', u'point_of_interest', u'establishment']"
0,43.296482,5.36978,Marseille,ChIJM1PaREO_yRIRIAKX_aUZCAQ,"[u'locality', u'political']"
0,43.2863153,5.5329237,Le Palestre,ChIJjaipCDejyRIR4GEwFf5HvTM,"[u'gym', u'health', u'point_of_interest', u'establishment']"
0,43.2869132,5.5321522,Les Enfants gâtés,ChIJaU1dnZG8yRIRyETUaQyPMYI,"[u'restaurant', u'food', u'point_of_interest', u'establishment']"
0,43.2871967,5.5294476,Culture Vélo Marseille,ChIJs3zDEo68yRIRZ8ZPs1jPM0M,"[u'bicycle_store', u'store', u'point_of_interest', u'establishment']"
0,43.2873303,5.5300512,Carway,ChIJJXHHA468yRIRz17HbIH6hOE,"[u'car_repair', u'point_of_interest', u'establishment']"
0,43.2909431,5.5305497,ADOC France,ChIJRxvLX428yRIRtvPMTtBPaSk,"[u'point_of_interest', u'establishment']"
0,43.28696,5.533161,GARAGE ASSIST'AZUR,ChIJFT78eZG8yRIRRnjbbUQtBqA,"[u'car_repair', u'point_of_interest', u'establishment']"
0,43.2868431,5.5328425,Alliance meubles,ChIJjaipCDejyRIR2WoA4ZaNinM,"[u'furniture_store', u'home_goods_store', u'store', u'point_of_interest', u'establishment']"
0,43.286765,5.532752,"Sarl PHI : Travaux de construction, rénovation, maçonnerie générale",ChIJmZG7nZG8yRIRZJ8PW2HtIWQ,"[u'general_contractor', u'point_of_interest', u'establishment']"
0,43.288602,5.528349,Basset Diffusion,ChIJWde_xY28yRIRv_cUoIzQ_gk,"[u'point_of_interest', u'establishment']"
0,43.285875,5.534276,POINTEX CHR,ChIJd7SkPZG8yRIRH3EnAQwWHFw,"[u'point_of_interest', u'establishment']"
0,43.28701,5.529945,Agisud,ChIJxeSZHI68yRIR4J3k8vVoPI8,"[u'real_estate_agency', u'point_of_interest', u'establishment']"
0,43.2855997,5.5344989,Triangle (Sté),ChIJmTsQFpG8yRIRqgIfmtqEczk,"[u'general_contractor', u'point_of_interest', u'establishment']"
0,43.2874443,5.5292648,doc biker,ChIJ0yyACY68yRIRKLNVSOS4g0g,"[u'car_repair', u'point_of_interest', u'establishment']"
0,43.2996875,5.5277053,La Bastide des Escourches,ChIJc9wbu_G8yRIRFQgwIiIq6M0,"[u'lodging', u'point_of_interest', u'establishment']"
0,43.2867396,5.5303079,HR Levage,ChIJkw3t4ZG8yRIRcvSPqDL3_Bc,"[u'point_of_interest', u'establishment']"
0,43.285524,5.5381585,Maison Française des Cires,ChIJO3gCAZe8yRIRG3NESacYczE,"[u'department_store', u'store', u'point_of_interest', u'establishment']"
0,43.287507,5.528667,Garage Bruna,ChIJjaipCDejyRIRFEbCfUCN02w,"[u'car_dealer', u'car_repair', u'store', u'point_of_interest', u'establishment']"
0,43.286789,5.529888,ICOP Formations - PACA,ChIJQWqEHI68yRIR9F_IqJxwhxA,"[u'point_of_interest', u'establishment']"
0,43.2856938,5.5325586,goodbyecar,ChIJF9HJqJG8yRIRHrZe06zXMQk,"[u'point_of_interest', u'establishment']"
0,43.2869537,5.529007,Beta France,ChIJs3zDEo68yRIR6UUmHt8GWq0,"[u'point_of_interest', u'establishment']"
0,43.2870421,5.5289844,S'Kap Motor,ChIJs3zDEo68yRIRX5UgYKbtzUE,"[u'point_of_interest', u'establishment']"
0,43.287042,5.528984,Editions Quintessence,ChIJs3zDEo68yRIRnW3euRmdfwk,"[u'point_of_interest', u'establishment']"
