,Latitude,Longitude,Name,Place_id,Type
0,43.8986159,4.747895,Barbentane,ChIJj765TZXptRIRKwkkUm9u3Xc,"[u'locality', u'political']"
0,43.8995634,4.7467208,Le Saint Jean,ChIJp64n7sDptRIRjSRr-CsGsIg,"[u'lodging', u'restaurant', u'food', u'point_of_interest', u'establishment']"
0,43.8924753,4.7467518,mas de bassette,ChIJmxi-ccjptRIR0M6cD7JwkE0,"[u'lodging', u'point_of_interest', u'establishment']"
0,43.8995721,4.747488,Office du Tourisme,ChIJWyv_kcDptRIRG52lZsBiib8,"[u'travel_agency', u'point_of_interest', u'establishment']"
0,43.9004852,4.7474798,Château de Barbentane,ChIJW_uyicDptRIRx-W1A1Iknbc,"[u'point_of_interest', u'establishment']"
0,43.899231,4.748653,Immobilière de Provence,ChIJJ-T4Yr_ptRIR_R0Et325Q2c,"[u'real_estate_agency', u'point_of_interest', u'establishment']"
0,43.899191,4.74678,La Paloma,ChIJ15VF6cDptRIRYUMKHgqlnsE,"[u'lodging', u'point_of_interest', u'establishment']"
0,43.8990731,4.7480873,Pizzeria de la Tour,ChIJBV5EmcDptRIRt-icYqVBfAc,"[u'bar', u'restaurant', u'food', u'point_of_interest', u'establishment']"
0,43.8990603,4.7460429,Maison de Retraite Barbentane La Raphaële,ChIJw3-W5MDptRIRZFoeBF39qAE,"[u'health', u'point_of_interest', u'establishment']"
0,43.9011717,4.7553213,Barbentane immobilier,ChIJLQC9lr3ptRIRvZYrYet01p0,"[u'real_estate_agency', u'point_of_interest', u'establishment']"
0,43.899314,4.746437,La Paloma Maison d'hôtes,ChIJK_Dq5cDptRIRg5kQHcVK9vo,"[u'travel_agency', u'real_estate_agency', u'lodging', u'point_of_interest', u'establishment']"
0,43.90005,4.74567,Fosco Sarl,ChIJ-QL7AMHptRIRl8F5QfncHQs,"[u'moving_company', u'real_estate_agency', u'point_of_interest', u'establishment']"
0,43.8994856,4.7485802,Le Romarin,ChIJa7_OYr_ptRIRBAJMd1UJ4Yg,"[u'restaurant', u'food', u'point_of_interest', u'establishment']"
0,43.8993765,4.7489287,Infobureau.com,ChIJG8Coxc3rtRIRFtQj6RqIM7s,"[u'store', u'point_of_interest', u'establishment']"
0,43.900955,4.7497408,Ecole Notre Dame,ChIJT0yxlb_ptRIRlIP83wH8Y28,"[u'city_hall', u'local_government_office', u'point_of_interest', u'establishment']"
0,43.8996581,4.7479548,Aladin et la Princesse,ChIJE9H8j8DptRIRMCipJDMPjW4,"[u'point_of_interest', u'establishment']"
0,43.899515,4.747102,L'Atelier - Design d'espace,ChIJYaJY7cDptRIRxfmZn8mraXU,"[u'point_of_interest', u'establishment']"
0,43.8993327,4.7476776,Crédit Agricole Alpes Provence,ChIJYfAv7MDptRIRYISwkrbauFQ,"[u'bank', u'atm', u'finance', u'point_of_interest', u'establishment']"
0,43.8982676,4.7443655,Anaphore,ChIJYQz7SMHptRIRrgPlWGANsug,"[u'point_of_interest', u'establishment']"
0,43.899521,4.747906,Sitexprim,ChIJLwA6hcDptRIRfLbhK3GrtwU,"[u'point_of_interest', u'establishment']"
0,43.899282,4.749876,Caisse d'Epargne Barbentane,ChIJW_n6Er_ptRIRin6UwYQcCFk,"[u'bank', u'finance', u'point_of_interest', u'establishment']"
0,43.8995721,4.747488,Le Forum de la Tour,ChIJWyv_kcDptRIRKzV4TrMaXU4,"[u'point_of_interest', u'establishment']"
0,43.8987,4.74774,SARL Sabatier Guillaume,ChIJdSU0-sjotRIRD3qwkPXByzQ,"[u'point_of_interest', u'establishment']"
0,43.8986015,4.7469029,La Mondragona,ChIJnacox8DptRIR7xYgRyXTq0o,"[u'lodging', u'point_of_interest', u'establishment']"
0,43.8987,4.74774,Provence-plats,ChIJt3XDvMDptRIRs4mXoccT8yc,"[u'restaurant', u'food', u'point_of_interest', u'establishment']"
0,43.8947784,4.7454989,Gaudin Conte Gaudin Veronique,ChIJewvf9cbptRIRI9rrJdFN8yI,"[u'point_of_interest', u'establishment']"
0,43.8987,4.74774,Standance,ChIJt3XDvMDptRIR6sigKIYQRrA,"[u'furniture_store', u'home_goods_store', u'store', u'point_of_interest', u'establishment']"
0,43.899578,4.7478969,Post Office,ChIJt3XDvMDptRIREI_lPG1KUEI,"[u'post_office', u'finance', u'point_of_interest', u'establishment']"
0,43.9000596,4.7518198,Commune de Barbentane,ChIJWyv_kcDptRIRAeKKXQWYISM,"[u'city_hall', u'local_government_office', u'point_of_interest', u'establishment']"
0,43.8996564,4.7476127,Créapassion,ChIJw4GKjsDptRIRMihuCPrG1Hs,"[u'electronics_store', u'home_goods_store', u'store', u'point_of_interest', u'establishment']"
0,43.8917384,4.7479013,Chambres d'hôtes,ChIJASyQGMjptRIRwkxwGIGObqo,"[u'lodging', u'point_of_interest', u'establishment']"
0,43.899564,4.750997,Isa Créations,ChIJ01t0Ar_ptRIRuITvv_DcpYs,"[u'hair_care', u'point_of_interest', u'establishment']"
0,43.8982251,4.7456336,Euro Logiciel Service,ChIJaeYeKcHptRIR7JEtJPhFeTM,"[u'point_of_interest', u'establishment']"
0,43.8990731,4.7480873,Pizzeria de la Tour,ChIJg9w7mcDptRIRaW5fbn3c54Q,"[u'restaurant', u'food', u'point_of_interest', u'establishment']"
0,43.8992548,4.7476353,Frédéric Maigne - Un matin sans nuage,ChIJF9AgkcDptRIR21-f86cK7QY,"[u'gym', u'health', u'point_of_interest', u'establishment']"
0,43.9001907,4.750221,Art Informatique,ChIJsxtUVL7ptRIRcojj3mRRRBw,"[u'point_of_interest', u'establishment']"
0,43.8995026,4.7480165,Snc Tabac Le Gege,ChIJAV_OhMDptRIRsivJjS6XqXE,"[u'store', u'point_of_interest', u'establishment']"
0,43.8995909,4.7505543,Octopussy Prod,ChIJqTS1Bb_ptRIRVSlMoAFXxEI,"[u'point_of_interest', u'establishment']"
0,43.8990661,4.7460195,Ehpad Intercommunal La Raphaële,ChIJZVY-48DptRIRjVucFUWhACE,"[u'health', u'point_of_interest', u'establishment']"
0,43.8994773,4.7471107,La Mam Gribouille,ChIJ5TBF7cDptRIRGW05gvGTJ9k,"[u'point_of_interest', u'establishment']"
0,43.8995659,4.7469381,Mairie,ChIJKxsJnL_ptRIRB309atjdezE,"[u'city_hall', u'local_government_office', u'point_of_interest', u'establishment']"
0,43.89988,4.7473852,Mairie,ChIJLRa-i8DptRIR6Rn_5OPV9Iw,"[u'point_of_interest', u'establishment']"
0,43.9000928,4.7531017,Nectar de Code,ChIJmwaafL7ptRIRGATicNZzOPs,"[u'point_of_interest', u'establishment']"
0,43.8981283,4.7415671,Vavasseur Isabelle,ChIJgb-39cPptRIR_k13DGupegE,"[u'point_of_interest', u'establishment']"
0,43.9007628,4.7490724,A VOT' SERVICES,ChIJE5LOlr_ptRIR_pGUYeezKmI,"[u'point_of_interest', u'establishment']"
0,43.8990115,4.7421207,Association les Bois Sans Soif,ChIJRRYj68PptRIRFXip9jaTSoY,"[u'point_of_interest', u'establishment']"
0,43.9004756,4.7541665,Banque Chaix,ChIJLRna2r3ptRIRJ4OMrxLUBKo,"[u'bank', u'finance', u'point_of_interest', u'establishment']"
0,43.8989579,4.7414252,Astro Plomberie Sarl,ChIJDVaml8PptRIR-XJ9gWx7wXY,"[u'plumber', u'point_of_interest', u'establishment']"
0,43.8989773,4.7413172,ASTRO Sanitaire & Thermique,ChIJY5YqmMPptRIRos9y_6JXvQo,"[u'plumber', u'general_contractor', u'point_of_interest', u'establishment']"
0,43.892729,4.75889,Grosfillex,ChIJWzWWVKXptRIRRxIC636htJI,"[u'point_of_interest', u'establishment']"
0,43.9013445,4.7447857,Optique Thiery,ChIJ6Yq9v8HptRIReo25WANZhB0,"[u'health', u'store', u'point_of_interest', u'establishment']"
0,43.9010814,4.7552657,Auto Ecole Barbentane,ChIJ0VI8eL3ptRIRauKG5M_Xojo,"[u'point_of_interest', u'establishment']"
0,43.901804,4.754183,Moucadeau Benjamin Ostéopathe,ChIJe8pD-r3ptRIRiz9JZPPWUWM,"[u'health', u'point_of_interest', u'establishment']"
0,43.9024452,4.7526688,Axiom Immobilier,ChIJnaI68b3ptRIRwYt5Y_kayiU,"[u'real_estate_agency', u'point_of_interest', u'establishment']"
0,43.901771,4.7555803,Pizza de la Forge,ChIJY2F5zNjptRIR-VRoLoZsvvA,"[u'restaurant', u'food', u'point_of_interest', u'establishment']"
0,43.899904,4.750087,Me Pierre JEAN - Notaire,ChIJN_eEEr_ptRIR60Jam0pkTDE,"[u'finance', u'point_of_interest', u'establishment']"
0,43.9016358,4.7563854,Deurrieu Frères Sarl,ChIJRVU0fL3ptRIRlOKtyBM7b3M,"[u'food', u'store', u'point_of_interest', u'establishment']"
0,43.9001858,4.7470826,ASA Irrigation de Barbentane,ChIJBRJyX8DptRIRhOo9TUwrjqY,"[u'point_of_interest', u'establishment']"
0,43.9012259,4.7500813,Rey Andre,ChIJv02jlb_ptRIRNu1MmiX5bnE,"[u'point_of_interest', u'establishment']"
0,43.8989695,4.740168,Rey Marie Claire,ChIJ0X9mcsPptRIRWCJQxJY1B30,"[u'restaurant', u'food', u'point_of_interest', u'establishment']"
0,43.8853719,4.754564,13570,ChIJsR59drPptRIRvMQIz1Sv5gw,"[u'point_of_interest', u'establishment']"
0,43.8844562,4.7547752,SCEA Vignaud Et Filles,ChIJjX6OarPptRIRJco4PZyNFsY,"[u'point_of_interest', u'establishment']"
0,43.884367,4.7547911,Bou Pierre,ChIJjX6OarPptRIRjSg2hFL_YWU,"[u'point_of_interest', u'establishment']"
0,43.884241,4.754909,Vincent Nicolas,ChIJsQgLQLPptRIRduVnDedred0,"[u'point_of_interest', u'establishment']"
0,43.884778,4.756647,Les Carrières,ChIJr27E5LLptRIRk9zbUQErwZU,"[u'sublocality_level_1', u'sublocality', u'political']"
0,43.905778,4.759929,La Chinquine,ChIJdcid65nptRIR2ThvQqrqumM,"[u'sublocality_level_1', u'sublocality', u'political']"
0,43.903527,4.7467493,Axe Communication,ChIJ50QBkerptRIRqgWHOAalumA,"[u'point_of_interest', u'establishment']"
0,43.9025036,4.7572778,Skulte coiffure,ChIJuxUwAXTptRIRzi98P_cbHf4,"[u'hair_care', u'health', u'point_of_interest', u'establishment']"
0,43.9028971,4.7419649,Mairie,ChIJKxsJnL_ptRIRiIuC4v0n6FQ,"[u'city_hall', u'local_government_office', u'point_of_interest', u'establishment']"
0,43.9046749,4.7596096,Le Nettoyage Professionnel,ChIJ_xJoNJ3ptRIRW4yF7XRVYdI,"[u'point_of_interest', u'establishment']"
0,43.9022977,4.7595835,Provence Dauphine,ChIJL3vGCJjptRIRFBCrQYqNYDo,"[u'food', u'store', u'point_of_interest', u'establishment']"
0,43.9088599,4.7577117,cecilesthetiquebio,ChIJTywAjJDptRIR8XE1CLNwM_o,"[u'spa', u'health', u'food', u'store', u'point_of_interest', u'establishment']"
0,43.9029429,4.7605857,Fabretti Catherine,ChIJIa4EaZjptRIRsnmzbHvFQFs,"[u'health', u'point_of_interest', u'establishment']"
0,43.8976362,4.7649819,Logis Hôtel Castel Mouisson,ChIJ_zPxYqjptRIRw31aktpRiyQ,"[u'lodging', u'point_of_interest', u'establishment']"
0,43.8978685,4.7641873,Golf In Tete,ChIJ0c-zYajptRIROwLIjHuC7to,"[u'point_of_interest', u'establishment']"
0,43.896722,4.766286,Laumaco,ChIJB3dy1KbptRIRt8hE8DcuK9U,"[u'point_of_interest', u'establishment']"
0,43.9010232,4.7644274,Ecal,ChIJjakC8aHptRIRBNZ5zF4V0t0,"[u'point_of_interest', u'establishment']"
0,43.90232,4.765008,TFT,ChIJZz6xXJ_ptRIRnrYERxTti84,"[u'point_of_interest', u'establishment']"
0,43.90232,4.765008,Primsud,ChIJZz6xXJ_ptRIRnXJ4mFLmnpI,"[u'point_of_interest', u'establishment']"
0,43.8984687,4.7640864,Salle Le Manoir,ChIJw5mRYaHptRIRxowUEb1BfHI,"[u'point_of_interest', u'establishment']"
0,43.899466,4.762622,Sautrot Martine,ChIJ3UtLtaPptRIRjMyFAVzl4p0,"[u'point_of_interest', u'establishment']"
0,43.8967998,4.7662495,Sci les Mourgue,ChIJV3SQ06bptRIRBHEm746mV_8,"[u'point_of_interest', u'establishment']"
0,43.8967998,4.7662495,Giband René,ChIJV3SQ06bptRIRFSGjkgaUxAY,"[u'restaurant', u'food', u'point_of_interest', u'establishment']"
0,43.8997124,4.764351,Gautier Marcel Charles,ChIJI-pZgaHptRIRpFlNGWB05KI,"[u'point_of_interest', u'establishment']"
0,43.9010814,4.7552657,Azzopardi Julien,ChIJZyd6lr3ptRIRTtaPtZbPenc,"[u'point_of_interest', u'establishment']"
0,43.9009119,4.7546487,Carosserie Chauvet,ChIJh9iSwb3ptRIR286p9kL1EOI,"[u'point_of_interest', u'establishment']"
0,43.9004142,4.7529904,Barbentane location,ChIJV1UAV77ptRIRfXx8iGW2AJc,"[u'real_estate_agency', u'point_of_interest', u'establishment']"
0,43.9000975,4.7523478,Galperine Evelyne,ChIJkbFlYL7ptRIRRNO_4O0wXkg,"[u'point_of_interest', u'establishment']"
0,43.8975834,4.7670753,Baud Marcel,ChIJeXX02qDptRIR8rYChgg6pNY,"[u'point_of_interest', u'establishment']"
0,43.9015449,4.7566427,Nature Beaute,ChIJk3Fuer3ptRIRbRWc1ZVyvJQ,"[u'beauty_salon', u'point_of_interest', u'establishment']"
0,43.9014475,4.7558764,Nem d'Asie,ChIJ65hFm73ptRIRz-t-dN76-YA,"[u'restaurant', u'food', u'point_of_interest', u'establishment']"
0,43.9015196,4.7559898,Arnaud Hervé,ChIJOZlJg73ptRIRYHGvAbcH9pA,"[u'point_of_interest', u'establishment']"
0,43.897148,4.749189,13570,ChIJTxxHsLjptRIRCF44tTVVyaw,"[u'parking', u'point_of_interest', u'establishment']"
0,43.9004091,4.7526063,Bertaud Michel Etienne,ChIJix8TZr7ptRIR0A5E9pYLODw,"[u'point_of_interest', u'establishment']"
0,43.9003034,4.7642587,Reset,ChIJMSmcKKLptRIRpsz9ICgGa3Q,"[u'electrician', u'point_of_interest', u'establishment']"
0,43.898212,4.749844,13570,ChIJFQiKN7_ptRIR_-rAtcw0IPg,"[u'church', u'place_of_worship', u'point_of_interest', u'establishment']"
0,43.901775,4.7575559,Johanna Rodriguez Biscarrat,ChIJH2MhZ73ptRIRjxBn-Q3ARYI,"[u'furniture_store', u'home_goods_store', u'store', u'point_of_interest', u'establishment']"
0,43.898291,4.729389,S.a.r.l. Bernard,ChIJY2F5zNjptRIRzeTPZpJXPpQ,"[u'point_of_interest', u'establishment']"
0,43.898866,4.729281,Yoga Alpilles Durance,ChIJO6XpNt_ptRIRtBps6gSoJPk,"[u'point_of_interest', u'establishment']"
0,43.8947306,4.7430307,Stade Rampale,ChIJNzpt2cXptRIRWBmXTV7mLMk,"[u'park', u'point_of_interest', u'establishment']"
0,43.8955645,4.7450007,Tarrieu Jacques,ChIJewvf9cbptRIRfIouJM20dUk,"[u'accounting', u'finance', u'point_of_interest', u'establishment']"
0,43.8955645,4.7450007,Mariotti Adrien,ChIJewvf9cbptRIRqNHUavNvVRE,"[u'plumber', u'point_of_interest', u'establishment']"
0,43.8982958,4.741841,Olives Jose,ChIJM82OjMPptRIRGWUHNw3C2SY,"[u'point_of_interest', u'establishment']"
0,43.8985731,4.7402147,Abis,ChIJXSljesPptRIRLX_YQR7DStE,"[u'point_of_interest', u'establishment']"
0,43.8986023,4.7407241,Terre du sud,ChIJp0JSncPptRIRJ40OVwIssmc,"[u'travel_agency', u'point_of_interest', u'establishment']"
0,43.8974987,4.7442515,Veith Thierry,ChIJE0KztsbptRIROo2p14xYU3I,"[u'point_of_interest', u'establishment']"
0,43.89875,4.7421695,Bacot Berard Beatrice,ChIJFTKt7sPptRIRJZDz45f4E5Y,"[u'grocery_or_supermarket', u'food', u'store', u'point_of_interest', u'establishment']"
0,43.8986188,4.7429728,Berquet Véronique,ChIJwc00_cPptRIREjFnxMqM6Cs,"[u'point_of_interest', u'establishment']"
0,43.8991156,4.7400225,Marteau Frederic,ChIJwz1jcsPptRIRV--Qf_bwyv0,"[u'point_of_interest', u'establishment']"
0,43.8990202,4.742077,Mouret Romain Paul Jacques,ChIJ8z0j68PptRIRCkYbXFLdrso,"[u'point_of_interest', u'establishment']"
0,43.8976933,4.7450689,Fages Dominique,ChIJm_i7zcbptRIR2evo4HEaE0E,"[u'point_of_interest', u'establishment']"
0,43.8531509,4.769296,Graveson,ChIJkVZLW33otRIRwAKX_aUZCAQ,"[u'locality', u'political']"
0,43.884654,4.764794,Maison Familiale Rurale,ChIJsQgLQLPptRIRrX9GXgof5Vk,"[u'point_of_interest', u'establishment']"
0,43.8834085,4.7696601,Salle de Séminaire et Réception Le Terrefort,ChIJvz7UDQDptRIRTmuaAe6HU-4,"[u'point_of_interest', u'establishment']"
0,43.8839195,4.7700058,Gite Le Terrefort,ChIJCTJaDQDptRIRvIvHj1nWh7o,"[u'lodging', u'point_of_interest', u'establishment']"
0,43.8833569,4.735135,13570,ChIJ_5em0CzotRIRNbfkeS5A3B4,"[u'parking', u'point_of_interest', u'establishment']"
0,43.862716,4.693618,Boulbon,ChIJi-UcI9nCtRIRl0iOC73uYDs,"[u'locality', u'political']"
0,43.9140659,4.7477,Courdon Didier,ChIJB6dU1_LptRIRUWHgk4kPw64,"[u'point_of_interest', u'establishment']"
0,43.9140659,4.7477,L'Ile des Iscles,ChIJB6dU1_LptRIRY8G3rLKDLQM,"[u'food', u'point_of_interest', u'establishment']"
0,43.9096514,4.7467478,Chauvet Claude,ChIJB6dU1_LptRIR76AEgMN-QeU,"[u'food', u'point_of_interest', u'establishment']"
0,43.9131191,4.7583916,Roque Ludovic,ChIJWfjqjo_ptRIRwY4nD57uXMs,"[u'point_of_interest', u'establishment']"
0,43.9088599,4.7577117,Lefevre Jean-Philippe,ChIJTywAjJDptRIR087lVf5AQ6Y,"[u'point_of_interest', u'establishment']"
0,43.9088599,4.7577117,Moucadeau Teyssedou Janine,ChIJTywAjJDptRIRYUNu3uP7X5Y,"[u'food', u'point_of_interest', u'establishment']"
0,43.9088843,4.7578318,Raymond Cecile,ChIJTywAjJDptRIR4HRWUiu3XrI,"[u'point_of_interest', u'establishment']"
0,43.9136125,4.7593535,ecuries du grand rechaussier,ChIJCRGMeYXptRIRaYgY9N305Gg,"[u'travel_agency', u'point_of_interest', u'establishment']"
0,43.9050881,4.7477871,Sabre Enjolras Simone Marcelle,ChIJqQPLKOvptRIRR0yTSCSf-_g,"[u'food', u'point_of_interest', u'establishment']"
0,43.9043919,4.7466678,Blanche Bresson Institut,ChIJ50QBkerptRIRZDH82XDBvCY,"[u'grocery_or_supermarket', u'food', u'store', u'point_of_interest', u'establishment']"
0,43.9060848,4.7677714,Mousses Etoiles,ChIJk3u39TbptRIRwyUQ_lPbVQU,"[u'point_of_interest', u'establishment']"
0,43.9044025,4.7613234,Magic Flyer International,ChIJuxUwAXTptRIR_d4h5urXc_4,"[u'point_of_interest', u'establishment']"
0,43.905576,4.766456,Intermarché Contact,ChIJT98WUHbptRIRNqQQoBW-Flk,"[u'grocery_or_supermarket', u'food', u'store', u'point_of_interest', u'establishment']"
0,43.905055,4.763452,Apiculture Remuaux Sud-Est,ChIJuxUwAXTptRIREDxJs5POy1k,"[u'point_of_interest', u'establishment']"
0,43.906285,4.767391,Delta Fenêtres,ChIJT98WUHbptRIRAKqEM7FEDrk,"[u'store', u'point_of_interest', u'establishment']"
0,43.906285,4.767391,Di Vito Robert,ChIJTywAjJDptRIRZjDOdscWk6U,"[u'painter', u'point_of_interest', u'establishment']"
0,43.9055416,4.7678035,A D Graphic,ChIJD4YzWozrtRIRCy6naDuaRKQ,"[u'point_of_interest', u'establishment']"
0,43.90553,4.768313,GEORGES PULH - METALLERIE - FERRONNERIE - CONSTRUCTIONS METALLIQUES,ChIJT98WUHbptRIRAJUuvHEqy1s,"[u'point_of_interest', u'establishment']"
0,43.9031638,4.759267,Gabellari Sedat Gisele,ChIJNeaDGJjptRIRabpzQ9tutPA,"[u'hair_care', u'point_of_interest', u'establishment']"
0,43.9033374,4.7594429,Clement Robert,ChIJd3wrI5jptRIREQ9xlUa02rE,"[u'point_of_interest', u'establishment']"
0,43.9028479,4.7594589,ANGELI MACONNERIE,ChIJC5U5JJjptRIRapmI4H_NSPo,"[u'general_contractor', u'point_of_interest', u'establishment']"
0,43.9026166,4.7570523,Pomares Minejem Najat,ChIJF2Gt65fptRIRcQMHoiu4JKQ,"[u'point_of_interest', u'establishment']"
0,43.9026166,4.7570523,Pomares Daniel,ChIJ7XL-K5jptRIR6oKJcPPylQw,"[u'store', u'point_of_interest', u'establishment']"
0,43.9024101,4.7593037,Société Représentation Matériaux de Construction Henri Féraud,ChIJB9urBZjptRIRtGToOfV8buw,"[u'point_of_interest', u'establishment']"
0,43.9082099,4.734991,Sellerie Mcm,ChIJK26oL-TptRIRRiLraVp_iXM,"[u'store', u'point_of_interest', u'establishment']"
0,43.903797,4.7409739,13570,ChIJPXotyunptRIRVEXfhC1-FM8,"[u'parking', u'point_of_interest', u'establishment']"
0,43.9038221,4.7391278,Malaval Joël,ChIJTTxvFOjptRIR8HAa4LjOsa8,"[u'point_of_interest', u'establishment']"
0,43.903258,4.741408,unnamed,ChIJ666_2unptRIRIE0jqne5QcE,"[u'point_of_interest', u'establishment']"
0,43.9038504,4.7390093,Gautier Anne,ChIJTTxvFOjptRIRa5TMheH4AyE,"[u'health', u'point_of_interest', u'establishment']"
0,43.9038504,4.7390093,ESPIGUE Richard Les jardins de louis,ChIJTTxvFOjptRIRvQS4hbkZtxY,"[u'general_contractor', u'point_of_interest', u'establishment']"
0,43.9040668,4.7439859,Meli Nicolas,ChIJ6Zq8POrptRIRf74qnauwmew,"[u'point_of_interest', u'establishment']"
0,43.9040668,4.7439859,Conan Anne Marie,ChIJ6Zq8POrptRIRNUcOd1PZKac,"[u'health', u'point_of_interest', u'establishment']"
0,43.9040668,4.7439859,Gregoire Jean Paul,ChIJ6Zq8POrptRIRI2KhfQtqaBA,"[u'point_of_interest', u'establishment']"
0,43.9040582,4.7441102,Badiou David,ChIJ6Zq8POrptRIR2S2bVazBs7A,"[u'general_contractor', u'point_of_interest', u'establishment']"
0,43.9004564,4.7433757,Gallittu Jean-Philippe,ChIJs5wHgcHptRIRfVtCj0CqxlM,"[u'health', u'point_of_interest', u'establishment']"
0,43.8912833,4.7716621,Descloux Nicole,ChIJWXkEYgbptRIRlZ5jba9jSHs,"[u'point_of_interest', u'establishment']"
0,43.8912833,4.7716621,Chaussy Christophe,ChIJ-UeJzQfptRIRfSE2AWcQZO8,"[u'point_of_interest', u'establishment']"
0,43.8981064,4.7697827,Clouet Delphine,ChIJxy4xawrptRIR4uPUN-pX2OE,"[u'point_of_interest', u'establishment']"
0,43.8979153,4.7707439,Soc Expl Ets Mouiren,ChIJJ91QPwrptRIRRHVjQY4jJ3A,"[u'point_of_interest', u'establishment']"
0,43.8979153,4.7707439,ATM Poids Lourds,ChIJJ91QPwrptRIR7UAbPtg0RUg,"[u'point_of_interest', u'establishment']"
0,43.8979153,4.7707439,De la Bruyère Earl,ChIJJ91QPwrptRIRuWMmAZi5Yj8,"[u'point_of_interest', u'establishment']"
0,43.8979153,4.7707439,Ginard Invest,ChIJJ91QPwrptRIRXEN49HiCJhY,"[u'finance', u'point_of_interest', u'establishment']"
0,43.898004,4.7707642,Garage ATM,ChIJJ91QPwrptRIRC2BQjd-OEPM,"[u'point_of_interest', u'establishment']"
0,43.898004,4.7707642,Reynaud Nadine,ChIJJ91QPwrptRIRWSEeWAoVrtM,"[u'point_of_interest', u'establishment']"
0,43.898004,4.7707642,JMC Services,ChIJJ91QPwrptRIR_GmQeEpDArY,"[u'point_of_interest', u'establishment']"
0,43.898004,4.7707642,Manu Peinture,ChIJJ91QPwrptRIRvCz_oIhsja8,"[u'painter', u'point_of_interest', u'establishment']"
0,43.898004,4.7707642,Chaminas Claude,ChIJJ91QPwrptRIRQB4I6ZFzfqE,"[u'point_of_interest', u'establishment']"
0,43.898004,4.7707642,Berquet Michel,ChIJJ91QPwrptRIRzZFZEXsO5FY,"[u'point_of_interest', u'establishment']"
0,43.898004,4.7707642,Meyer et Cie,ChIJJ91QPwrptRIRfUYdzsXqKFI,"[u'point_of_interest', u'establishment']"
0,43.898004,4.7707642,Gérome Philippe,ChIJJ91QPwrptRIR0eLcUlvzIzY,"[u'bakery', u'food', u'store', u'point_of_interest', u'establishment']"
0,43.898004,4.7707642,Rochette Yves,ChIJJ91QPwrptRIRqjeqjycYGjM,"[u'food', u'point_of_interest', u'establishment']"
0,43.898004,4.7707642,Bou Francois,ChIJJ91QPwrptRIRBtdiEyJoygM,"[u'general_contractor', u'point_of_interest', u'establishment']"
0,43.8912833,4.7716621,Brun Michel,ChIJ-UeJzQfptRIRC5mecwRZJ-k,"[u'point_of_interest', u'establishment']"
0,43.8898319,4.7719884,Chaussy Christophe centre équestre de Barbentane,ChIJSa50VAbptRIRSGlqkeMv-1U,"[u'point_of_interest', u'establishment']"
0,43.901861,4.768148,Vigne En Provence,ChIJKwEa9J_ptRIRx0ug2Vik0hQ,"[u'point_of_interest', u'establishment']"
0,43.8910005,4.7762394,Fontaine Patrick,ChIJbwwCkQXptRIR60_l-tWnXrA,"[u'general_contractor', u'point_of_interest', u'establishment']"
0,43.9013679,4.7617954,Sechi Joel,ChIJjZALe6LptRIRMiwxzw4G4Kg,"[u'store', u'point_of_interest', u'establishment']"
0,43.90232,4.765008,Nougier Frederic,ChIJZz6xXJ_ptRIR8iBgtDgbz9o,"[u'point_of_interest', u'establishment']"
0,43.8982131,4.7293266,Bordas Romain,ChIJY2F5zNjptRIR1odg4MXp4PA,"[u'health', u'point_of_interest', u'establishment']"
0,43.8982131,4.7293266,Emphoux Jean-Yves,ChIJY2F5zNjptRIRp7haEzwFzu0,"[u'doctor', u'health', u'point_of_interest', u'establishment']"
0,43.8982131,4.7293266,Kiné 2000,ChIJY2F5zNjptRIRfc9NggMbc-g,"[u'health', u'point_of_interest', u'establishment']"
0,43.8982131,4.7293266,Vian Aurélie,ChIJY2F5zNjptRIRU9yhP9UXSt8,"[u'hair_care', u'point_of_interest', u'establishment']"
0,43.8982131,4.7293266,Bongiovanni Didier,ChIJY2F5zNjptRIRjU553m-sGyg,"[u'furniture_store', u'home_goods_store', u'store', u'point_of_interest', u'establishment']"
0,43.8982131,4.7293266,Pianetti Gérard,ChIJY2F5zNjptRIR1uEq0zsW1CQ,"[u'doctor', u'health', u'point_of_interest', u'establishment']"
0,43.8982131,4.7293266,Bertaud Et Fils,ChIJY2F5zNjptRIR1uWyeo7g3x8,"[u'general_contractor', u'point_of_interest', u'establishment']"
0,43.8982131,4.7293266,Monier Maurice,ChIJY2F5zNjptRIRCmG1gqlR2RA,"[u'point_of_interest', u'establishment']"
0,43.898291,4.729389,Le Jardin de Frederic,ChIJY2F5zNjptRIR_psgna0Uh-0,"[u'convenience_store', u'food', u'store', u'point_of_interest', u'establishment']"
0,43.898291,4.729389,Bernard Fils Sarl,ChIJY2F5zNjptRIRumksXwsH48A,"[u'point_of_interest', u'establishment']"
0,43.898291,4.729389,Stade Du Bosquet,ChIJY2F5zNjptRIRtJf70bfjC5w,"[u'gym', u'health', u'point_of_interest', u'establishment']"
0,43.898291,4.729389,Jourcin Didier,ChIJY2F5zNjptRIR2dr6frBB1YM,"[u'point_of_interest', u'establishment']"
0,43.867363,4.73736,Le Mazet de la Dame,ChIJv_ZGJiPotRIRinlVgJXF_iQ,"[u'lodging', u'point_of_interest', u'establishment']"
0,43.861356,4.750378,unnamed,ChIJZY3LGmvotRIR8soWg5ofaqY,"[u'point_of_interest', u'establishment']"
0,43.881005,4.772508,Uceda Maria,ChIJY3tFRv7otRIRC1EAuJg3Ojc,"[u'point_of_interest', u'establishment']"
0,43.8879555,4.777489,atelier bois et deco,ChIJEWWijQTptRIRteLPDvy4H-E,"[u'store', u'point_of_interest', u'establishment']"
0,43.887094,4.778443,MR SOLUTIONS,ChIJt3XDvMDptRIRUrrGCp2aSY0,"[u'point_of_interest', u'establishment']"
0,43.8834014,4.7784995,Les Materiaux Modernes,ChIJuxUwAXTptRIRynK-nli_gik,"[u'store', u'point_of_interest', u'establishment']"
0,43.88527,4.778825,Distribution Provençale - Hydro Sud Avignon,ChIJtSqYwf3utRIRYlI7dI3_2Dc,"[u'general_contractor', u'furniture_store', u'home_goods_store', u'store', u'point_of_interest', u'establishment']"
0,43.8875382,4.7787349,Thyssenkupp Cadillac Plastic,ChIJSYdpzxzptRIRWjWgii0Pc_Y,"[u'point_of_interest', u'establishment']"
0,43.88583,4.778746,station de lavage K-WASH,ChIJi5EUSAPptRIRTBrmjHKH0YU,"[u'car_wash', u'point_of_interest', u'establishment']"
0,43.887603,4.7784892,Garage du Sagnon,ChIJ9dyRvATptRIR50qYp5NmzDA,"[u'point_of_interest', u'establishment']"
0,43.887532,4.7786665,ATELIER BOIS ET DECO,ChIJHyoluwTptRIR9zBYu0EO95E,"[u'furniture_store', u'home_goods_store', u'store', u'point_of_interest', u'establishment']"
0,43.8877753,4.7786478,MARTINEZ,ChIJO9jYuwTptRIRmwabAOXhEPg,"[u'store', u'point_of_interest', u'establishment']"
0,43.886666,4.7789837,Multi Motion Garage MMG,ChIJn2-aRIbotRIRjdqPpT_rX3k,"[u'car_repair', u'point_of_interest', u'establishment']"
0,43.885799,4.779456,IXIA Technologie,ChIJwVTRwGTotRIRBzIK2UcvdiU,"[u'point_of_interest', u'establishment']"
0,43.949317,4.805528,Avignon,ChIJB528OYfrtRIRNnsd-m6bQuY,"[u'locality', u'political']"
0,43.9213675,4.7587315,Diam'Service,ChIJe-R-zNQByxIRlYdxowCtD_c,"[u'point_of_interest', u'establishment']"
0,43.9268787,4.7510816,Plan d'Eau de Courtine,ChIJm3n_KiHqtRIRMsFVboSkLjE,"[u'stadium', u'natural_feature', u'point_of_interest', u'establishment']"
0,43.954465,4.77358,Les Angles,ChIJzbOhmEfqtRIR8EdrFiGIBwQ,"[u'locality', u'political']"
0,43.909224,4.768301,Eclat de France Sarl,ChIJa6uncZ3ptRIRHzNeScVt1Xk,"[u'furniture_store', u'home_goods_store', u'store', u'point_of_interest', u'establishment']"
0,43.9078373,4.7618661,PR rechaussier 1,ChIJMfiQopvptRIRiOVAt4nIXDk,"[u'lodging', u'point_of_interest', u'establishment']"
0,43.909224,4.768301,J.p.e,ChIJ_xJoNJ3ptRIRzNHVJdO0yuw,"[u'point_of_interest', u'establishment']"
0,43.909224,4.768301,Revertegat Gerald,ChIJ_xJoNJ3ptRIRtfbqIDWl3bI,"[u'car_repair', u'point_of_interest', u'establishment']"
0,43.909224,4.768301,Bertaud Jacques,ChIJ_xJoNJ3ptRIRoAeA3h_Bqq0,"[u'point_of_interest', u'establishment']"
0,43.909224,4.768301,Dastru Pascal,ChIJ_xJoNJ3ptRIR0UQILMjcs5Q,"[u'point_of_interest', u'establishment']"
0,43.909224,4.768301,Revel Jeanne,ChIJ_xJoNJ3ptRIRTk73LOPL2Is,"[u'point_of_interest', u'establishment']"
0,43.909224,4.768301,Roque Joel,ChIJN8ilcZ3ptRIROZ4ksfAaCoQ,"[u'point_of_interest', u'establishment']"
0,43.909224,4.768301,Marteau Jean Louis,ChIJ_xJoNJ3ptRIRTfG2ASACcHI,"[u'food', u'point_of_interest', u'establishment']"
0,43.909224,4.768301,Sujol Daniel,ChIJ_xJoNJ3ptRIRcg00BIyiD1o,"[u'point_of_interest', u'establishment']"
0,43.909224,4.768301,Bourges Camille,ChIJx9WlcZ3ptRIR8zVLbJ8YmFU,"[u'point_of_interest', u'establishment']"
0,43.909224,4.768301,Lambert,ChIJ_xJoNJ3ptRIRh7U97_9zvVM,"[u'point_of_interest', u'establishment']"
0,43.909224,4.768301,Ceif,ChIJ_xJoNJ3ptRIRVlwr0wA67UI,"[u'finance', u'point_of_interest', u'establishment']"
0,43.909224,4.768301,Moucadeau Guy,ChIJN8ilcZ3ptRIR27cezzWIhiQ,"[u'food', u'point_of_interest', u'establishment']"
0,43.909224,4.768301,Mirete Mouret Corinne,ChIJ_xJoNJ3ptRIRo9QnhAtLYgc,"[u'health', u'point_of_interest', u'establishment']"
0,43.909224,4.768301,Carrosserie de La Tour,ChIJ_xJoNJ3ptRIRqSK-88R1hgQ,"[u'car_repair', u'point_of_interest', u'establishment']"
0,43.9043948,4.7616258,Barbentanaise de Travaux Publics,ChIJWUyiAZnptRIR6YfH8BzVIiY,"[u'general_contractor', u'point_of_interest', u'establishment']"
0,43.9043946,4.7616409,Desustel Cedric,ChIJf-uYAZnptRIRuqgA6sI754Q,"[u'point_of_interest', u'establishment']"
0,43.9043931,4.7618386,Dr Chetcuti Patrick vétérinaire,ChIJuxUwAXTptRIRWsCv4O4OAGw,"[u'veterinary_care', u'point_of_interest', u'establishment']"
0,43.906571,4.767079,Atelier Saint Jean,ChIJW--p153ptRIRZSp9GcOcrPI,"[u'car_repair', u'point_of_interest', u'establishment']"
0,43.9043185,4.7619689,Blasco Celine,ChIJ8bWEAZnptRIR74MmhMx94iM,"[u'point_of_interest', u'establishment']"
0,43.9082099,4.734991,Teyssedou Roche Marguerite Henriette,ChIJK26oL-TptRIRdZSHXwzSEDk,"[u'food', u'point_of_interest', u'establishment']"
0,43.890841,4.679413,Aramon,ChIJm59srkzCtRIR4EdrFiGIBwQ,"[u'locality', u'political']"
0,43.9086819,4.7747452,Le Golf de BARBENTANE,ChIJ_xJoNJ3ptRIRw5fVAWO42a0,"[u'point_of_interest', u'establishment']"
0,43.9081,4.771151,Golf Club De Barbentane,ChIJT98WUHbptRIRyqFWnWv555o,"[u'point_of_interest', u'establishment']"
0,43.905812,4.771008,Le Moulin De Barbentane - Ollier,ChIJuxUwAXTptRIRm-pJUMGsGZU,"[u'point_of_interest', u'establishment']"
0,43.905866,4.77413,Aurelia Fermetures,ChIJuxUwAXTptRIRmK3ZhQkhxAk,"[u'point_of_interest', u'establishment']"
0,43.9081,4.771151,Le Grand Roumette,ChIJT98WUHbptRIRvJsPq6Z4n80,"[u'sublocality_level_1', u'sublocality', u'political']"
0,43.905866,4.77413,Sylvie Ponson,ChIJuxUwAXTptRIRCm7gVThe7qM,"[u'point_of_interest', u'establishment']"
0,43.905866,4.77413,Tempier Laurent,ChIJuxUwAXTptRIRj2-tteYl8ws,"[u'general_contractor', u'point_of_interest', u'establishment']"
0,43.905358,4.766924,JL AUTO,ChIJobQvZ57ptRIRIR5-jmuiaG4,"[u'car_repair', u'point_of_interest', u'establishment']"
0,43.905954,4.766903,unnamed,ChIJZR59e57ptRIRZmA5OKSPywc,"[u'point_of_interest', u'establishment']"
0,43.905866,4.7690874,Imprimerie Guigou,ChIJuxUwAXTptRIRgd7-VaizCEA,"[u'store', u'point_of_interest', u'establishment']"
0,43.90628,4.76739,My Transport Benjamin,ChIJT98WUHbptRIRqQXi6jK4Q-8,"[u'moving_company', u'point_of_interest', u'establishment']"
0,43.906285,4.767391,A.l.t.v,ChIJT98WUHbptRIR4IiYvD6PfPg,"[u'electrician', u'point_of_interest', u'establishment']"
0,43.906285,4.767391,Fontaine,ChIJc3xUdp7ptRIR0iBj7LCLs5Q,"[u'point_of_interest', u'establishment']"
0,43.906285,4.767391,Transhumance Voyages,ChIJT98WUHbptRIRGz9oB-s1gRo,"[u'point_of_interest', u'establishment']"
0,43.906399,4.767261,Carrosserie Luperini,ChIJ2Vjjd57ptRIRg8C0IejGXcQ,"[u'car_repair', u'point_of_interest', u'establishment']"
0,43.9035466,4.7635425,Meubles Les Fabricants Réunis Dépôt,ChIJYUM6zpjptRIRIh-_3DOZNtY,"[u'store', u'point_of_interest', u'establishment']"
0,43.905866,4.77413,Les Bouquets de Lucas,ChIJuxUwAXTptRIR68lQTK7Havg,"[u'florist', u'store', u'point_of_interest', u'establishment']"
0,43.905866,4.77413,Serignan Olivier Louis Marie,ChIJuxUwAXTptRIRCfL06L5CUM8,"[u'point_of_interest', u'establishment']"
0,43.905866,4.77413,Mourrin Baud Jeanine Francine,ChIJuxUwAXTptRIRfavLN0vub8s,"[u'food', u'point_of_interest', u'establishment']"
0,43.905866,4.77413,Jacovetti André,ChIJuxUwAXTptRIRrXR_cXBEjsc,"[u'food', u'point_of_interest', u'establishment']"
0,43.905866,4.77413,Baud Mireille Jeanne Pierrette,ChIJuxUwAXTptRIRyKcsiWuS870,"[u'point_of_interest', u'establishment']"
0,43.905866,4.77413,Fayet Michel,ChIJuxUwAXTptRIR_h2wV0KfinE,"[u'point_of_interest', u'establishment']"
0,43.905866,4.77413,Ollier Marc,ChIJuxUwAXTptRIR7h5WndqRIFs,"[u'real_estate_agency', u'point_of_interest', u'establishment']"
0,43.905866,4.77413,Prestimage,ChIJuxUwAXTptRIR7_gnveSf9kE,"[u'clothing_store', u'store', u'point_of_interest', u'establishment']"
0,43.905866,4.77413,Mouret Lacroix Marie France Louise,ChIJuxUwAXTptRIRylCwgf7LSyI,"[u'food', u'point_of_interest', u'establishment']"
0,43.9058043,4.7742208,Ollier Thierry,ChIJuxUwAXTptRIRC7DSZ4LMHt0,"[u'food', u'point_of_interest', u'establishment']"
0,43.899782,4.74231,13570,ChIJa9xKz8PptRIRDMDaNHrCSiQ,"[u'parking', u'point_of_interest', u'establishment']"
0,43.903639,4.739177,Pont de la Gaffe,ChIJh7bsFujptRIRl2qGVns8syM,"[u'premise', u'point_of_interest', u'establishment']"
0,43.901964,4.779621,Aymeric Baudin,ChIJ6Q3CWG3ptRIRmVle6mDpKtI,"[u'point_of_interest', u'establishment']"
0,43.901964,4.779621,Plasse Raymond (EURL),ChIJ6Q3CWG3ptRIRzPslY2TgOak,"[u'general_contractor', u'point_of_interest', u'establishment']"
0,43.886843,4.781656,RESOTAINER Avignon Graveson,ChIJy7uifRvptRIRr_kVSF1SlJU,"[u'storage', u'point_of_interest', u'establishment']"
0,43.895628,4.782023,Gare de Barbentane-Rognonas,ChIJvac4nRHptRIRdWT85h1Mx4s,"[u'train_station', u'transit_station', u'point_of_interest', u'establishment']"
0,43.8883591,4.7793323,Toupine et Cabesselle,ChIJfdN4zATptRIRFK9uG8SuV8Y,"[u'food', u'store', u'point_of_interest', u'establishment']"
0,43.8883531,4.7802225,Sorhodis Graveson,ChIJFa0QOhvptRIRxQZx4bgLGD0,"[u'point_of_interest', u'establishment']"
0,43.901712,4.7797573,Sodavalle Didier Roger Marcel,ChIJMcYQV23ptRIR9Pqz7fQkZ8k,"[u'point_of_interest', u'establishment']"
0,43.901712,4.7797573,Lesage Manon,ChIJMcYQV23ptRIRl4JR_Il-frc,"[u'point_of_interest', u'establishment']"
0,43.887586,4.779555,Le Mazet Du Sagnon,ChIJ54kk72HotRIRPxYW8XlnQTc,"[u'florist', u'food', u'store', u'point_of_interest', u'establishment']"
0,43.901964,4.779621,Roque Alain,ChIJ6Q3CWG3ptRIRKb26Yov1bGw,"[u'store', u'point_of_interest', u'establishment']"
0,43.8943029,4.7873614,Vignaud Bernard,ChIJb3mQVxbptRIRinFVw3i_t9M,"[u'food', u'point_of_interest', u'establishment']"
0,43.8942203,4.7874114,Du Pont Vouté,ChIJn_GaVxbptRIR294NMXeaddI,"[u'point_of_interest', u'establishment']"
0,43.8947315,4.788719,Ikd,ChIJP_7JPxbptRIRcn08AElhzts,"[u'point_of_interest', u'establishment']"
0,43.806044,4.65752,Tarascon,ChIJ49cp50zctRIR0P6W_aUZCAQ,"[u'locality', u'political']"
0,43.8749155,4.7266608,Noble Vercoutre Eliane Francine,ChIJ0Ri5tYLCtRIR5AyRW5kz09U,"[u'point_of_interest', u'establishment']"
0,43.874974,4.726566,Plasencia Cristobal,ChIJ0Ri5tYLCtRIRkoMezRh6q2U,"[u'point_of_interest', u'establishment']"
0,43.8728608,4.7237187,Pellen Patricia,ChIJ1efCy4TCtRIR8wjJpImMeno,"[u'food', u'point_of_interest', u'establishment']"
0,43.8752389,4.7211756,Moutet Teissandier Camille,ChIJ1efCy4TCtRIR-RBIS3yp59k,"[u'food', u'point_of_interest', u'establishment']"
0,43.87566,4.72076,Route d eyragues maillane,ChIJAYdtxYTCtRIRPcWBCPagE6M,"[u'point_of_interest', u'establishment']"
0,43.87566,4.72076,"Maillane, France",ChIJAYdtxYTCtRIRXOw1kybyeKI,"[u'point_of_interest', u'establishment']"
0,43.9146068,4.7759548,les ecuries du nouveau depart,ChIJq1xqt3vptRIRyJtedx67ypE,"[u'point_of_interest', u'establishment']"
0,43.9165209,4.7201187,Rijk Zwaan France,ChIJAShLUQDCtRIRoUi9eTSeI9o,"[u'food', u'point_of_interest', u'establishment']"
0,43.914846,4.721769,unnamed,ChIJfxiAxQXCtRIRZ8x8JoyboAA,"[u'point_of_interest', u'establishment']"
0,43.9000218,4.7868601,Provence Camping-Cars,ChIJ-zV6UEvptRIRHUfK_tm2uCk,"[u'car_rental', u'travel_agency', u'real_estate_agency', u'point_of_interest', u'establishment']"
0,43.901331,4.787292,TRANSPORT FUNERAIRE AVIGNON,ChIJa6nf12rptRIRUvVtds6U6ec,"[u'funeral_home', u'point_of_interest', u'establishment']"
0,43.898503,4.803017,Rognonas,ChIJVwR1hDbptRIR0GPhnwenCk4,"[u'locality', u'political']"
0,43.9038654,4.7794592,Chambres d'Hôtes Flaury,ChIJUxO6eHLptRIRg2hCFuEmk3s,"[u'point_of_interest', u'establishment']"
0,43.9069763,4.7842816,Roullier Bertrand,ChIJn94iym7ptRIRe3-o7JxD8iQ,"[u'real_estate_agency', u'point_of_interest', u'establishment']"
0,43.907559,4.7153102,Expansia,ChIJb4lqiKvDtRIR_Hb1Ps9POtw,"[u'point_of_interest', u'establishment']"
0,43.9079989,4.714844,unnamed,ChIJZ2tWLRLCtRIRRyU3xkQYaCc,"[u'point_of_interest', u'establishment']"
0,43.893006,4.7038,La Bergerie De Manon,ChIJsa1-GF3CtRIRFBRZ1Axf8sw,"[u'bar', u'lodging', u'restaurant', u'food', u'point_of_interest', u'establishment']"
0,43.892695,4.7070097,Transport Billaud,ChIJVS3M5VzCtRIRf3EAJtdbIEY,"[u'moving_company', u'general_contractor', u'point_of_interest', u'establishment']"
0,43.8937911,4.7072976,traiteur 5 sur 5 réceptions,ChIJJSy0adzptRIRoI2wkYw4Pr4,"[u'restaurant', u'food', u'point_of_interest', u'establishment']"
0,43.8941461,4.7052145,CGC Transports,ChIJlUW32tbCtRIRHucDe20pdzw,"[u'moving_company', u'point_of_interest', u'establishment']"
0,43.8932139,4.7039732,Burger Electricité,ChIJVS3M5VzCtRIRrd8eWfHbtGg,"[u'point_of_interest', u'establishment']"
0,43.892073,4.702287,SOCOPAT,ChIJydtLePHrtRIRfqwGEcj9c7E,"[u'bakery', u'food', u'store', u'point_of_interest', u'establishment']"
0,43.893613,4.708222,unnamed,ChIJK0w26mfCtRIRmAs1bOvGMhc,"[u'point_of_interest', u'establishment']"
0,43.893485,4.705952,S.o.s. Automobiles,ChIJDXzWQV3CtRIR1XT8EF0nGOM,"[u'car_repair', u'store', u'point_of_interest', u'establishment']"
0,43.8946979,4.7057436,Société d'Exploitation de l'Entreprise de Menuiserie Moine,ChIJk72uykLCtRIR8gwxrPns73E,"[u'point_of_interest', u'establishment']"
0,43.893798,4.705776,ATELIER PATINES,ChIJS8VVR13CtRIRtPV0E9ZJZg8,"[u'furniture_store', u'home_goods_store', u'store', u'point_of_interest', u'establishment']"
0,43.8932775,4.7038849,Ripert Cedric,ChIJVS3M5VzCtRIRHb1GmL-SAeQ,"[u'plumber', u'point_of_interest', u'establishment']"
0,43.8932775,4.7038849,Pac Service,ChIJVS3M5VzCtRIRcxg3fq6x4dE,"[u'point_of_interest', u'establishment']"
0,43.8932775,4.7038849,Lupi Construction,ChIJVS3M5VzCtRIR8OMxmguZzXA,"[u'general_contractor', u'point_of_interest', u'establishment']"
0,43.8932775,4.7038849,Briseno Frères,ChIJwbkTuWbctRIRCM1iFX3NZl0,"[u'general_contractor', u'point_of_interest', u'establishment']"
0,43.8932775,4.7038849,Service Départemental Incendie et Secours,ChIJVS3M5VzCtRIRgLTUQhSoylw,"[u'point_of_interest', u'establishment']"
0,43.8932775,4.7038849,SDIS,ChIJVS3M5VzCtRIREnWLcA42LFo,"[u'fire_station', u'point_of_interest', u'establishment']"
0,43.8932775,4.7038849,Sarl Salvat Carrelages Bertrand,ChIJVS3M5VzCtRIRFGRL7uR8mFc,"[u'general_contractor', u'home_goods_store', u'store', u'point_of_interest', u'establishment']"
0,43.8981046,4.7021431,Pont d'Aramon,ChIJgbThi0PCtRIREv-eKPg_yW0,"[u'point_of_interest', u'establishment']"
0,43.886958,4.707108,Carrières de Brun,ChIJPz5teGDCtRIRMnFSXtR9BwY,"[u'point_of_interest', u'establishment']"
0,43.859463,4.7305399,Asso Des Amis de Frigolet,ChIJzdRZCWHctRIRV_iL5Jl0ae8,"[u'point_of_interest', u'establishment']"
0,43.859463,4.7305399,Dissac Joseph,ChIJRUK9nB3otRIRJb3GQuvwPRw,"[u'church', u'place_of_worship', u'point_of_interest', u'establishment']"
0,43.8594188,4.7314814,Sarl Ciry,ChIJm_i7zcbptRIRtJL8Yrg4IJk,"[u'real_estate_agency', u'point_of_interest', u'establishment']"
0,43.9118172,4.7833841,Ecuries Du Petit Claux,ChIJQfWGv2XptRIRlbT6N4QNxhk,"[u'point_of_interest', u'establishment']"
