,Latitude,Longitude,Name,Place_id,Type
0,43.4757729,5.167309,Berre-l'Étang,ChIJG8xNj1fkyRIRrlEg1sJNbJA,"[u'locality', u'political']"
0,43.4976717,5.162649,Démolition Auto Internicola,ChIJuxpNRFzkyRIRntgi8_ml6SI,"[u'car_dealer', u'store', u'point_of_interest', u'establishment']"
0,43.498433,5.163992,BCME Charpentes,ChIJRR2_ypTkyRIR1ggPQ8Jy-Ic,"[u'roofing_contractor', u'point_of_interest', u'establishment']"
0,43.496672,5.16356,GARAGE BAUMES,ChIJE6xLUJPkyRIRw15n1_3YZVA,"[u'car_dealer', u'car_repair', u'store', u'point_of_interest', u'establishment']"
0,43.506437,5.150529,EDF,ChIJC9GCmaPkyRIRhpsonvGhpZs,"[u'point_of_interest', u'establishment']"
0,43.506437,5.150529,Lisanne,ChIJC9GCmaPkyRIRNhiU5B_8cX4,"[u'lodging', u'point_of_interest', u'establishment']"
0,43.4954241,5.163519,Frontignan Berre Location F B L,ChIJ8dAkMJPkyRIRXqn05Od3VPg,"[u'point_of_interest', u'establishment']"
0,43.5042878,5.1487204,Girsam,ChIJK1L3eKHkyRIRSG03rpFhwLY,"[u'general_contractor', u'point_of_interest', u'establishment']"
0,43.5070171,5.149339,La Farandole,ChIJK1L3eKHkyRIRl3IfbXaClmg,"[u'food', u'point_of_interest', u'establishment']"
0,43.4973048,5.1640141,Transports Mediterraneens Express,ChIJXxvF71zkyRIR5La9pTtU6hg,"[u'point_of_interest', u'establishment']"
0,43.505577,5.15158,Les SenS de la Beauté,ChIJl8GTD6PkyRIRyF-d4_WqenM,"[u'beauty_salon', u'point_of_interest', u'establishment']"
0,43.5104416,5.1636187,Thierry Betty,ChIJT2nDDLjkyRIR4rui6mcIM1A,"[u'point_of_interest', u'establishment']"
0,43.506437,5.150529,Provence Cap Performance Provence Cap Performance Sarl Provence,ChIJC9GCmaPkyRIRRqIXTPhS65M,"[u'point_of_interest', u'establishment']"
0,43.506437,5.150529,Mairie - standard-accueil,ChIJC9GCmaPkyRIR2o3OvgKO0nU,"[u'local_government_office', u'point_of_interest', u'establishment']"
0,43.5109371,5.1554985,Moya Serrano Antonio,ChIJX1bE71zkyRIRwAd4WSyl6Hk,"[u'food', u'point_of_interest', u'establishment']"
0,43.5061703,5.1497665,Agencement et Isolation du Grand Sud,ChIJ6_NweKHkyRIR3OvQWnfEOD0,"[u'general_contractor', u'point_of_interest', u'establishment']"
0,43.504445,5.172685,garage mecanique discount,ChIJWSX5GsPkyRIRiOi6rvR0c_Y,"[u'car_repair', u'point_of_interest', u'establishment']"
0,43.5063041,5.1489914,Deriu Maldotti Paulette,ChIJA1v3eKHkyRIRSlVSD7V5Rgg,"[u'food', u'point_of_interest', u'establishment']"
0,43.5119271,5.1649795,Breville Dominique Henri,ChIJQ5WoFcjkyRIRch01nGMXfvA,"[u'point_of_interest', u'establishment']"
0,43.5119271,5.1649795,Rodriguez Jean Louis,ChIJm7SoFcjkyRIRTu0uSbSEZOw,"[u'clothing_store', u'store', u'point_of_interest', u'establishment']"
0,43.5119271,5.1649795,La Vieille Malferade,ChIJQ5WoFcjkyRIREBNDLF4h_98,"[u'general_contractor', u'point_of_interest', u'establishment']"
0,43.4878348,5.1588346,Middle School Fernand Léger,ChIJUcmznvPkyRIRD8aO9CaD1Lc,"[u'school', u'point_of_interest', u'establishment']"
0,43.4944301,5.158659,Renault,ChIJM9pW6IzkyRIRXt7KIqJqp-A,"[u'car_dealer', u'car_repair', u'store', u'point_of_interest', u'establishment']"
0,43.4948511,5.1540589,Les Vignerons du Mistral,ChIJqTdTjIvkyRIREqqh0xdo6NI,"[u'food', u'point_of_interest', u'establishment']"
0,43.4899131,5.1602981,Berre Tennis Club,ChIJX2n3XYzkyRIR0oLbvkz7suk,"[u'health', u'point_of_interest', u'establishment']"
0,43.4907746,5.1615403,Bernard Philibert,ChIJ1ZGhD43kyRIRs4U-bIubxbU,"[u'store', u'point_of_interest', u'establishment']"
0,43.4907746,5.1615403,Lafarge Bétons centrale BPE BERRE,ChIJ1ZGhD43kyRIRx4V1rjZMk94,"[u'general_contractor', u'point_of_interest', u'establishment']"
0,43.4944859,5.1617615,PREFASTYLE,ChIJV8Vg-ZLkyRIR31pMuXflbTo,"[u'general_contractor', u'point_of_interest', u'establishment']"
0,43.4920598,5.1630608,Sarl Mgsa Gensollen News,ChIJX2_nW43kyRIRaq6H3RQX5Dw,"[u'point_of_interest', u'establishment']"
0,43.4920598,5.1630608,Isoveco,ChIJX2_nW43kyRIR0Jnbp-eTE-U,"[u'store', u'point_of_interest', u'establishment']"
0,43.4889283,5.1612046,Club De Rugby,ChIJX2n3XYzkyRIRRtR2mZ6l0qw,"[u'point_of_interest', u'establishment']"
0,43.4926386,5.1569944,Comte Caroline Ana S,ChIJzUcE2JHkyRIRf61RpLmgN-o,"[u'point_of_interest', u'establishment']"
0,43.490775,5.1615401,La Finestra -Menuiseries Isolat Berroise Sarl MIB,ChIJp0BHCI3kyRIRbkcr2DBZXyI,"[u'point_of_interest', u'establishment']"
0,43.4946289,5.1626012,Alpha demenagement,ChIJs0fi4JLkyRIRHUqCHs6A80w,"[u'lodging', u'point_of_interest', u'establishment']"
0,43.4908069,5.161656,Lafarge Granulats Sud,ChIJ77P8CI3kyRIRPg3AFeBhDjY,"[u'general_contractor', u'point_of_interest', u'establishment']"
0,43.4889283,5.1612046,Stade municipal de l'Arc,ChIJ6-MWp17kyRIRE_Xdt5cZH5Y,"[u'point_of_interest', u'establishment']"
0,43.4939069,5.1698853,Friedlander,ChIJ1XWba-7kyRIRvNhMKhTLEN4,"[u'point_of_interest', u'establishment']"
0,43.487651,5.164755,Restaurant Du Moulin,ChIJC9lqp_TkyRIR0O68z-O-JFw,"[u'restaurant', u'food', u'point_of_interest', u'establishment']"
0,43.4911295,5.1680278,Lucanid Soft,ChIJSz4nFfLkyRIR9MGAwDv3lwo,"[u'point_of_interest', u'establishment']"
0,43.4877996,5.1608143,Ecole primaire Emile Zola,ChIJF310f4zkyRIROgtIa5z6-j0,"[u'school', u'point_of_interest', u'establishment']"
0,43.489847,5.1680588,A.l.o.t.r.a,ChIJKRSjSvLkyRIRxU_RykfkP9M,"[u'point_of_interest', u'establishment']"
0,43.493832,5.1508,Azur Technic Elec,ChIJ6dDIJpvkyRIR0D4K9ChhNuo,"[u'electrician', u'point_of_interest', u'establishment']"
0,43.492999,5.1703283,Ambulance Goret Sarl,ChIJ6e3Xbe7kyRIROhBwjGsGlHc,"[u'health', u'point_of_interest', u'establishment']"
0,43.49289,5.150308,Passeport Evasion,ChIJvaOsf1vjyRIRPvhM8zxGtfQ,"[u'travel_agency', u'point_of_interest', u'establishment']"
0,43.491294,5.170133,Automatique & Conception Aluminium,ChIJeUjT-vHkyRIROgeWURnBGIk,"[u'point_of_interest', u'establishment']"
0,43.49289,5.150308,Town Hall,ChIJoYprzYTkyRIR7z00B_5e3G8,"[u'point_of_interest', u'establishment']"
0,43.4865166,5.163887,MF TOITURES Charpentes,ChIJe6oFS4vkyRIRdf_Mcl-jdzs,"[u'point_of_interest', u'establishment']"
0,43.4866257,5.1650198,Mairie,ChIJK3L-u_TkyRIRnYDU7yStpYQ,"[u'local_government_office', u'point_of_interest', u'establishment']"
0,43.488372,5.169366,Logirem,ChIJ77gKX_HkyRIR9Fxi91Ef4SY,"[u'point_of_interest', u'establishment']"
0,43.4873271,5.1677674,Pharmacie Dedeyan Tréglia,ChIJh9oiivPkyRIRfxxzVGlhPgU,"[u'pharmacy', u'health', u'store', u'point_of_interest', u'establishment']"
0,43.4908757,5.1718461,Nicollin SA,ChIJy3kjNfDkyRIRIUHCdxWpC_w,"[u'point_of_interest', u'establishment']"
0,43.4944859,5.1617615,Patrao Et Fils,ChIJV8Vg-ZLkyRIRPMJRWC8FqVc,"[u'point_of_interest', u'establishment']"
0,43.4944859,5.1617615,Dos Santos Ricardo,ChIJV8Vg-ZLkyRIRhKaT1GCkU00,"[u'point_of_interest', u'establishment']"
0,43.4944859,5.1617615,Vuillemin Didier,ChIJJ6QuLfPkyRIR9fwhDcVE5To,"[u'point_of_interest', u'establishment']"
0,43.4946664,5.1623256,Damys Aménagement,ChIJcRJt55LkyRIR66UnYI08PKg,"[u'point_of_interest', u'establishment']"
0,43.4944206,5.1626646,Art et Volume,ChIJJ1kS55LkyRIRFl9Xo3wtIvQ,"[u'point_of_interest', u'establishment']"
0,43.4926962,5.1568639,BERRE AUTOMOBILES ET SERVICES,ChIJB7H915HkyRIRWVQnxjPXP2Y,"[u'car_repair', u'point_of_interest', u'establishment']"
0,43.4913452,5.161904,Mani Bertolozzi Albentosa Fabienne,ChIJpd1OYI3kyRIRf8GaorL4qA8,"[u'point_of_interest', u'establishment']"
0,43.4907746,5.1615403,Moll Pechard Simone,ChIJ77P8CI3kyRIRFb95r19tUkc,"[u'point_of_interest', u'establishment']"
0,43.4907746,5.1615403,Menuiseries Isolation Berroise,ChIJ77P8CI3kyRIRGguwKy1dGUM,"[u'point_of_interest', u'establishment']"
0,43.4907746,5.1615403,Porcheret Corinne,ChIJ1ZGhD43kyRIR2v7DNWJr7CA,"[u'health', u'point_of_interest', u'establishment']"
0,43.4924231,5.1650888,Da Costa Albrand Patricia,ChIJzQrTXu3kyRIRxNn-zbU5wqM,"[u'health', u'point_of_interest', u'establishment']"
0,43.4911791,5.1575634,Provence Couto Isolation,ChIJE5HxWo7kyRIR4pe5btotiYQ,"[u'point_of_interest', u'establishment']"
0,43.4903468,5.1619302,Zamoun Sarah,ChIJMwyBA43kyRIRpWgXXEGVkq0,"[u'point_of_interest', u'establishment']"
0,43.4920612,5.1556957,Sci Dumont Et Fils,ChIJ77P8CI3kyRIRTlF3dP5J9lI,"[u'real_estate_agency', u'point_of_interest', u'establishment']"
0,43.4901513,5.1615262,Cabinet Marion Muriel et Boni Caroline,ChIJmfyiqo3kyRIRS9Fh3bvd2i4,"[u'point_of_interest', u'establishment']"
0,43.4936196,5.1666964,Stade de la Molle,ChIJJyOgrO3kyRIRN-LNZSDW7nc,"[u'stadium', u'point_of_interest', u'establishment']"
0,43.4921997,5.1658955,Ezzine Constructions,ChIJcey6nvLkyRIRxumBqqJJUno,"[u'general_contractor', u'point_of_interest', u'establishment']"
0,43.4908482,5.1570406,Hauger Bruno,ChIJxfaVWo7kyRIRUtIgInijv5M,"[u'point_of_interest', u'establishment']"
0,43.4908482,5.1570406,Slimani Kamel,ChIJM_SVWo7kyRIRcZViarrO9kk,"[u'point_of_interest', u'establishment']"
0,43.4933068,5.1539004,SWITCH & CO,ChIJu-9lBpDkyRIRblXJvv6onzk,"[u'point_of_interest', u'establishment']"
0,43.4898392,5.1628683,Gouget Sylvain,ChIJ98Zj3ozkyRIR83xPAfLMHLQ,"[u'point_of_interest', u'establishment']"
0,43.495565,5.1537559,unnamed,ChIJtf4vgpDkyRIRNPqsTx_HwMk,"[u'point_of_interest', u'establishment']"
0,43.4894891,5.1604215,Parking du Stade de l'Arc,ChIJiZsQRozkyRIRlSgYNFaThGE,"[u'parking', u'point_of_interest', u'establishment']"
0,43.4895357,5.1594772,Stade de l'Arc,ChIJZSjhJIzkyRIRmi8ntBCMFIs,"[u'point_of_interest', u'establishment']"
0,43.5117132,5.1536572,Upsilon Elec,ChIJ4UuprLrkyRIRsjdO7AsTVS8,"[u'electrician', u'point_of_interest', u'establishment']"
0,43.5152451,5.1670835,La Fare les Oliviers,ChIJC5m_c8nkyRIR5ZLvXiGKs-4,"[u'point_of_interest', u'establishment']"
0,43.5184857,5.1582394,Son'art Elec,ChIJ2TZGhbPkyRIRLHJwt_gRID8,"[u'electrician', u'point_of_interest', u'establishment']"
0,43.5188016,5.1569914,Badamie Michel Andre,ChIJlST6pbPkyRIR0EVfgqkuGh8,"[u'point_of_interest', u'establishment']"
0,43.5205187,5.1607152,Touarab Mohamed,ChIJuz9ixLTkyRIRE-u-kAtdegI,"[u'food', u'point_of_interest', u'establishment']"
0,43.520304,5.1550506,Mounet Bernard,ChIJz3TQ6rLkyRIR7t8RyNYnIwA,"[u'food', u'point_of_interest', u'establishment']"
0,43.504787,5.175733,Protel SAS,ChIJf7NgwdzkyRIRgz2-Z1Jb3-Y,"[u'general_contractor', u'point_of_interest', u'establishment']"
0,43.5047009,5.1756238,Linde Gas,ChIJFYtYwdzkyRIR0nGcffWOzZk,"[u'point_of_interest', u'establishment']"
0,43.5061643,5.1770672,Promazur,ChIJFV0Ug9vkyRIR4juugkWaUYg,"[u'general_contractor', u'point_of_interest', u'establishment']"
0,43.504339,5.17854,EUROPACAGING,ChIJrWcuONzkyRIRXpxMMZTUJxY,"[u'point_of_interest', u'establishment']"
0,43.4996982,5.1790821,Snef,ChIJj_XtpMLkyRIRxCOkVHkzcNs,"[u'point_of_interest', u'establishment']"
0,43.5047748,5.1792135,Palsud,ChIJX1bE71zkyRIRaXDliZbFv4k,"[u'point_of_interest', u'establishment']"
0,43.506145,5.174039,Albignac Huguette,ChIJ1w36VsPkyRIRDXxh_Fy28L8,"[u'food', u'point_of_interest', u'establishment']"
0,43.5050989,5.1760379,Groupe Snef,ChIJq63qlNzkyRIRCklzOiB0ELc,"[u'point_of_interest', u'establishment']"
0,43.5066751,5.1773293,Cuccia Aime,ChIJEUMUg9vkyRIR16XimH3fv34,"[u'point_of_interest', u'establishment']"
0,43.505005,5.17843,unnamed,ChIJydo2FdzkyRIR_oXBIwC7V_E,"[u'point_of_interest', u'establishment']"
0,43.501177,5.178301,13130,ChIJPzJfYOfkyRIRxguHcO-tARs,"[u'parking', u'point_of_interest', u'establishment']"
0,43.500903,5.178954,Berre,ChIJ0TBBWufkyRIRl-EDMd-xvTk,"[u'train_station', u'transit_station', u'point_of_interest', u'establishment']"
0,43.5052059,5.1479724,J.F Production,ChIJK1L3eKHkyRIRWc4JBOit0WY,"[u'food', u'point_of_interest', u'establishment']"
0,43.5052059,5.1479724,Ladreyt Sardou Marie France,ChIJK1L3eKHkyRIRr0wbKtygGVk,"[u'food', u'point_of_interest', u'establishment']"
0,43.5052059,5.1479724,Rosaber,ChIJqwHNC6zkyRIR1kD6HlO6eh4,"[u'food', u'point_of_interest', u'establishment']"
0,43.505189,5.147849,Picault Isabelle,ChIJlak4eKHkyRIRBWWEPP_CLWE,"[u'hair_care', u'point_of_interest', u'establishment']"
0,43.5050883,5.1477675,Pinède Bernard,ChIJv7iQ4KPkyRIRT0lQKoCp7sk,"[u'point_of_interest', u'establishment']"
0,43.4853884,5.16245,Illumine Design,ChIJlXjGHYvkyRIRmKEBZ8il0Kg,"[u'home_goods_store', u'store', u'point_of_interest', u'establishment']"
0,43.4848603,5.1661733,Agence Immobilière De L'Etang,ChIJ62tfHfXkyRIRHtBBjoUuvrM,"[u'real_estate_agency', u'point_of_interest', u'establishment']"
0,43.4853884,5.16245,Romain Perry coach sportif,ChIJzdfFHYvkyRIRj0J0YZSVFqg,"[u'point_of_interest', u'establishment']"
0,43.4855928,5.1628946,Lugli Nicolas,ChIJzdfFHYvkyRIRt94m8RtQ73o,"[u'point_of_interest', u'establishment']"
0,43.4866615,5.1687931,HLM Logirem,ChIJISysG_TkyRIRZMT0i0vj1ko,"[u'point_of_interest', u'establishment']"
0,43.4866667,5.1701479,Erilia,ChIJW3WZuvbkyRIRaw8hyt9qLYw,"[u'real_estate_agency', u'point_of_interest', u'establishment']"
0,43.4840127,5.1687006,Moulin Chauvin Nathalie,ChIJb50bw_XkyRIRqUfg5I4c3cA,"[u'point_of_interest', u'establishment']"
0,43.4840127,5.1687006,MCI,ChIJb50bw_XkyRIRD0Gj7kVq88I,"[u'point_of_interest', u'establishment']"
0,43.4838218,5.1692492,Grand Conseil de la Mutualite,ChIJn-RhdfbkyRIR2hWLtSU8ye8,"[u'health', u'point_of_interest', u'establishment']"
0,43.4833088,5.1690272,Centre Dentaire Mutualiste Pierre Gabrielli,ChIJTd1v4vXkyRIRzCVZCr9seZk,"[u'dentist', u'doctor', u'health', u'point_of_interest', u'establishment']"
0,43.4837411,5.1693063,Solimut Mutuelle de France (Mutuelle de France Plus),ChIJeTNSdfbkyRIRgx_bsBE3G9U,"[u'insurance_agency', u'health', u'point_of_interest', u'establishment']"
0,43.4839339,5.1693847,Town Hall,ChIJhw25dfbkyRIR35n3L_Duzm4,"[u'point_of_interest', u'establishment']"
0,43.4805043,5.1673481,Chapelle Notre-Dame de Caderot,ChIJf-CCHF_kyRIR_wU4d21EU9s,"[u'church', u'place_of_worship', u'point_of_interest', u'establishment']"
0,43.4787729,5.1675231,Private School Notre Dame De Caderot,ChIJYTC3G_TkyRIRDawQDOFYT_g,"[u'school', u'point_of_interest', u'establishment']"
0,43.4836619,5.1705604,Sigma Training Mediterranean,ChIJixStPPbkyRIRC3-rhe7uWQE,"[u'point_of_interest', u'establishment']"
0,43.4801918,5.1683028,Pharmacie de l'Etang,ChIJPd1DJ1_kyRIRy1JRLLRPxa4,"[u'pharmacy', u'health', u'store', u'point_of_interest', u'establishment']"
0,43.4825874,5.1703841,Ferrigno Pascal-Le Lan Hervé SCP,ChIJG14xIPbkyRIR75CVxZs1FRM,"[u'dentist', u'health', u'point_of_interest', u'establishment']"
0,43.4839969,5.1711943,julie esthétique,ChIJv3QQT_bkyRIRCF-EQB0o5JM,"[u'point_of_interest', u'establishment']"
0,43.4807376,5.1690325,Vival,ChIJEX4pzVjkyRIRkLC1Lh6V3QQ,"[u'grocery_or_supermarket', u'food', u'store', u'point_of_interest', u'establishment']"
0,43.4807609,5.1693844,Ecole maternelle Dézarnaud,ChIJP2VvzVjkyRIR-7kMU1pGQQw,"[u'school', u'point_of_interest', u'establishment']"
0,43.4838025,5.1714268,Pharmacie Berroise,ChIJB3nuSPbkyRIRPKAPzVs2tus,"[u'pharmacy', u'health', u'store', u'point_of_interest', u'establishment']"
0,43.484078,5.171439,Matmut,ChIJH-f3TvbkyRIRme6wxS67bao,"[u'insurance_agency', u'point_of_interest', u'establishment']"
0,43.4841653,5.171472,Allianz Franck Vinel,ChIJVTo-TvbkyRIRSxrq76kKC8k,"[u'insurance_agency', u'health', u'point_of_interest', u'establishment']"
0,43.4795531,5.168441,PROMAN,ChIJWVLUxF7kyRIREB8sT_i3nJo,"[u'local_government_office', u'point_of_interest', u'establishment']"
0,43.4890012,5.1709147,Berroise de Construction,ChIJheGTGvHkyRIRAq7Hg4RY4k8,"[u'point_of_interest', u'establishment']"
0,43.4848937,5.1720451,Berre Sport Athletisme,ChIJ_XMxAPfkyRIRfQ_mAwuCPV8,"[u'point_of_interest', u'establishment']"
0,43.484935,5.171935,Mairie,ChIJ_XMxAPfkyRIRPrufmjEs0BI,"[u'local_government_office', u'point_of_interest', u'establishment']"
0,43.4884841,5.1715214,Forum des Jeunes et de la Culture,ChIJ2bAVRFzkyRIRvUWDH0pXDrg,"[u'point_of_interest', u'establishment']"
0,43.4815238,5.1709282,Leandri Conseils,ChIJW_mwlljkyRIRAXO8BDjHvVA,"[u'accounting', u'finance', u'point_of_interest', u'establishment']"
0,43.4824126,5.1716183,Million Geraldine,ChIJB4PhRe9LsRIR4ZRvzDXOl5I,"[u'health', u'point_of_interest', u'establishment']"
0,43.4818519,5.1714107,Scop Euroform,ChIJ4-6DhVjkyRIRr4i2VcAzZWk,"[u'point_of_interest', u'establishment']"
0,43.4864155,5.1725761,Stade municipal Roger Martin,ChIJPSEmO_fkyRIRzZ58qdPQFdY,"[u'stadium', u'point_of_interest', u'establishment']"
0,43.478577,5.168335,Audition Conseil Berre L'Etang,ChIJ14XLOFzkyRIRpqOq1Tz5w5A,"[u'health', u'store', u'point_of_interest', u'establishment']"
0,43.480422,5.170756,Mairie,ChIJLeze5ljkyRIRjFvWY1w1ClM,"[u'point_of_interest', u'establishment']"
0,43.480422,5.170756,Association des Décorés du Travail,ChIJLeze5ljkyRIR2YGKYNhvmzg,"[u'point_of_interest', u'establishment']"
0,43.487283,5.1603389,Secmmi,ChIJqTdTjIvkyRIRXXphViJHqAs,"[u'point_of_interest', u'establishment']"
0,43.487603,5.160671,13130,ChIJESlQiIvkyRIRxWAMbscIN8Q,"[u'point_of_interest', u'establishment']"
0,43.490548,5.1735,Market Berre l'Etang,ChIJdfM6Pe7kyRIRXGfrgoul9NA,"[u'grocery_or_supermarket', u'food', u'store', u'point_of_interest', u'establishment']"
0,43.4885245,5.1747069,Bulle de BB,ChIJ4VW5c_rkyRIR_67pPFdYT4c,"[u'clothing_store', u'store', u'point_of_interest', u'establishment']"
0,43.4945901,5.1731658,Pôle Pétrôchimique de Berre,ChIJT88UZSn9yRIRqQUowxrymYI,"[u'point_of_interest', u'establishment']"
0,43.4899366,5.1728312,Berroise de Construction,ChIJWw0XXvDkyRIRfQTXRqL2EhM,"[u'general_contractor', u'point_of_interest', u'establishment']"
0,43.4903269,5.1723896,Rhones Alpes Isolation Construction,ChIJf35lSvDkyRIRYs7FsROSHws,"[u'general_contractor', u'point_of_interest', u'establishment']"
0,43.4895112,5.1732793,La Station du Soleil,ChIJ31YE9fDkyRIRJK8ulYinqME,"[u'gas_station', u'point_of_interest', u'establishment']"
0,43.4895046,5.1733831,Le Nouveau Relais de Berre,ChIJy3kjNfDkyRIRpHHR--RQgXw,"[u'gas_station', u'point_of_interest', u'establishment']"
0,43.4939866,5.1762945,Garage Denavaux,ChIJd93BiZHkyRIRU5qiDcoU7zw,"[u'car_repair', u'point_of_interest', u'establishment']"
0,43.4899519,5.1728577,Toitures Rua,ChIJXWOKW_DkyRIRTbtFy4utky4,"[u'point_of_interest', u'establishment']"
0,43.4909726,5.1748973,Technical Industrie,ChIJ41L1o_rkyRIRHRLxBajGYUM,"[u'point_of_interest', u'establishment']"
0,43.4898535,5.1740778,Ford SAS MSA,ChIJm6v3r_rkyRIRXNPz1SdF4a0,"[u'car_dealer', u'store', u'point_of_interest', u'establishment']"
0,43.4885718,5.1745938,L'endroit,ChIJA2zsc_rkyRIR5OEhMc26QRg,"[u'bar', u'restaurant', u'food', u'point_of_interest', u'establishment']"
0,43.4874286,5.1761539,Le Platanium,ChIJydZjJPrkyRIRCsD2LXfCzro,"[u'lodging', u'point_of_interest', u'establishment']"
0,43.4945417,5.17056,Lyondellbasel,ChIJxea1iu7kyRIRogZm2EzKMHA,"[u'point_of_interest', u'establishment']"
0,43.4931921,5.1706084,Mécanique Générale Régis,ChIJefYXa-7kyRIRRJkFCAaMZLY,"[u'car_repair', u'point_of_interest', u'establishment']"
0,43.4931153,5.1703832,Ouerfelli Amel,ChIJvxlXFO7kyRIRRdLI1QvZMzc,"[u'point_of_interest', u'establishment']"
0,43.4918036,5.1710967,Donati Joseph,ChIJEybn2fHkyRIRb9X3dMXDcHI,"[u'point_of_interest', u'establishment']"
0,43.4918741,5.1716775,Gramoso et Fils,ChIJ-4IFbO7kyRIRe4WEzhv4Mno,"[u'point_of_interest', u'establishment']"
0,43.4913832,5.1699488,Cortes Jean Louis,ChIJeUjT-vHkyRIR0yDijcNdjSE,"[u'finance', u'point_of_interest', u'establishment']"
0,43.49139,5.17157,Carrefour Drive,ChIJC8X8zfHkyRIRD62yTFMgtKU,"[u'store', u'point_of_interest', u'establishment']"
0,43.4913412,5.1714318,Société Berroise de Levage Manutention S.B.L.M.,ChIJz7xIzvHkyRIRa5dbHoCPduI,"[u'point_of_interest', u'establishment']"
0,43.4912354,5.171818,Batrap,ChIJ6340WlvjyRIRvu9AoAzAJqs,"[u'general_contractor', u'point_of_interest', u'establishment']"
0,43.490929,5.171946,Interpièces,ChIJy3kjNfDkyRIRS-xtNl8ZO-U,"[u'car_repair', u'point_of_interest', u'establishment']"
0,43.490929,5.171946,Les Plaques de Letang Anne Marie,ChIJy3kjNfDkyRIRhnxGdFNm97I,"[u'point_of_interest', u'establishment']"
0,43.494392,5.145477,Societe Trupiano Bungalow,ChIJ7f8AIp3kyRIR9FMrqV0ej-s,"[u'general_contractor', u'point_of_interest', u'establishment']"
0,43.495373,5.141288,La Suzanne,ChIJHRJzYWLjyRIREGRjk6gZCAo,"[u'sublocality_level_1', u'sublocality', u'political']"
0,43.4938824,5.1509027,Bellot Christine,ChIJ6dDIJpvkyRIRAYPey2IyWGE,"[u'health', u'point_of_interest', u'establishment']"
0,43.493832,5.1508,Miditech,ChIJ6dDIJpvkyRIR7JmvDIG3QNA,"[u'point_of_interest', u'establishment']"
0,43.493832,5.1508,Eurl Mathis,ChIJW6AMaZzkyRIRpB8PGQ-KWpg,"[u'grocery_or_supermarket', u'food', u'store', u'point_of_interest', u'establishment']"
0,43.49289,5.15031,Aparicio Grahovac Cecile,ChIJvaOsf1vjyRIR3KT0ddEYnBg,"[u'health', u'point_of_interest', u'establishment']"
0,43.49289,5.15031,Roumegous Michel,ChIJvaOsf1vjyRIRyaQYMjb2ARg,"[u'point_of_interest', u'establishment']"
0,43.49289,5.150308,Guillotot Marc,ChIJoYprzYTkyRIRR_3jQOf8PO4,"[u'point_of_interest', u'establishment']"
0,43.49289,5.150308,Roblin André,ChIJvaOsf1vjyRIRxAHBWXQn7Mo,"[u'food', u'point_of_interest', u'establishment']"
0,43.49289,5.150308,Otta François,ChIJvaOsf1vjyRIRJCI0-FZhrr8,"[u'food', u'point_of_interest', u'establishment']"
0,43.49289,5.150308,G.A.E.C Roumat Mauran,ChIJvaOsf1vjyRIRmW6XmzMLdb8,"[u'food', u'point_of_interest', u'establishment']"
0,43.49289,5.150308,Acuna Patricia,ChIJoYprzYTkyRIRt2ejjnDP4qI,"[u'point_of_interest', u'establishment']"
0,43.49289,5.150308,Teissier Carol Nee Manonviller,ChIJvaOsf1vjyRIRGCC1gWJy2no,"[u'beauty_salon', u'point_of_interest', u'establishment']"
0,43.49289,5.150308,Mahdid Mabrouck,ChIJvaOsf1vjyRIRF7WBT79mb1k,"[u'grocery_or_supermarket', u'food', u'store', u'point_of_interest', u'establishment']"
0,43.49289,5.150308,Ugolini Christian,ChIJvaOsf1vjyRIRq7hnCcxZME8,"[u'point_of_interest', u'establishment']"
0,43.49289,5.150308,Borg Franck,ChIJvaOsf1vjyRIRGmtEX-Xk2yk,"[u'point_of_interest', u'establishment']"
0,43.4904212,5.1506569,Alain Auto Services,ChIJe8Y5IZvkyRIR4Do7A3cjwPM,"[u'car_repair', u'point_of_interest', u'establishment']"
0,43.4919288,5.1463657,Imbert Jean,ChIJEze6IoPkyRIRzWHj6cJraGY,"[u'food', u'point_of_interest', u'establishment']"
0,43.5266222,5.1603359,Fraioli Christian,ChIJTwIMZ0n7yRIRcoqSEWMLjao,"[u'food', u'point_of_interest', u'establishment']"
0,43.5282262,5.1576979,Bruno Bois,ChIJW6c-3E77yRIRVunLKR0zHY8,"[u'general_contractor', u'point_of_interest', u'establishment']"
0,43.5266222,5.1603359,Le Chêne Vert,ChIJTwIMZ0n7yRIRP2yefSD7g3s,"[u'food', u'point_of_interest', u'establishment']"
0,43.522189,5.1502705,Jardinerie de L'Etang,ChIJqwHNC6zkyRIRfm81ubjsB3E,"[u'florist', u'food', u'store', u'point_of_interest', u'establishment']"
0,43.5206531,5.1721645,Ceta de Berre L'Etang,ChIJgSVuLM3kyRIR7sH8i78Etck,"[u'point_of_interest', u'establishment']"
0,43.522127,5.1585572,SMA Vautubière,ChIJnR8V7fr6yRIRbw2jJ3kg5cE,"[u'point_of_interest', u'establishment']"
0,43.522127,5.1585572,Colombero Bernard,ChIJH0fUvEz7yRIR5Mr1jQ5fGjc,"[u'food', u'point_of_interest', u'establishment']"
0,43.522127,5.1585572,Giordano Michel,ChIJH0fUvEz7yRIR8MmMhGRExys,"[u'food', u'point_of_interest', u'establishment']"
0,43.5224033,5.1582491,Alti Services,ChIJk1g4o0z7yRIRp8pWB9rqsBU,"[u'point_of_interest', u'establishment']"
0,43.5225057,5.1580768,Duble Aime Yvon,ChIJD98avUz7yRIRkf0eh07wX1M,"[u'food', u'point_of_interest', u'establishment']"
0,43.5236413,5.1567135,Les Blés d'Or,ChIJH0fUvEz7yRIR0e7YPUExclk,"[u'food', u'point_of_interest', u'establishment']"
0,43.52255,5.166179,haras de berre,ChIJtdeBGTX7yRIR_f19vpvDVpY,"[u'point_of_interest', u'establishment']"
0,43.5246682,5.1553966,Rocha E Silva Rui Simoes,ChIJNfgEu037yRIRd6_YyGAJr44,"[u'point_of_interest', u'establishment']"
0,43.5266222,5.1603359,Perfetti Françoise,ChIJTwIMZ0n7yRIRErz1XFlwKb4,"[u'health', u'point_of_interest', u'establishment']"
0,43.5266222,5.1603359,Serradimigni Jean Pierre,ChIJTwIMZ0n7yRIRHBOzLv3ED5Y,"[u'food', u'point_of_interest', u'establishment']"
0,43.5266222,5.1603359,SCA Prim Azur,ChIJTwIMZ0n7yRIRY11e00ZNHl4,"[u'food', u'point_of_interest', u'establishment']"
0,43.5266222,5.1603359,Bernier Yvan,ChIJTwIMZ0n7yRIRw9_fDBrHbEY,"[u'point_of_interest', u'establishment']"
0,43.5224693,5.1538397,Mounet Michel,ChIJ0RFoslL7yRIRbMNIlxuT8Hs,"[u'point_of_interest', u'establishment']"
0,43.5253236,5.1546414,La floorantine,ChIJLVh46037yRIR_cOXlI7Gr5s,"[u'point_of_interest', u'establishment']"
0,43.5255523,5.1543651,Flament Alexandre Francis Charles,ChIJraEU7k37yRIRprc7BVabmog,"[u'food', u'point_of_interest', u'establishment']"
0,43.5206531,5.1721645,Arc En Ciel,ChIJgSVuLM3kyRIRcwALucMXHIA,"[u'food', u'point_of_interest', u'establishment']"
0,43.5206531,5.1721645,Earl Serradimigni Pere Et Fils,ChIJgSVuLM3kyRIRMnmST--JlVg,"[u'food', u'point_of_interest', u'establishment']"
0,43.5206531,5.1721645,La Perdrière,ChIJgSVuLM3kyRIRMNwpnnATRUs,"[u'food', u'point_of_interest', u'establishment']"
0,43.5205888,5.1722512,Porcheron Aline,ChIJgSVuLM3kyRIRVVX-EcrgvYs,"[u'point_of_interest', u'establishment']"
0,43.512148,5.176265,Galleazzi Michel,ChIJpdzLadDkyRIRq5hj4YzyNM8,"[u'food', u'point_of_interest', u'establishment']"
0,43.514854,5.176882,HONKY TONK CLUB,ChIJM1VtxdfkyRIR2DJkEAQx5Ig,"[u'point_of_interest', u'establishment']"
0,43.517458,5.14915,Sud Pellet,ChIJZ20iG6zkyRIRalDx60fqHv4,"[u'general_contractor', u'point_of_interest', u'establishment']"
0,43.518028,5.1487111,La Belle Provençale,ChIJqwHNC6zkyRIR1_XuSyXzNMw,"[u'grocery_or_supermarket', u'food', u'store', u'point_of_interest', u'establishment']"
0,43.518028,5.1487111,Maraîchage Baisse (SCEA),ChIJqwHNC6zkyRIRXV2LKgkZMGg,"[u'food', u'point_of_interest', u'establishment']"
0,43.518028,5.1487111,Les Alysés,ChIJqwHNC6zkyRIRgHE1kqpHT2E,"[u'food', u'point_of_interest', u'establishment']"
0,43.518028,5.1487111,Guigues Francis,ChIJqwHNC6zkyRIRi6ioQBu5bxk,"[u'food', u'point_of_interest', u'establishment']"
0,43.518003,5.148592,Teixeira Candido,ChIJqwHNC6zkyRIRmR1GNoyJlLU,"[u'point_of_interest', u'establishment']"
0,43.516092,5.144788,La Petite Bosque,ChIJM_DolankyRIR8RvCPlqBmRI,"[u'sublocality_level_1', u'sublocality', u'political']"
0,43.5063555,5.1835942,Lyondellbasell,ChIJ1cQuyNjkyRIR4Hs3_krPNRY,"[u'point_of_interest', u'establishment']"
0,43.5066136,5.1836604,Basell Polyolefines France,ChIJXxvF71zkyRIR1IHP8MNd5qU,"[u'point_of_interest', u'establishment']"
0,43.5094221,5.1846272,Katoen Natie,ChIJr6utdNjkyRIRZhHrvlf8BEA,"[u'store', u'point_of_interest', u'establishment']"
0,43.502343,5.186192,unnamed,ChIJl-V6aiDlyRIRKzE8iDi83Mo,"[u'point_of_interest', u'establishment']"
0,43.5074073,5.1356292,Quincaillerie Industrielle Berroise,ChIJvaOsf1vjyRIRTP7BOr4izWU,"[u'hardware_store', u'store', u'point_of_interest', u'establishment']"
0,43.49663,5.13771,Duarte Da Silva Antonio Henrique,ChIJOyA4d2TjyRIRdId3AFwfYJM,"[u'point_of_interest', u'establishment']"
0,43.5084911,5.1335861,Foure Lagadec Mediterranée,ChIJ6340WlvjyRIRnSEnOhFfqY8,"[u'store', u'point_of_interest', u'establishment']"
0,43.5054019,5.132166,unnamed,ChIJlzya0ELjyRIRrXLDRF_9JPc,"[u'point_of_interest', u'establishment']"
0,43.50819,5.13523,Mauran,ChIJvaOsf1vjyRIR8jxLN_d4D5Y,"[u'neighborhood', u'political']"
0,43.49663,5.13771,Girandola Jean,ChIJOyA4d2TjyRIRo3CfedMybXA,"[u'food', u'point_of_interest', u'establishment']"
0,43.5084911,5.1335861,Soc Coop Agric Vignerons Mistral,ChIJ6340WlvjyRIRJG7g071jn60,"[u'point_of_interest', u'establishment']"
0,43.5084911,5.1335861,Lisalp,ChIJ6340WlvjyRIRH3LdhwAAvBc,"[u'point_of_interest', u'establishment']"
0,43.5084314,5.1334934,Sei Batrap,ChIJ6340WlvjyRIRdeWSjponL4I,"[u'point_of_interest', u'establishment']"
0,43.508431,5.133493,Ibbari Monet Secouran,ChIJ6340WlvjyRIRgIZZX2aYs1o,"[u'restaurant', u'food', u'point_of_interest', u'establishment']"
0,43.5101537,5.135742,Chaboche Delphine,ChIJzWNNolvjyRIR7jWOBWyC0Ak,"[u'point_of_interest', u'establishment']"
0,43.476912,5.1679386,Société Générale,ChIJb3LPPVzkyRIRrpn9Snh6JOk,"[u'bank', u'atm', u'finance', u'point_of_interest', u'establishment']"
0,43.4783253,5.1681134,O.p.m,ChIJdVMho17kyRIR5t382ECwTKE,"[u'health', u'store', u'point_of_interest', u'establishment']"
0,43.4754978,5.1686702,Mission Locale Est Etang de Berre,ChIJo5pnv_n6yRIRY5OpxHj0dXA,"[u'local_government_office', u'point_of_interest', u'establishment']"
0,43.4783369,5.1696168,Post Office,ChIJs8mvp17kyRIRc35F-ekBvt0,"[u'post_office', u'finance', u'point_of_interest', u'establishment']"
0,43.4767994,5.1676668,Crédit Agricole Alpes Provence,ChIJQW0hQVzkyRIRtxMrrfC4hcM,"[u'bank', u'atm', u'finance', u'point_of_interest', u'establishment']"
0,43.4777274,5.1679857,Labazur Provence,ChIJdVMho17kyRIR2BlhNK3rISM,"[u'health', u'point_of_interest', u'establishment']"
0,43.474763,5.167433,Nicollin,ChIJX1bE71zkyRIR1lK11aAyPoE,"[u'point_of_interest', u'establishment']"
0,43.477365,5.1681405,Caisse d'Epargne Berre l Etang,ChIJOyehUFzkyRIR7kwawPYqqTQ,"[u'bank', u'atm', u'finance', u'point_of_interest', u'establishment']"
0,43.4767182,5.1671038,Gipreb Syndicat Mixte,ChIJnecXR1zkyRIRtjDGpkfnlwM,"[u'point_of_interest', u'establishment']"
0,43.47507,5.1680556,Harmonie Mutuelle,ChIJcWBnjFzkyRIRmOu0m2rqL1c,"[u'insurance_agency', u'health', u'point_of_interest', u'establishment']"
0,43.4780745,5.1683447,Greta Provence Arbois,ChIJG-_eo17kyRIR2dIjmk0S880,"[u'point_of_interest', u'establishment']"
0,43.4766481,5.1677957,Pharmacie Galet Escarrat,ChIJ3_HdRlzkyRIRgGPI4R_0UT8,"[u'pharmacy', u'health', u'store', u'point_of_interest', u'establishment']"
0,43.4782091,5.1681045,Pompes funèbres ROC-ECLERC,ChIJsz2mp17kyRIRFw7_CZ4yKro,"[u'funeral_home', u'point_of_interest', u'establishment']"
0,43.4779568,5.1688575,Centre Hospitalier Spécialisé Montperrin,ChIJaxgpqV7kyRIRxStruvkrmPs,"[u'doctor', u'health', u'point_of_interest', u'establishment']"
0,43.4774431,5.1679106,ACD Immobiliere,ChIJPVmwIlzkyRIRq4cKeePH0t4,"[u'real_estate_agency', u'point_of_interest', u'establishment']"
0,43.4754224,5.168786,Union Locale C.G.T.,ChIJ6-MWp17kyRIRx1H5xZdZ4-M,"[u'point_of_interest', u'establishment']"
0,43.4744566,5.1679441,HLM Logirem,ChIJSTNgk1zkyRIRbj3H_zeN8nk,"[u'point_of_interest', u'establishment']"
0,43.4736902,5.165762,Cles,ChIJffkKOl3kyRIR1twMeml3FV0,"[u'point_of_interest', u'establishment']"
0,43.4772329,5.1680872,Centre Optique,ChIJge9tPVzkyRIRH9HXYfpKVYc,"[u'health', u'store', u'point_of_interest', u'establishment']"
0,43.476223,5.1684968,Assurance Berre Aviva,ChIJX4lHQ1zkyRIRDNjcHGFq5d4,"[u'insurance_agency', u'health', u'finance', u'point_of_interest', u'establishment']"
0,43.4767994,5.1676668,Agence Web Création,ChIJFdDiRlzkyRIRUQauNBecqOc,"[u'point_of_interest', u'establishment']"
0,43.478049,5.168036,Viet Nam,ChIJkZbvnl7kyRIRspR4AVVp9eM,"[u'restaurant', u'bar', u'food', u'point_of_interest', u'establishment']"
0,43.474763,5.167433,Gem Seguy,ChIJX1bE71zkyRIR8kSh1saXrts,"[u'point_of_interest', u'establishment']"
0,43.474256,5.1660813,Departement Des Bouches Du Rhone,ChIJ6TyhIl3kyRIR1lYvX3829T8,"[u'hospital', u'point_of_interest', u'establishment']"
0,43.4777037,5.1677834,Argaune,ChIJN_2yOFzkyRIRPXvRCRCb7YM,"[u'accounting', u'finance', u'point_of_interest', u'establishment']"
0,43.4758726,5.1673106,Mairie de Berre-l'Étang,ChIJX5vyU1zkyRIRLAX_G4D09c4,"[u'city_hall', u'local_government_office', u'point_of_interest', u'establishment']"
0,43.4748785,5.1669833,Mairie,ChIJz-Gm_FzkyRIROCau4OSYtF0,"[u'point_of_interest', u'establishment']"
0,43.4748785,5.1669833,Secours Catholique Berre l'Etang,ChIJz-Gm_FzkyRIRNl9O6NEHzjQ,"[u'point_of_interest', u'establishment']"
0,43.4778455,5.1679809,Elkhanssa Alain,ChIJRXkWoF7kyRIR2nuYFWtoOYo,"[u'insurance_agency', u'point_of_interest', u'establishment']"
0,43.4739212,5.1667085,Résidence sociale Les Salins - Adoma,ChIJ6TyhIl3kyRIRcnee5bAffA8,"[u'point_of_interest', u'establishment']"
0,43.476217,5.1685334,Fountis et Serna,ChIJM64KDlzkyRIRmbzK0Lu6Rvo,"[u'insurance_agency', u'point_of_interest', u'establishment']"
0,43.4769568,5.1678097,FNACA,ChIJASrLPVzkyRIR4CqT7p_VLvU,"[u'point_of_interest', u'establishment']"
0,43.4769485,5.1678447,Crédit Mutuel,ChIJSbjIPVzkyRIRgRMHa0_F2xo,"[u'point_of_interest', u'establishment']"
0,43.474763,5.167433,Gypsi,ChIJXxvF71zkyRIRSTmyN_9kwyQ,"[u'store', u'point_of_interest', u'establishment']"
0,43.4778589,5.1680184,Gan Assurances Berre L'Etang,ChIJqXcWoF7kyRIRj1oEgyvqW58,"[u'insurance_agency', u'bank', u'finance', u'point_of_interest', u'establishment']"
0,43.4745207,5.1677666,Médiathèque Edmonde Charles-Roux Defferre,ChIJSTNgk1zkyRIRwV8N_FR8ouI,"[u'point_of_interest', u'establishment']"
0,43.4780716,5.1680683,Lcl,ChIJFeQJoF7kyRIRaS-KFgS3rQ0,"[u'bank', u'atm', u'finance', u'point_of_interest', u'establishment']"
0,43.4748,5.168054,Union départementale des sapeurs-pompiers des Bouches-du-Rhône,ChIJE0NZjVzkyRIR52O_WbHvWC4,"[u'point_of_interest', u'establishment']"
0,43.4748138,5.1681094,CCAS,ChIJ08v9QFzkyRIREzMTRDuD5kY,"[u'point_of_interest', u'establishment']"
0,43.47807,5.1684957,Office de Tourisme de Berre l'Etang,ChIJBZRqp17kyRIR4pMZSEtW0lM,"[u'travel_agency', u'point_of_interest', u'establishment']"
0,43.4754978,5.1686702,Mairie,ChIJ_dPTfFzkyRIR_wZbphMaWZE,"[u'city_hall', u'local_government_office', u'point_of_interest', u'establishment']"
0,43.4747563,5.1696343,Allianz Marc Joly,ChIJq-iXZFvkyRIRyvj-hZl5-w4,"[u'insurance_agency', u'health', u'point_of_interest', u'establishment']"
0,43.4780603,5.1690169,Leader Price,ChIJK6anrl7kyRIRPJPF2ZK_Ccw,"[u'grocery_or_supermarket', u'food', u'store', u'point_of_interest', u'establishment']"
0,43.4748386,5.1693895,Secours Populaire Français,ChIJ4a8PfVvkyRIRjenOhQd6tw8,"[u'point_of_interest', u'establishment']"
0,43.4767994,5.1676668,CCV,ChIJFdDiRlzkyRIRMisyySJ2Mnc,"[u'hair_care', u'point_of_interest', u'establishment']"
0,43.4740532,5.1698579,Ecole Frédéric Mistral,ChIJ6-MWp17kyRIRfhWEna9hraw,"[u'school', u'point_of_interest', u'establishment']"
0,43.4750735,5.1704852,Leica,ChIJqfO0dFvkyRIRw3Gf0g9T6EE,"[u'point_of_interest', u'establishment']"
0,43.47923,5.170846,Mairie,ChIJ51fHFlnkyRIRXz_LTPhKX2E,"[u'point_of_interest', u'establishment']"
0,43.4753672,5.1688514,Redon Philippe,ChIJzwGNfVzkyRIRiyOef23XnKg,"[u'point_of_interest', u'establishment']"
0,43.4794589,5.171603,S.A.I.L.,ChIJ43QQBlnkyRIRf2bxxnr9aKQ,"[u'point_of_interest', u'establishment']"
0,43.4853678,5.1779298,BestDrive,ChIJc5cFGvnkyRIRl2tYVry9x34,"[u'car_repair', u'store', u'point_of_interest', u'establishment']"
0,43.4821226,5.1776498,Rugby,ChIJK3txKFbkyRIR6Lnf3uFRLD8,"[u'point_of_interest', u'establishment']"
0,43.485182,5.177728,Autosur,ChIJRemMGvnkyRIRq3ktdkCOOv0,"[u'car_repair', u'point_of_interest', u'establishment']"
0,43.4818397,5.1747107,Charvet (Sa),ChIJ6zxh-VfkyRIRLeW042svR_w,"[u'general_contractor', u'point_of_interest', u'establishment']"
0,43.4845171,5.1765477,Berre Equipement Protect Individuelle,ChIJJUv-UvjkyRIRbVPaw4Mg1kc,"[u'hardware_store', u'store', u'point_of_interest', u'establishment']"
0,43.4859946,5.1774427,Garage Doveas,ChIJ5cdnE_nkyRIRq7IMVDSWe50,"[u'car_dealer', u'car_repair', u'store', u'point_of_interest', u'establishment']"
0,43.4831992,5.173784,Mik'auto,ChIJqT7c7ffkyRIRfyWnjZasY9Q,"[u'car_repair', u'point_of_interest', u'establishment']"
0,43.4858899,5.1765941,Jardin Milange,ChIJZRHdmPnkyRIRnyMg80xjkI8,"[u'general_contractor', u'point_of_interest', u'establishment']"
0,43.4833633,5.1741127,Auto Securiplus,ChIJ8xDT8vfkyRIRIo_BakaKX8g,"[u'car_dealer', u'store', u'point_of_interest', u'establishment']"
0,43.485942,5.144967,Brunel Sanchez Alexandra,ChIJU6HnTIDkyRIRtrn59W3ixdo,"[u'point_of_interest', u'establishment']"
0,43.484339,5.139574,Le Clos,ChIJk_NkZn_jyRIRo2zOs7Dk-bI,"[u'sublocality_level_1', u'sublocality', u'political']"
0,43.4860291,5.1449363,Liotard Marcel,ChIJU6HnTIDkyRIRg4Tv_CYdYaw,"[u'point_of_interest', u'establishment']"
0,43.487715,5.160563,13130,ChIJIbnfiYvkyRIRbaV8vPc1_oo,"[u'point_of_interest', u'establishment']"
0,43.4877692,5.1606641,Nursery School Emile Zola,ChIJLeze5ljkyRIRf7tOhS7m33A,"[u'school', u'point_of_interest', u'establishment']"
0,43.488911,5.161083,Mairie - stade municipal de l'Arc,ChIJX2n3XYzkyRIRp7cO8ydULUs,"[u'point_of_interest', u'establishment']"
0,43.4879205,5.1628531,MGCA,ChIJAaYtoozkyRIR-5o5OtGbME8,"[u'general_contractor', u'point_of_interest', u'establishment']"
0,43.4892699,5.1625192,Assal Khalid,ChIJ_9lW6IzkyRIRrtotgo67NeM,"[u'point_of_interest', u'establishment']"
0,43.4893305,5.1625361,Copropriété Lou Triden,ChIJK9ru6IzkyRIRFeWmsHvnCwE,"[u'lodging', u'point_of_interest', u'establishment']"
0,43.4915849,5.1752086,C.m.s.g,ChIJpxQZsvrkyRIR3TPJ67kNB50,"[u'locksmith', u'point_of_interest', u'establishment']"
0,43.4912483,5.1752108,Actiser,ChIJwdPAE-XkyRIRHwlGbykJZUo,"[u'point_of_interest', u'establishment']"
0,43.489619,5.174253,Chez Manu,ChIJNefmgPDkyRIR6dZolkuO-e4,"[u'restaurant', u'lodging', u'food', u'point_of_interest', u'establishment']"
0,43.495584,5.184432,unnamed,ChIJ7xyeD-LkyRIR97xPeMmPZ7U,"[u'point_of_interest', u'establishment']"
0,43.4898009,5.1744435,Maillot Service Automobiles,ChIJa-yyePDkyRIRrl0cZp6oY3M,"[u'car_repair', u'point_of_interest', u'establishment']"
0,43.4896556,5.1742762,Chez Babette,ChIJWzfBE-XkyRIR1iXMXLTPLYw,"[u'lodging', u'restaurant', u'food', u'point_of_interest', u'establishment']"
0,43.4908757,5.1718461,Carrosserie Poids Lourds,ChIJX1bE71zkyRIRknk2qZjeOp8,"[u'car_repair', u'point_of_interest', u'establishment']"
0,43.4908757,5.1718461,Denis Services,ChIJy3kjNfDkyRIRho04EzFioEw,"[u'point_of_interest', u'establishment']"
0,43.4908757,5.1718461,Sei Batrap,ChIJy3kjNfDkyRIR3_mXOKCVxB4,"[u'general_contractor', u'point_of_interest', u'establishment']"
0,43.4884235,5.173064,École Maternelle Langevin,ChIJJYyzwPDkyRIRFviOj3JWkNg,"[u'school', u'point_of_interest', u'establishment']"
0,43.4882818,5.1729916,Centre de loisirs maternelle Langevin,ChIJqc63wfDkyRIRdr1uIZt6MUw,"[u'point_of_interest', u'establishment']"
0,43.4871936,5.1755085,Muscat David,ChIJa019HvrkyRIRVxcvCQZsA7U,"[u'point_of_interest', u'establishment']"
0,43.4885076,5.1719447,Ecole primaire Langevin,ChIJo2M54PDkyRIRBK6nDeIDKZ4,"[u'school', u'point_of_interest', u'establishment']"
0,43.4885034,5.1719472,Centre de loisirs primaire Langevin,ChIJZ0854PDkyRIRAofmsUF82sY,"[u'point_of_interest', u'establishment']"
0,43.4875298,5.1732041,Parking du stade municipal Roger Martin,ChIJae0htvDkyRIRy_hhod05WgI,"[u'parking', u'point_of_interest', u'establishment']"
0,43.4894558,5.1700013,Rougon Olivier,ChIJrajNefHkyRIRspVnu2meew0,"[u'point_of_interest', u'establishment']"
0,43.4893329,5.1697758,Sanchez Jean Michel,ChIJuSJwevHkyRIR6zRVXYczRC0,"[u'furniture_store', u'home_goods_store', u'store', u'point_of_interest', u'establishment']"
0,43.4866904,5.1747144,Kleinpeter Bruno,ChIJn-d9_PnkyRIR-C91TIqmc-I,"[u'electrician', u'point_of_interest', u'establishment']"
0,43.486018,5.177613,Doveas - Citroën,ChIJgT8ucvnkyRIROdgs-kfiono,"[u'car_repair', u'point_of_interest', u'establishment']"
0,43.4866217,5.1738532,Copropriété Mariélie,ChIJQ9AGUPfkyRIRBRZdExSbV3g,"[u'real_estate_agency', u'point_of_interest', u'establishment']"
0,43.4905169,5.189504,13130,ChIJ_Q_MWgPlyRIRH7EBI9gB5YE,"[u'fire_station', u'point_of_interest', u'establishment']"
0,43.5359889,5.156633,Stonica,ChIJu8jZgEP7yRIRwYbvmB1fCTc,"[u'general_contractor', u'point_of_interest', u'establishment']"
0,43.5286837,5.1685834,Lu Divine Cake,ChIJj9VcJTf7yRIRRKDgXBa9ULc,"[u'bakery', u'food', u'store', u'point_of_interest', u'establishment']"
0,43.5302178,5.1666007,Ribero Louis Alain Mario,ChIJVRGfKTH7yRIRHaqlujfn6Xw,"[u'general_contractor', u'point_of_interest', u'establishment']"
0,43.5302178,5.1666007,Earl Imbert,ChIJzdXigjf7yRIRvY3antaYjys,"[u'food', u'point_of_interest', u'establishment']"
0,43.533745,5.166521,Rousset Max,ChIJR2zj4jj7yRIRIO8U93378Mo,"[u'point_of_interest', u'establishment']"
0,43.5291134,5.1683476,Abauzit Martinache Martine,ChIJgVijKTH7yRIRSIcodwB8Xt0,"[u'grocery_or_supermarket', u'food', u'store', u'point_of_interest', u'establishment']"
0,43.5359889,5.156633,Lerda Karine,ChIJu8jZgEP7yRIRbaDBSON2CIM,"[u'grocery_or_supermarket', u'food', u'store', u'point_of_interest', u'establishment']"
0,43.5360269,5.1565206,Fiedler Mikael,ChIJu8jZgEP7yRIRLvKxtCZL8TA,"[u'point_of_interest', u'establishment']"
0,43.5363839,5.1640614,PACA Menuiseries,ChIJkwBzp0D7yRIRHOnn6OMcNac,"[u'furniture_store', u'home_goods_store', u'store', u'point_of_interest', u'establishment']"
0,43.5287176,5.1687255,Marti-magraner Marcel Marie,ChIJtYnbLzf7yRIRMHp3-LDvVe8,"[u'food', u'point_of_interest', u'establishment']"
0,43.5320266,5.1521923,Vendeur Poulet Frais,ChIJtV-sl1r7yRIRecX2MRZKY_g,"[u'food', u'point_of_interest', u'establishment']"
0,43.591912,5.126824,Lançon-Provence,ChIJ4YHdMLr7yRIRYAKX_aUZCAQ,"[u'locality', u'political']"
0,43.5366928,5.156622,Marin Marilyn,ChIJoemTm0P7yRIRx-e57Lx9FVI,"[u'point_of_interest', u'establishment']"
0,43.5374138,5.1622892,Domaine des Cravons SCEA,ChIJXxvF71zkyRIRNSfAcvggiO4,"[u'food', u'point_of_interest', u'establishment']"
0,43.5371572,5.1568241,Fiedler Gilbert,ChIJu8jZgEP7yRIRVYY46_F_Dko,"[u'point_of_interest', u'establishment']"
0,43.5371572,5.1568241,Segonzac (De) Pol,ChIJu8jZgEP7yRIRxIElDEGZsRk,"[u'point_of_interest', u'establishment']"
0,43.5279079,5.1696045,Manelli Raymond,ChIJVRGfKTH7yRIRpMmhS7x8XJ8,"[u'food', u'point_of_interest', u'establishment']"
0,43.5314208,5.1712497,Pignatel Andre,ChIJuZqwaDr7yRIRij-_MyhOP5U,"[u'point_of_interest', u'establishment']"
0,43.5233626,5.1760349,SAS Au Bois de L'Etang,ChIJvbulpS37yRIR5wwOTff6JLQ,"[u'general_contractor', u'point_of_interest', u'establishment']"
0,43.5231994,5.1758062,PRECISIUM Carrosserie G.P,ChIJ-8eopS37yRIR7RSsPlHqjrY,"[u'car_repair', u'point_of_interest', u'establishment']"
0,43.5225199,5.1751075,Daudel Marcel,ChIJGU2jpS37yRIRUqhc2H42KjU,"[u'point_of_interest', u'establishment']"
0,43.5244113,5.1746917,Bounous Jean Baptiste Louis,ChIJIQ9v9C37yRIRTpbTgXQsl4k,"[u'food', u'point_of_interest', u'establishment']"
0,43.5231618,5.175798,MIE Méditerranée,ChIJed2opS37yRIRiN_x1SmIV4Q,"[u'point_of_interest', u'establishment']"
0,43.5231618,5.175798,Robert Mermet SAS,ChIJR-eopS37yRIRJOc7dlbrXRw,"[u'moving_company', u'point_of_interest', u'establishment']"
0,43.5250733,5.1789439,Nardi Patricia,ChIJLWJUHCz7yRIR0pBvyu3j7Y0,"[u'point_of_interest', u'establishment']"
0,43.517961,5.145164,Roche,ChIJ-weAMKrkyRIRqT3S6FeVge8,"[u'sublocality_level_1', u'sublocality', u'political']"
0,43.5263202,5.1420565,Fmx Park,ChIJ01KCF6r8yRIRJFrTh56vDyo,"[u'park', u'point_of_interest', u'establishment']"
0,43.5120854,5.1842483,GIBSON'S DANCERS (Berre l'Etang),ChIJVUwG6NfkyRIR0NJ4IaoyRyw,"[u'point_of_interest', u'establishment']"
0,43.5117442,5.1861467,SN2A,ChIJxwdeFSjlyRIRukqTHacVi2U,"[u'point_of_interest', u'establishment']"
0,43.50845,5.18962,Bus de l'Etang de Berre,ChIJWVkCeyblyRIRtTVNfcPtbD8,"[u'city_hall', u'local_government_office', u'point_of_interest', u'establishment']"
0,43.50845,5.18962,Layher,ChIJWVkCeyblyRIRopFlQlIVOnc,"[u'general_contractor', u'point_of_interest', u'establishment']"
0,43.50845,5.18962,Sogeres,ChIJWVkCeyblyRIRvTWmcN8ReCQ,"[u'point_of_interest', u'establishment']"
0,43.50845,5.18962,Société d'Import Export France,ChIJF-lr117kyRIRS5RmtAqGUno,"[u'point_of_interest', u'establishment']"
0,43.50845,5.18962,Mairie,ChIJWVkCeyblyRIRBTiWV3_PUMM,"[u'point_of_interest', u'establishment']"
0,43.50845,5.18962,Presto Fuites,ChIJWVkCeyblyRIRjpZFqvXI198,"[u'point_of_interest', u'establishment']"
0,43.50845,5.18962,Avenir Cycliste Berrois,ChIJWVkCeyblyRIRK3K-qSw2aOA,"[u'point_of_interest', u'establishment']"
0,43.50845,5.18962,Ethnicraft Azur,ChIJWVkCeyblyRIRW4w7fX526FE,"[u'furniture_store', u'home_goods_store', u'store', u'point_of_interest', u'establishment']"
0,43.50845,5.18962,AAF,ChIJWVkCeyblyRIRfbxfSLwYB4s,"[u'painter', u'point_of_interest', u'establishment']"
0,43.50845,5.189623,Pomona,ChIJy0YCeyblyRIRzUFul81rLgE,"[u'point_of_interest', u'establishment']"
0,43.487871,5.23463,Rognac,ChIJN1CAiY_vyRIRDG5r72DVVsQ,"[u'locality', u'political']"
0,43.50845,5.18962,Ent Specialisee Activites Ferroviaires,ChIJWVkCeyblyRIR--3cssKpNOA,"[u'general_contractor', u'point_of_interest', u'establishment']"
0,43.50845,5.18962,U.n.i.c.e.a France,ChIJWVkCeyblyRIRZO_DtZgBgbo,"[u'car_repair', u'point_of_interest', u'establishment']"
0,43.50845,5.18962,Tfn Propreté Sud Est,ChIJWVkCeyblyRIRsJFVTixSWas,"[u'point_of_interest', u'establishment']"
0,43.50845,5.18962,Val de L'arc (Sarl),ChIJWVkCeyblyRIRypbDshwQhW8,"[u'point_of_interest', u'establishment']"
0,43.50845,5.18962,Silis,ChIJWVkCeyblyRIRby0lyePkr0Q,"[u'general_contractor', u'point_of_interest', u'establishment']"
0,43.50845,5.18962,Home Spirit Logistique Sud Est,ChIJyQkjnbHoyRIRUUidC9avoio,"[u'moving_company', u'point_of_interest', u'establishment']"
0,43.50845,5.18962,Communauté Agglomération Berre Salon Durance,ChIJWVkCeyblyRIRWUIQdLS6bR0,"[u'point_of_interest', u'establishment']"
0,43.50845,5.18962,Societe Batipro,ChIJWVkCeyblyRIREEcbIN52lQg,"[u'store', u'point_of_interest', u'establishment']"
0,43.50845,5.189623,Infogest,ChIJy0YCeyblyRIR6PjhH0XP-3A,"[u'point_of_interest', u'establishment']"
0,43.50845,5.189623,Commerce Genodi,ChIJy0YCeyblyRIRwzIgGQiWyEg,"[u'point_of_interest', u'establishment']"
0,43.49797,5.191459,Tour de Bruni,ChIJJbemGBnlyRIRHWwtojZErts,"[u'premise', u'point_of_interest', u'establishment']"
0,43.464478,5.156664,Compagnie Salins du Midi et Salines de l'Est,ChIJ2Vp12mzkyRIRj752t4_kIsA,"[u'point_of_interest', u'establishment']"
0,43.472193,5.164473,unnamed,ChIJ49-So0LkyRIR6bu8T7EIy5w,"[u'point_of_interest', u'establishment']"
0,43.4720301,5.1665574,Port Albert Samson / Capitainerie,ChIJCzEO30LkyRIRJIewd1UCZAc,"[u'point_of_interest', u'establishment']"
0,43.4719502,5.1668916,Ecole municipale de voile,ChIJv4KkIUPkyRIRSF2y2kUWJ_s,"[u'point_of_interest', u'establishment']"
0,43.472789,5.1659298,Gasmi Ramzi,ChIJ5RTezULkyRIR-ekKkfw_J34,"[u'general_contractor', u'point_of_interest', u'establishment']"
0,43.4726964,5.1662057,Couto Da Silva Manuel Joaquim,ChIJ_9Q60ULkyRIRXk__6eLDgTY,"[u'point_of_interest', u'establishment']"
0,43.4714628,5.167885,Port Albert Sanson,ChIJYTaga0PkyRIR9tVqU3Tytck,"[u'point_of_interest', u'establishment']"
0,43.473368,5.165769,13130,ChIJIZjgM13kyRIRXQKxgbc-D_c,"[u'parking', u'point_of_interest', u'establishment']"
0,43.4726112,5.1671691,13130,ChIJg6FrJ0PkyRIRXluXfLektYQ,"[u'parking', u'point_of_interest', u'establishment']"
0,43.4735714,5.1665827,Jedrey Provence Lorraine,ChIJibRqKF3kyRIRSI8EKy-Qu_E,"[u'point_of_interest', u'establishment']"
0,43.474115,5.165707,13130,ChIJYVkpPF3kyRIRUr9khZC4xm8,"[u'parking', u'point_of_interest', u'establishment']"
0,43.47381,5.166822,13130,ChIJ7bH92FzkyRIR2zvLqjLCoBE,"[u'police', u'point_of_interest', u'establishment']"
0,43.4740136,5.1666878,Résidence sociale Les Salins - ADOMA,ChIJlQde31zkyRIRH04tUdx4Qhg,"[u'lodging', u'point_of_interest', u'establishment']"
0,43.473256,5.1683329,13130,ChIJh-D8s1zkyRIR_yTfH0q_wzA,"[u'parking', u'point_of_interest', u'establishment']"
0,43.4741533,5.1669318,Guennou Aude Genevieve,ChIJj1Zr3lzkyRIR_BiGH0WDWOQ,"[u'point_of_interest', u'establishment']"
0,43.4736931,5.167878,Fellouh Billal,ChIJN-S8x1zkyRIRJSlnRNzRy7U,"[u'point_of_interest', u'establishment']"
0,43.4737163,5.1678839,Société HLM Phocéennes d'Habitations,ChIJ6yOix1zkyRIRvGyzS2Qz4nk,"[u'point_of_interest', u'establishment']"
0,43.4735573,5.1682481,Zandrino Laure,ChIJbaRZt1zkyRIRiHOiJ8LXsw0,"[u'point_of_interest', u'establishment']"
0,43.4746337,5.1663077,Maison départementale de la solidarité,ChIJmzONG13kyRIRZ71ckcVVlVg,"[u'hospital', u'health', u'point_of_interest', u'establishment']"
0,43.4742588,5.1674834,Gouget Michel,ChIJSTNgk1zkyRIRMo8Mo6TsjdI,"[u'doctor', u'health', u'point_of_interest', u'establishment']"
0,43.4737203,5.1684,Foyer Ricard,ChIJHQ1qulzkyRIRhG4T7oZfu7Y,"[u'point_of_interest', u'establishment']"
0,43.47476,5.16743,Restaurant Les Merveilles,ChIJX1bE71zkyRIRzV9HtANDxLc,"[u'restaurant', u'bar', u'food', u'point_of_interest', u'establishment']"
0,43.4752057,5.1659854,Boulodrome du Drignon,ChIJU40BEF3kyRIRMMZT5FpBBQQ,"[u'point_of_interest', u'establishment']"
0,43.4737573,5.1690319,Sci Presti Vacante,ChIJTRypplzkyRIRRdxAjSN1y60,"[u'real_estate_agency', u'point_of_interest', u'establishment']"
0,43.4739515,5.1687744,S.p.c,ChIJqdCTo1zkyRIRdNGo2jx3sBg,"[u'plumber', u'point_of_interest', u'establishment']"
0,43.4739528,5.1687763,Letourneur Ghislaine,ChIJx4-To1zkyRIRlUQXIdrP-KY,"[u'point_of_interest', u'establishment']"
0,43.474763,5.167433,Layec Patrice,ChIJX1bE71zkyRIRM9EnLRGFLBQ,"[u'lawyer', u'finance', u'point_of_interest', u'establishment']"
0,43.47476,5.16743,Cometto Mattio Marie Louise,ChIJX1bE71zkyRIR2RqnNbQuTog,"[u'food', u'point_of_interest', u'establishment']"
0,43.47476,5.16743,Olivero Jean-Yves,ChIJX1bE71zkyRIRoWGJaB6CLzk,"[u'food', u'point_of_interest', u'establishment']"
0,43.474763,5.167433,Earl Agri 2 D,ChIJXxvF71zkyRIRTs_4DtJBU-s,"[u'food', u'point_of_interest', u'establishment']"
0,43.474763,5.167433,Infossi Dimitri,ChIJX1bE71zkyRIRu12Zpd4MC-M,"[u'food', u'point_of_interest', u'establishment']"
0,43.474763,5.167433,Sorrentino Marie-Anne,ChIJX1bE71zkyRIRm3Q6Mmkb68c,"[u'point_of_interest', u'establishment']"
0,43.474763,5.167433,Moulinas Jean-Pierre,ChIJX1bE71zkyRIRiHPGNoDx28Y,"[u'food', u'point_of_interest', u'establishment']"
0,43.474763,5.167433,Dimi Prim,ChIJX1bE71zkyRIRHam6tHBKF8M,"[u'grocery_or_supermarket', u'food', u'store', u'point_of_interest', u'establishment']"
0,43.474763,5.167433,Vanni,ChIJX1bE71zkyRIRA3qZWE0NoIw,"[u'food', u'point_of_interest', u'establishment']"
0,43.474763,5.167433,Méditerranéenne Bois et Palettes,ChIJX1bE71zkyRIRiPuB7ttmRIk,"[u'point_of_interest', u'establishment']"
0,43.474763,5.167433,E G S O Entreprise Générale Second Oeuvre,ChIJX1bE71zkyRIRyv2TlWEOBXg,"[u'general_contractor', u'point_of_interest', u'establishment']"
0,43.474763,5.167433,Gomes de Oliveira Joaquim,ChIJX1bE71zkyRIRMgOISQj7hnY,"[u'finance', u'point_of_interest', u'establishment']"
0,43.474763,5.167433,Sarl,ChIJXxvF71zkyRIR4xqGpmQ1W24,"[u'food', u'point_of_interest', u'establishment']"
0,43.474763,5.167433,Bechlaoui Céline,ChIJX2n3XYzkyRIRWy3c_q7Eukc,"[u'health', u'point_of_interest', u'establishment']"
0,43.474763,5.167433,Schelouch Laurent,ChIJX1bE71zkyRIRarXZMynBKzY,"[u'lawyer', u'finance', u'point_of_interest', u'establishment']"
0,43.474763,5.167433,Cervetti Jeanine,ChIJXxvF71zkyRIR1uFvuHJX7SI,"[u'food', u'point_of_interest', u'establishment']"
0,43.474763,5.167433,Les Tourniaires,ChIJXxvF71zkyRIRdla82W6B0iE,"[u'point_of_interest', u'establishment']"
0,43.474763,5.167433,Sc Roccia,ChIJXxvF71zkyRIRrbxsFNJRQh8,"[u'point_of_interest', u'establishment']"
0,43.474763,5.167433,Entreprise Calvin Freres,ChIJX1bE71zkyRIRa7NCDoph5hw,"[u'general_contractor', u'point_of_interest', u'establishment']"
0,43.474763,5.167433,Robin Emmanuel,ChIJXxvF71zkyRIRgTd7I_hKmRE,"[u'general_contractor', u'point_of_interest', u'establishment']"
0,43.474482,5.168063,Cabinet médical Gouget-Hourcastagnou,ChIJSTNgk1zkyRIRD_ImjFZPb1Q,"[u'health', u'point_of_interest', u'establishment']"
0,43.4748524,5.1673703,Eglise Saint Césaire,ChIJd83971zkyRIRjusBgcRER60,"[u'church', u'place_of_worship', u'point_of_interest', u'establishment']"
0,43.4753459,5.1662773,Espace Maurice Druon,ChIJo04jB13kyRIRwrFeG98kqlI,"[u'parking', u'point_of_interest', u'establishment']"
0,43.4765456,5.1731632,Piscine Claude Jouve,ChIJ-bEMXFnkyRIRjN2JsPGlHEA,"[u'point_of_interest', u'establishment']"
0,43.4796671,5.1720725,Baies Creation,ChIJe2kuqlnkyRIRFOrLGRg6Eo4,"[u'furniture_store', u'home_goods_store', u'store', u'point_of_interest', u'establishment']"
0,43.482959,5.177543,PCPASS informatique Berre l'Etang 13130,ChIJqwnujvjkyRIR0Mdgvktab7Y,"[u'point_of_interest', u'establishment']"
0,43.4853494,5.1778223,Olympe OABE,ChIJJSehUFzkyRIRrICU-rRfZzw,"[u'park', u'point_of_interest', u'establishment']"
0,43.481553,5.1759027,Ecole Joliot Curie,ChIJq_WAB_jkyRIRo62hr-JrGqg,"[u'school', u'point_of_interest', u'establishment']"
0,43.4807755,5.175454,Centre de Secours / Sapeurs pompiers,ChIJsaD5k1fkyRIR0TQxnmbn1tA,"[u'fire_station', u'point_of_interest', u'establishment']"
0,43.4806328,5.1744064,Comité départemental des Bouches du Rhöne du rugby à XV,ChIJX9knJljkyRIRKFbeSTqTjqI,"[u'point_of_interest', u'establishment']"
0,43.4804333,5.1729615,Hospital Center Specialized Montperrin,ChIJZZ_mSFjkyRIR2zKwMzXEEw8,"[u'hospital', u'point_of_interest', u'establishment']"
0,43.4796741,5.1720814,S 17 Production,ChIJgz17qVnkyRIR3aaFBrnJuaQ,"[u'point_of_interest', u'establishment']"
0,43.4796537,5.1719789,Trésor Public,ChIJ27iTqVnkyRIRMaTiX62HVKQ,"[u'accounting', u'local_government_office', u'finance', u'point_of_interest', u'establishment']"
0,43.4899119,5.19806,Welte Cardan Service Provence,ChIJ9d7MUMHoyRIRNXAeqa49h2U,"[u'car_repair', u'point_of_interest', u'establishment']"
0,43.492516,5.1933109,13130,ChIJ7RNz5hrlyRIRxKY81E0KAMw,"[u'parking', u'point_of_interest', u'establishment']"
0,43.497314,5.1965389,unnamed,ChIJhy7lbBflyRIR-Qqmdpk6Zf8,"[u'point_of_interest', u'establishment']"
0,43.4928669,5.1912779,Château de Bruni,ChIJMdOfbRvlyRIRoqrJVgp3eU8,"[u'premise', u'point_of_interest', u'establishment']"
0,43.5345478,5.1744851,Lerda Gerard,ChIJfxW1Ujv7yRIRvoMYesq_L98,"[u'point_of_interest', u'establishment']"
0,43.5345478,5.1744851,Morgante Yves,ChIJfxW1Ujv7yRIRB3TzboQkdKw,"[u'food', u'point_of_interest', u'establishment']"
0,43.5345478,5.1744851,Earl les Magnolias,ChIJfxW1Ujv7yRIRY6sJawlsd3s,"[u'food', u'point_of_interest', u'establishment']"
0,43.5326099,5.1773068,Nardi Bruno,ChIJt13DVCT7yRIRKwLKNVeCpSU,"[u'food', u'point_of_interest', u'establishment']"
0,43.5378959,5.1717742,Meynier Jean Pierre Michel,ChIJ6WUnqj37yRIRkhh6XpTFyv8,"[u'point_of_interest', u'establishment']"
0,43.5378959,5.1717742,Le Moulin d'Hortense Filles et Fils,ChIJ6WUnqj37yRIRtB6Sf9L-A_8,"[u'point_of_interest', u'establishment']"
0,43.5378959,5.1717742,Art et Tradition Christophe Canicio,ChIJ6WUnqj37yRIRYJQ143RGpPw,"[u'general_contractor', u'point_of_interest', u'establishment']"
0,43.5378905,5.171898,Saveol,ChIJ6WUnqj37yRIRtSJNDqXOXsw,"[u'grocery_or_supermarket', u'food', u'store', u'point_of_interest', u'establishment']"
0,43.5378905,5.171898,Vanni René,ChIJ6WUnqj37yRIRkSl6l99OlsU,"[u'point_of_interest', u'establishment']"
0,43.5378905,5.171898,Les Primeurs du Mistral,ChIJ6WUnqj37yRIRrfr1A55yjk0,"[u'point_of_interest', u'establishment']"
0,43.5382209,5.1681687,Féraud,ChIJZwlXZj77yRIRgM8KrE-_hv8,"[u'food', u'point_of_interest', u'establishment']"
0,43.5303404,5.1803587,Earl Garnerone,ChIJtTNTGyb7yRIRDjQ_JilsagQ,"[u'food', u'point_of_interest', u'establishment']"
0,43.5371214,5.1823138,Aérodrome de Berre-la-Fare,ChIJdw6eUyH7yRIR8vVJ7KfX3NA,"[u'airport', u'premise', u'point_of_interest', u'establishment']"
0,43.538762,5.1719244,Escadrille Pegase,ChIJQSuwCj37yRIR-LAl7hTtXBA,"[u'point_of_interest', u'establishment']"
0,43.534767,5.146493,Jo et Renée,ChIJx3miEFn7yRIRx8-aCvnEFXo,"[u'point_of_interest', u'establishment']"
0,43.534592,5.146311,Le Platnium Réception,ChIJFUrYGln7yRIRwDE2pEuQyjc,"[u'point_of_interest', u'establishment']"
0,43.536743,5.14875,13680,ChIJMeedBFz7yRIRsC05wpE5wzE,"[u'point_of_interest', u'establishment']"
0,43.5168415,5.1908966,Precitol,ChIJWVkCeyblyRIRgxRoxKyaGiU,"[u'point_of_interest', u'establishment']"
0,43.5172594,5.1909288,Veolia Water STI,ChIJURJ8YyzlyRIRT87RqkOIV1Y,"[u'point_of_interest', u'establishment']"
0,43.5185135,5.1916375,Initial BTB,ChIJWVkCeyblyRIRK0oUFTM0uZA,"[u'point_of_interest', u'establishment']"
0,43.5189964,5.1921452,Archives Municipales,ChIJS80W2yzlyRIRgNd6nv6plIQ,"[u'local_government_office', u'point_of_interest', u'establishment']"
0,43.517233,5.197348,IREM France SAS,ChIJl1_7VzLlyRIRILMBgJZq3P8,"[u'point_of_interest', u'establishment']"
0,43.5161284,5.1928603,Services Techniques Municipaux,ChIJG9hJui3lyRIRQCKJQDCyRl4,"[u'local_government_office', u'point_of_interest', u'establishment']"
0,43.5172594,5.1909288,3 B Constructions,ChIJURJ8YyzlyRIR-uaXfLWNli0,"[u'point_of_interest', u'establishment']"
0,43.5172455,5.1912584,Smi,ChIJWQYsYSzlyRIRWnYAwyoKKXA,"[u'point_of_interest', u'establishment']"
0,43.5173379,5.1913799,P.L.S Prestation Location Service,ChIJWVkCeyblyRIRw2bwjYHye9w,"[u'point_of_interest', u'establishment']"
0,43.5148993,5.1957946,Doka France SAS,ChIJC6bweeD6yRIRdkSUhGHdtF8,"[u'general_contractor', u'point_of_interest', u'establishment']"
0,43.5145645,5.1962972,Be Lounge,ChIJOSy3HzLlyRIRO_PmE_F2F6w,"[u'point_of_interest', u'establishment']"
0,43.5148293,5.196329,Ethnicraft,ChIJY7HHHTLlyRIR8sxd1Xi3G3k,"[u'atm', u'finance', u'point_of_interest', u'establishment']"
0,43.517671,5.194354,unnamed,ChIJbaUGdC3lyRIRcckro4Rk9RU,"[u'point_of_interest', u'establishment']"
0,43.5156702,5.1963181,Team Industrie,ChIJPQ0sETLlyRIRzj1Ai0deRK8,"[u'point_of_interest', u'establishment']"
0,43.515612,5.196464,Team Industrie - Travaux d’Entretien et d’Arrêt en Maintenance Industrielle,ChIJuw8FFzLlyRIR765gQT42WsY,"[u'point_of_interest', u'establishment']"
0,43.518523,5.193823,RAILMAT,ChIJzZW-FS3lyRIRhZINehzlk0k,"[u'store', u'point_of_interest', u'establishment']"
0,43.515444,5.122075,Foure Lagadec,ChIJ6340WlvjyRIR4FLoWNoXtmw,"[u'point_of_interest', u'establishment']"
0,43.504289,5.120648,Les Branches,ChIJUwjA2z_jyRIRgWkhW6gUAI4,"[u'sublocality_level_1', u'sublocality', u'political']"
0,43.4591009,5.14785,unnamed,ChIJ_7TqUAnkyRIR303yDKpEibQ,"[u'point_of_interest', u'establishment']"
0,43.4837551,5.1833424,Stade de Gordes,ChIJMb15Af_kyRIROU0eZUVL6bw,"[u'stadium', u'point_of_interest', u'establishment']"
0,43.4841525,5.182687,13130,ChIJzziMAP_kyRIRmXHFFYT3NhU,"[u'parking', u'point_of_interest', u'establishment']"
0,43.4841492,5.1824549,Parking Stade de Gordes,ChIJZ4xRqv_kyRIRaJw0wV0mZS8,"[u'parking', u'point_of_interest', u'establishment']"
0,43.4853482,5.177928,Omouri Abdallah,ChIJPb4LEfnkyRIRqj2aTiQxso4,"[u'point_of_interest', u'establishment']"
0,43.4820115,5.1784077,Gendarmerie,ChIJj1Zr3lzkyRIR2epEdiJesQk,"[u'point_of_interest', u'establishment']"
0,43.4820495,5.1777219,Martinez Jean-Martin,ChIJK3txKFbkyRIRc6KiV8O6wHc,"[u'point_of_interest', u'establishment']"
0,43.4821226,5.1776498,Serra Patrick,ChIJK3txKFbkyRIRCTLp1uOpf0E,"[u'painter', u'point_of_interest', u'establishment']"
0,43.4847488,5.1763872,Ferreira Bonifacio Henrique,ChIJQ4WJsvnkyRIRqAtPPA3d6yA,"[u'point_of_interest', u'establishment']"
0,43.4844456,5.1763975,Coiffure Michel,ChIJqXHoTfjkyRIRVCeBIl5UwcE,"[u'hair_care', u'point_of_interest', u'establishment']"
0,43.4841922,5.1758657,R otisserie et mechoui Allali Farid,ChIJ191aSPjkyRIRZg468WDJqQ0,"[u'grocery_or_supermarket', u'restaurant', u'food', u'store', u'point_of_interest', u'establishment']"
0,43.493265,5.204805,JMB Environnement,ChIJDWB9JBPlyRIRpoNi3tzYAd4,"[u'point_of_interest', u'establishment']"
0,43.492945,5.204792,C13,ChIJVUakul_lyRIRn4Ca0g2AsDI,"[u'point_of_interest', u'establishment']"
0,43.4932867,5.2062911,Athena Formation Conseil,ChIJb7Bf_pToyRIRq7FD6HHCRcg,"[u'point_of_interest', u'establishment']"
0,43.496051,5.20636,France Auto-Deal,ChIJQU4TT2vlyRIRhnKcZcg3K6c,"[u'car_dealer', u'store', u'point_of_interest', u'establishment']"
0,43.4961103,5.2066493,Mig & Lec,ChIJXxtGX2nlyRIR33dNHPvTGlk,"[u'car_repair', u'point_of_interest', u'establishment']"
0,43.4951237,5.2073264,VALORTEC,ChIJb1fmCoXvyRIRBZZcLfpfgrQ,"[u'point_of_interest', u'establishment']"
0,43.4940402,5.2082197,Amato Transport Affretement (A.T.A),ChIJVXpQi2zlyRIR9_-V8oLwXF4,"[u'moving_company', u'point_of_interest', u'establishment']"
0,43.4960063,5.208257,SEVIA Agence de Marseille,ChIJXxtGX2nlyRIRp9pzFBM3xl8,"[u'point_of_interest', u'establishment']"
0,43.49418,5.208231,Huet Location,ChIJvxm1i2zlyRIRX2PS6xn4A_4,"[u'point_of_interest', u'establishment']"
0,43.494526,5.208345,HUET LOCATION MARSEILLE,ChIJmUMOiGzlyRIRFn1qfa8Q880,"[u'point_of_interest', u'establishment']"
0,43.4959916,5.206102,Restaurant L'Escapade,ChIJASuZRGvlyRIRQXzB3UFWQtU,"[u'restaurant', u'bar', u'food', u'point_of_interest', u'establishment']"
0,43.497085,5.2034589,Poste Électrique des Pins,ChIJASk69xTlyRIRf0JCynve4yo,"[u'point_of_interest', u'establishment']"
0,43.494115,5.2052795,Ortec,ChIJG1MpSBPlyRIRn2qi1JXJPtE,"[u'point_of_interest', u'establishment']"
0,43.497855,5.204614,DALOREC,ChIJXxtGX2nlyRIRz4mTtwgvmog,"[u'point_of_interest', u'establishment']"
0,43.495992,5.206102,Sarl C.r.i Thouraya,ChIJneeiXmnlyRIR4AVuBTCaaLY,"[u'restaurant', u'bar', u'food', u'point_of_interest', u'establishment']"
0,43.4959941,5.2074194,Madaoui Ahmed,ChIJXxtGX2nlyRIRgzoerdYK6_g,"[u'finance', u'point_of_interest', u'establishment']"
0,43.493958,5.207854,Transports Gigi France,ChIJ5bzO8mzlyRIRbmiUkQ6A7sc,"[u'moving_company', u'point_of_interest', u'establishment']"
0,43.4960102,5.2085502,Solamat-Merex,ChIJXxtGX2nlyRIR67OUDF0spFM,"[u'point_of_interest', u'establishment']"
0,43.4940402,5.2082197,Idm,ChIJVXpQi2zlyRIRFoozINRXKxg,"[u'real_estate_agency', u'point_of_interest', u'establishment']"
0,43.4969955,5.2081419,SPUR Environnement,ChIJXxtGX2nlyRIRDPCsWhyGkIg,"[u'point_of_interest', u'establishment']"
0,43.5320549,5.1894619,Leporatti Campana Magali,ChIJsRLxd9n6yRIRse9AzFR9Fz0,"[u'point_of_interest', u'establishment']"
0,43.550993,5.194541,La Fare-les-Oliviers,ChIJw-Loe_D6yRIR58l1lAuUaws,"[u'locality', u'political']"
0,43.520446,5.1943411,Pomona,ChIJXxvF71zkyRIRf7DGOsvk6BM,"[u'point_of_interest', u'establishment']"
0,43.5184945,5.1970533,Rector Lesage,ChIJWVkCeyblyRIRPme9moT7r70,"[u'general_contractor', u'point_of_interest', u'establishment']"
0,43.526891,5.192173,Gatte et Brémonnes,ChIJYUQ9A9H6yRIRwQs2aWEfGsg,"[u'sublocality_level_1', u'sublocality', u'political']"
0,43.5168208,5.1997744,Transports Schenker-Joyau,ChIJWVkCeyblyRIR93VKdqQ4HWc,"[u'moving_company', u'point_of_interest', u'establishment']"
0,43.5135872,5.2043589,Canal de provence (Sté du),ChIJIXOPbDblyRIRZf8EnMQM2aQ,"[u'point_of_interest', u'establishment']"
0,43.5137023,5.204098,Société du Canal de Provence,ChIJiVS5bjblyRIRwWDavY1fSt4,"[u'point_of_interest', u'establishment']"
0,43.513677,5.204352,Love & Provence,ChIJIXOPbDblyRIRIvlruxYilDM,"[u'point_of_interest', u'establishment']"
0,43.51903,5.20053,Station-service TOTAL Access,ChIJ7bDiXzPlyRIRmZPmoe655gg,"[u'gas_station', u'point_of_interest', u'establishment']"
0,43.5091028,5.2064561,Imprimerie Rockson,ChIJKXoX7kflyRIRRdbBAeRypwQ,"[u'store', u'point_of_interest', u'establishment']"
0,43.514747,5.2056319,unnamed,ChIJoTYo_zXlyRIRUqsMTsEu_rk,"[u'point_of_interest', u'establishment']"
0,43.5189778,5.200656,Le Relais des Chasseurs,ChIJlXv-Wtz6yRIRyRVI9JIDhkM,"[u'restaurant', u'bar', u'food', u'point_of_interest', u'establishment']"
0,43.5101148,5.2057068,LE POTAZE,ChIJnzyF-kflyRIRvSMsXQdmRI8,"[u'grocery_or_supermarket', u'food', u'store', u'point_of_interest', u'establishment']"
0,43.510104,5.205796,O transmontano,ChIJ4zd_AkjlyRIRpWXqc7dV0RU,"[u'restaurant', u'food', u'point_of_interest', u'establishment']"
0,43.5199406,5.1999182,Natural Stone,ChIJIeYKA5z7yRIRaHTPpcnQQIo,"[u'point_of_interest', u'establishment']"
0,43.516407,5.2075521,Snc Cougourdan,ChIJ5bC3W0rlyRIRoN9t-bFF7O8,"[u'store', u'point_of_interest', u'establishment']"
0,43.5082971,5.2072765,UTP (Union des Transporteurs de Provence),ChIJ2Vw_v0flyRIRH9ENCU3y740,"[u'moving_company', u'storage', u'point_of_interest', u'establishment']"
0,43.5083089,5.207309,Transports Suma,ChIJi_Meo0flyRIRVm3rE8UucbA,"[u'point_of_interest', u'establishment']"
0,43.5137211,5.2090524,Parc du Souléou,ChIJP9T9FEnlyRIRMcAqp0whqWw,"[u'park', u'premise', u'point_of_interest', u'establishment']"
0,43.515155,5.1216369,Ribatti SARL,ChIJwak7xTfjyRIRNMWwdu904is,"[u'point_of_interest', u'establishment']"
0,43.512926,5.118206,Club Nautique Berrois,ChIJDfLB6DnjyRIR52JQm7dN75c,"[u'point_of_interest', u'establishment']"
0,43.5120689,5.117801,13130,ChIJfeEfjjnjyRIRdL6G7UDmsKI,"[u'parking', u'point_of_interest', u'establishment']"
0,43.5124749,5.1174463,Spiaggia dei Merveilles,ChIJK4Cu9DnjyRIRym8C2uc8akA,"[u'point_of_interest', u'establishment']"
0,43.550669,5.034508,Saint-Chamas,ChIJTRirTeoCthIRTIH89NUuxbE,"[u'locality', u'political']"
0,43.5329762,5.1912263,La Sabretache,ChIJgSVuLM3kyRIR92sIqeg4Y3o,"[u'point_of_interest', u'establishment']"
0,43.5343897,5.1922832,CAPL,ChIJgSVuLM3kyRIRd9ACi0Xja1Q,"[u'point_of_interest', u'establishment']"
0,43.5358803,5.1972404,Destinations gourmandes,ChIJJ9h-nsP6yRIRAVFxOZrZ7yw,"[u'store', u'point_of_interest', u'establishment']"
0,43.5395343,5.1878094,PGS Provence,ChIJK61igeD6yRIRqIL2JrtWnsk,"[u'point_of_interest', u'establishment']"
0,43.5394175,5.1854835,Aeroclub,ChIJY4uSB-D6yRIRFQmZegQF1u4,"[u'park', u'point_of_interest', u'establishment']"
0,43.53405,5.191951,13130,ChIJTYPeiNv6yRIRjvwRAj2_cNg,"[u'point_of_interest', u'establishment']"
0,43.533168,5.194727,unnamed,ChIJ-1iZSNv6yRIRAHmppmxbi6U,"[u'point_of_interest', u'establishment']"
0,43.5344844,5.1936025,Strom-Tejsen Michaël,ChIJqyBxm9z6yRIRP-secbSelcs,"[u'doctor', u'health', u'point_of_interest', u'establishment']"
0,43.5345593,5.1935357,Santiago Anthony,ChIJqyBxm9z6yRIRpE0fxKC-qzQ,"[u'point_of_interest', u'establishment']"
0,43.5359737,5.1923474,Reptoplus,ChIJIeYKA5z7yRIRr2vCWV39h48,"[u'point_of_interest', u'establishment']"
0,43.5396199,5.1870732,Sotraman Transports,ChIJXS_Xe-D6yRIRufaIncsw6cc,"[u'point_of_interest', u'establishment']"
0,43.5325739,5.194559,Pont de la Fare,ChIJXwRMOtv6yRIRpArzPpStWsE,"[u'premise', u'point_of_interest', u'establishment']"
0,43.523013,5.253467,Velaux,ChIJHzYUOR_wyRIRkP6W_aUZCAQ,"[u'locality', u'political']"
0,43.523729,5.112696,Ancien Moulin de Merveille,ChIJp1rbTc38yRIR8Z3Vu93Uvks,"[u'point_of_interest', u'establishment']"
0,43.5348498,5.2056328,School Of Departmental Sapeurs Pompiers,ChIJ7dT8XzrwyRIRbVd-0pdpZso,"[u'point_of_interest', u'establishment']"
