,Latitude,Longitude,Name,Place_id,Type
0,43.860621,4.952125,Cabannes,ChIJN58ZlMDwtRIRcASX_aUZCAQ,"[u'locality', u'political']"
0,43.8594451,4.9507258,Villa mahanoa,ChIJZfyQ9evwtRIREBk01uKLKLs,"[u'point_of_interest', u'establishment']"
0,43.8592581,4.9480212,Le Mas des 3 Figuiers,ChIJyUu1UuzwtRIReppz35fFtUs,"[u'lodging', u'point_of_interest', u'establishment']"
0,43.860307,4.9489343,I.C.I Immobilier Durable,ChIJ7dsS60DF5UcRDZGGZqNvzhc,"[u'real_estate_agency', u'point_of_interest', u'establishment']"
0,43.8640324,4.962145,Equestrian Center Du Mas De L'air,ChIJZboVqMTwtRIRgB7vjoaoSms,"[u'point_of_interest', u'establishment']"
0,43.8606408,4.9513951,Association L Eau Vive,ChIJZ1MjOOnwtRIRSAnrIRzNVkQ,"[u'point_of_interest', u'establishment']"
0,43.8571344,4.9566602,AssistantMicro - Bonnafoux Bernard,ChIJY4KCbMDwtRIR-FoOWHmJVRU,"[u'point_of_interest', u'establishment']"
0,43.8564529,4.9517908,Ari,ChIJC1pjRuvwtRIRE_9kVy5mSLU,"[u'point_of_interest', u'establishment']"
0,43.8601231,4.9476362,Centre de Loisirs,ChIJhwtzhO7wtRIRpe0nWesyOn4,"[u'point_of_interest', u'establishment']"
0,43.8614762,4.9506266,Pharmacie Bailly,ChIJTQpVU-nwtRIRID-9ehdyK5Q,"[u'pharmacy', u'health', u'store', u'point_of_interest', u'establishment']"
0,43.8603289,4.9563769,Eurl palsem,ChIJB_iLAsLwtRIRWNdfr1A9ScA,"[u'point_of_interest', u'establishment']"
0,43.8601449,4.9485638,Crédit Agricole Alpes Provence,ChIJhwtzhO7wtRIR5YSCU0hhKIU,"[u'bank', u'atm', u'finance', u'point_of_interest', u'establishment']"
0,43.8592932,4.9494676,sono-light animation,ChIJMQQ6RuzwtRIRsxvct4xmNmo,"[u'point_of_interest', u'establishment']"
0,43.858122,4.951683,Eurodix SAS,ChIJh7nJYZTwtRIR9s-_7FVmSls,"[u'point_of_interest', u'establishment']"
0,43.8585399,4.9492204,Crédit Agricole Alpes Provence,ChIJhwtzhO7wtRIR04EqJk6m-98,"[u'bank', u'atm', u'finance', u'point_of_interest', u'establishment']"
0,43.8585354,4.9512162,Maison de Retraite de Cabannes,ChIJi2nkhOvwtRIR7dJs8_CqNB4,"[u'health', u'point_of_interest', u'establishment']"
0,43.8563233,4.9518983,Transfert SAS,ChIJ2aDnR-vwtRIRyUxKpfTOog8,"[u'point_of_interest', u'establishment']"
0,43.8560334,4.9516487,Penellon Pascale,ChIJVS1TSevwtRIRFO541rnY5dc,"[u'point_of_interest', u'establishment']"
0,43.8605315,4.9496824,A.d.m.r,ChIJCYmRHezwtRIRipvA2lRM5qc,"[u'point_of_interest', u'establishment']"
0,43.853584,4.950418,Saint-Michel,ChIJmdnDfpPwtRIR9lg_Wmf2gl4,"[u'sublocality_level_1', u'sublocality', u'political']"
0,43.8617711,4.9513642,Mairie,ChIJhwtzhO7wtRIREtQav3StI4M,"[u'city_hall', u'local_government_office', u'point_of_interest', u'establishment']"
0,43.860307,4.9489343,Internet Coaching Immobilier,ChIJu7vtnO7wtRIRwpx582Ihl4s,"[u'real_estate_agency', u'point_of_interest', u'establishment']"
0,43.8603886,4.9500919,Post Office,ChIJS-ogA-zwtRIRnuMZI6tBoO8,"[u'post_office', u'finance', u'point_of_interest', u'establishment']"
0,43.855796,4.950418,Intermarché Contact,ChIJmdnDfpPwtRIRrhWBK7rNlL0,"[u'grocery_or_supermarket', u'food', u'store', u'point_of_interest', u'establishment']"
0,43.8522895,4.96069,Eurofresh,ChIJlZYI0r7wtRIRknvSNvYknfI,"[u'food', u'point_of_interest', u'establishment']"
0,43.8612924,4.9504038,Alex Vert Tige,ChIJoyfMs-7wtRIR1qjYEItF2qk,"[u'park', u'point_of_interest', u'establishment']"
0,43.860517,4.9498299,Mairie,ChIJUc2aHezwtRIR2CHmMSHww98,"[u'local_government_office', u'point_of_interest', u'establishment']"
0,43.8585482,4.949206,Commune de Cabannes,ChIJfXIzXOzwtRIRoUSo77opgDM,"[u'point_of_interest', u'establishment']"
0,43.8607549,4.9489162,Caisse d'Epargne Cabannes,ChIJhwtzhO7wtRIRvQpNkNuTxMg,"[u'bank', u'finance', u'point_of_interest', u'establishment']"
0,43.8522895,4.96069,Vert'Tige,ChIJlZYI0r7wtRIRBqcTi6AnEW0,"[u'grocery_or_supermarket', u'food', u'store', u'point_of_interest', u'establishment']"
0,43.860871,4.948902,Le Milano,ChIJqVIFJ-zwtRIREhfRtFeyEXc,"[u'meal_delivery', u'meal_takeaway', u'restaurant', u'food', u'point_of_interest', u'establishment']"
0,43.8608,4.9485,MMA Cabannes,ChIJe_cVhO7wtRIRRDc3L68w7T4,"[u'insurance_agency', u'point_of_interest', u'establishment']"
0,43.8608116,4.9490691,Tabac Presse Casteau Pascal,ChIJTeOhnu7wtRIRWuHq2wNgMjI,"[u'point_of_interest', u'establishment']"
0,43.860728,4.9490248,Banque Chaix,ChIJM6HTne7wtRIRLvauwqOeVFc,"[u'bank', u'finance', u'point_of_interest', u'establishment']"
0,43.8611848,4.9490659,La Cabanette,ChIJQ6FCnO7wtRIRy1ZmPNZcZgY,"[u'bakery', u'food', u'store', u'point_of_interest', u'establishment']"
0,43.8608174,4.9489453,Ruet Alexandre,ChIJR57tnO7wtRIRcOrANr5weQY,"[u'point_of_interest', u'establishment']"
0,43.8610137,4.9485498,Duclos Marc Roger Simon,ChIJhwtzhO7wtRIRlbjaENX5p-o,"[u'insurance_agency', u'point_of_interest', u'establishment']"
0,43.8610842,4.9481636,MOTOR GARAGE,ChIJJVF8fe7wtRIRRfJFQgg4SYU,"[u'car_repair', u'point_of_interest', u'establishment']"
0,43.8644253,4.9515653,Rabier Sciavartini SARL,ChIJ2YnOu-jwtRIR8KETIGwkFmU,"[u'general_contractor', u'point_of_interest', u'establishment']"
0,43.8623016,4.9485884,Peral Pierre,ChIJd_Zb8O7wtRIRXirk8RObGg8,"[u'point_of_interest', u'establishment']"
0,43.861715,4.9479015,Sanelec,ChIJTyd2sykxV0ARUPyCjGsbnhs,"[u'point_of_interest', u'establishment']"
0,43.8587733,4.946672,Rachet Daniel,ChIJr83pmO3wtRIRBsHWpSZWt4c,"[u'electrician', u'point_of_interest', u'establishment']"
0,43.8587733,4.946672,Inovaciel,ChIJr83pmO3wtRIRTS8pJJSQvTo,"[u'point_of_interest', u'establishment']"
0,43.8508752,4.9625263,Synergie,ChIJX53iZrnwtRIRq4c9TffJYHg,"[u'point_of_interest', u'establishment']"
0,43.8508752,4.9625263,Sa Vilhet,ChIJX53iZrnwtRIRGV1MM4W8ZzU,"[u'point_of_interest', u'establishment']"
0,43.8518027,4.9654554,Les Crudettes,ChIJlZYI0r7wtRIRPhwxX4jQLoQ,"[u'point_of_interest', u'establishment']"
0,43.8608428,4.9527602,Lli Andre,ChIJl-Z1nOnwtRIRjnBZEsQfpl4,"[u'plumber', u'point_of_interest', u'establishment']"
0,43.861025,4.9545619,Progettc,ChIJZ5PtkunwtRIRwoe54nJhoxA,"[u'point_of_interest', u'establishment']"
0,43.8608428,4.9527602,Perez Lli Christine Rose Marie,ChIJO-F1nOnwtRIRf3v4HzKrOyo,"[u'department_store', u'store', u'point_of_interest', u'establishment']"
0,43.8619127,4.9483494,La Renaissance,ChIJ1cTFiu7wtRIRuKciQxqfLHw,"[u'bar', u'point_of_interest', u'establishment']"
0,43.8607854,4.9543651,Clement Daniel Alain,ChIJb6r1kOnwtRIRvyIOChYvvFc,"[u'point_of_interest', u'establishment']"
0,43.8593371,4.9575331,Nicolas Michel,ChIJH56Zm8HwtRIR6B9Gr9jDTr4,"[u'grocery_or_supermarket', u'food', u'store', u'point_of_interest', u'establishment']"
0,43.8574435,4.9587318,Sdge - Solution de Gestion,ChIJD9dF-cDwtRIRO9iPOmyFG8M,"[u'point_of_interest', u'establishment']"
0,43.8597517,4.9581571,Roussel Hubert,ChIJbfL0hMHwtRIRUh9wc7aT1IM,"[u'movie_rental', u'point_of_interest', u'establishment']"
0,43.8586673,4.9559389,Sci les Couroulus,ChIJg4dnburwtRIRv9avtfx8pKQ,"[u'real_estate_agency', u'point_of_interest', u'establishment']"
0,43.8580485,4.9558549,INFO-ID,ChIJdVVnOuvwtRIR6pEkmI_5NtY,"[u'point_of_interest', u'establishment']"
0,43.8588692,4.9554026,PLOMBIÊR Bernard,ChIJCdbNc-rwtRIRKvX1mNrN2XQ,"[u'point_of_interest', u'establishment']"
0,43.8605391,4.9576846,Debard Mireille,ChIJNQHRJcLwtRIRqmdC1SlaPwI,"[u'jewelry_store', u'store', u'point_of_interest', u'establishment']"
0,43.8588588,4.9550344,Vouland Jean-Paul,ChIJQZBjburwtRIRkG4YjJJSzlM,"[u'point_of_interest', u'establishment']"
0,43.858422,4.9545744,Rigal Fernand Henri,ChIJC_RyQurwtRIRoCkh_H-ebq4,"[u'point_of_interest', u'establishment']"
0,43.8510292,4.9500744,Entrepôts Frigorifiques de Cabannes,ChIJOxq54pPwtRIRFwWafqr4gVY,"[u'point_of_interest', u'establishment']"
0,43.8492791,4.9659005,Stud Des Outures,ChIJ9drsDLrwtRIRhiT4BRq1omk,"[u'point_of_interest', u'establishment']"
0,43.8499092,4.9669342,Sud France Packaging,ChIJMZrpJv_wtRIRfEZmbGWtRSg,"[u'point_of_interest', u'establishment']"
0,43.8489581,4.967029,ID Logistique,ChIJX-6ll7DwtRIRrQIAPPdYPZE,"[u'moving_company', u'point_of_interest', u'establishment']"
0,43.8431237,4.9535789,IROKO SAS,ChIJa8WQ_JjwtRIRfA1HodlvM2E,"[u'point_of_interest', u'establishment']"
0,43.8431237,4.9535789,Sarl Abco,ChIJa8WQ_JjwtRIRKEwPxOqSMDQ,"[u'furniture_store', u'home_goods_store', u'store', u'point_of_interest', u'establishment']"
0,43.8418142,4.959013,TNT,ChIJR4rxz6PwtRIRluF7gEz0bQc,"[u'point_of_interest', u'establishment']"
0,43.8418142,4.959013,Robert Marc,ChIJP_V5EqbwtRIR1t0_u8tJ354,"[u'point_of_interest', u'establishment']"
0,43.84163,4.958854,O/R BIEN ETRE,ChIJn4br0aPwtRIRbHAs8jMNXYY,"[u'health', u'point_of_interest', u'establishment']"
0,43.835465,4.944566,Saint-Andiol,ChIJ9-2LsHb6tRIRAACX_aUZCAQ,"[u'locality', u'political']"
0,43.8522895,4.96069,Earl Leveque Rieu,ChIJlZYI0r7wtRIRBbeWttDsy_8,"[u'food', u'point_of_interest', u'establishment']"
0,43.8522895,4.96069,Prouheze Aurélia,ChIJlZYI0r7wtRIRcVyR7ClYwfA,"[u'point_of_interest', u'establishment']"
0,43.8522895,4.96069,Scm Des Docteurs Prouheze Et Pancrazi,ChIJlZYI0r7wtRIRc5Umzdg33OU,"[u'dentist', u'health', u'point_of_interest', u'establishment']"
0,43.8522895,4.96069,Estebe Jean-Noel,ChIJlZYI0r7wtRIRANHzwx7FSOI,"[u'finance', u'point_of_interest', u'establishment']"
0,43.8522895,4.96069,Vigouroux Aufeuve Micheline Fernande,ChIJlZYI0r7wtRIRo9q3p5Qadto,"[u'point_of_interest', u'establishment']"
0,43.8522895,4.96069,Reynaud Gilles,ChIJlZYI0r7wtRIRiZsHLke9L9k,"[u'point_of_interest', u'establishment']"
0,43.8522895,4.96069,Plane Martinez Marie-Luce Andree,ChIJlZYI0r7wtRIRKXWH3-J4Hcs,"[u'health', u'point_of_interest', u'establishment']"
0,43.8522895,4.96069,Rabis Lilian,ChIJlZYI0r7wtRIR1tV8WRhdjsA,"[u'point_of_interest', u'establishment']"
0,43.8522895,4.96069,Fabre Jean-Paul,ChIJlZYI0r7wtRIRp8kiUMEAJpo,"[u'store', u'point_of_interest', u'establishment']"
0,43.8522895,4.96069,Marion Matthieu,ChIJlZYI0r7wtRIRG5uRc-wKh4o,"[u'store', u'point_of_interest', u'establishment']"
0,43.8522895,4.96069,Reynaud Serge Elie,ChIJlZYI0r7wtRIRIW6yzNxqdnw,"[u'point_of_interest', u'establishment']"
0,43.8522895,4.96069,Lemaitre Bertrand Angelique Magali,ChIJlZYI0r7wtRIR-zETOIGmEXo,"[u'point_of_interest', u'establishment']"
0,43.8522895,4.96069,Bonnaud Robert,ChIJlZYI0r7wtRIRl-2IXaA573c,"[u'point_of_interest', u'establishment']"
0,43.8522895,4.96069,Constantin Viviane,ChIJlZYI0r7wtRIRN-iwb_bMSE8,"[u'point_of_interest', u'establishment']"
0,43.8522895,4.96069,Vangelista Ludovic,ChIJlZYI0r7wtRIRFcs8XTiHCkg,"[u'car_repair', u'point_of_interest', u'establishment']"
0,43.8522895,4.96069,Mourgues Jean-Marc,ChIJlZYI0r7wtRIRoD7xsEO49S4,"[u'point_of_interest', u'establishment']"
0,43.8522895,4.96069,LA PAELLA D'ANTONIN,ChIJlZYI0r7wtRIR4mGhg954nyg,"[u'meal_delivery', u'food', u'point_of_interest', u'establishment']"
0,43.8522895,4.96069,Michel Alain,ChIJlZYI0r7wtRIR8nBy9H-R9yI,"[u'health', u'point_of_interest', u'establishment']"
0,43.8522895,4.96069,Dumas Gerard Pierre,ChIJlZYI0r7wtRIRPSjxMn7ZBBo,"[u'electrician', u'point_of_interest', u'establishment']"
0,43.8522895,4.96069,Bellagamba Nadine,ChIJlZYI0r7wtRIRtXtDBidzqAE,"[u'food', u'point_of_interest', u'establishment']"
0,43.8508752,4.9625263,Gomez Vouland Isabelle,ChIJX53iZrnwtRIR461zWnIW2PE,"[u'food', u'point_of_interest', u'establishment']"
0,43.8508752,4.9625263,Dumas Patrick,ChIJX53iZrnwtRIRFPzOVcFH0NQ,"[u'point_of_interest', u'establishment']"
0,43.8508752,4.9625263,Yousfi Fatima,ChIJX53iZrnwtRIRYd_Rs47RuEU,"[u'point_of_interest', u'establishment']"
0,43.8538517,4.9557178,ITM,ChIJCR3jYpXwtRIRZkiMu09YuaE,"[u'store', u'point_of_interest', u'establishment']"
0,43.8538517,4.9557178,Transports NC 13,ChIJCR3jYpXwtRIROB_01y-8AEE,"[u'point_of_interest', u'establishment']"
0,43.8537828,4.9531271,Val Sourcing Cabannes,ChIJI1of_ZTwtRIR0I7tYLwjHQ8,"[u'food', u'store', u'point_of_interest', u'establishment']"
0,43.854569,4.9547885,Leveque Geoffroy,ChIJu6UPRZXwtRIRTfRghcmA5YI,"[u'point_of_interest', u'establishment']"
0,43.850846,4.9656309,Dussurgey Sas,ChIJm8ue-rnwtRIR6NZtyJ9uH4w,"[u'grocery_or_supermarket', u'food', u'store', u'point_of_interest', u'establishment']"
0,43.8472101,4.9505921,Brieune Nathalie,ChIJ0fjptJDwtRIRpLz6JKw052Y,"[u'point_of_interest', u'establishment']"
0,43.8532523,4.9517836,Corsica Comptoir,ChIJh7nJYZTwtRIRpGzZ7W6bczk,"[u'point_of_interest', u'establishment']"
0,43.8510292,4.9500744,Chalindar Christian,ChIJOxq54pPwtRIRU204625dAM0,"[u'general_contractor', u'point_of_interest', u'establishment']"
0,43.8510292,4.9500744,L'entrecote Sorguaise,ChIJOxq54pPwtRIRftOUEf82lo4,"[u'point_of_interest', u'establishment']"
0,43.8510292,4.9500744,Pauthonnier Christian,ChIJOxq54pPwtRIRorUsqAZUEHk,"[u'point_of_interest', u'establishment']"
0,43.8510292,4.9500744,Vilhet Fruit,ChIJOxq54pPwtRIRTjS6HQLnNUg,"[u'grocery_or_supermarket', u'food', u'store', u'point_of_interest', u'establishment']"
0,43.8510292,4.9500744,Mag'Arom,ChIJOxq54pPwtRIRYWJiVtRs6zw,"[u'grocery_or_supermarket', u'food', u'store', u'point_of_interest', u'establishment']"
0,43.8510292,4.9500744,MB Fruits,ChIJOxq54pPwtRIRSM45z5TdTAg,"[u'grocery_or_supermarket', u'food', u'store', u'point_of_interest', u'establishment']"
0,43.8556061,4.955681,Bonelli les Paluds,ChIJkWsiq-rwtRIRjIIHKyFqiNQ,"[u'point_of_interest', u'establishment']"
0,43.853622,4.951086,Mas de St-Andiol,ChIJgySuZpTwtRIRnlf-KCvfK5E,"[u'lodging', u'point_of_interest', u'establishment']"
0,43.853584,4.950418,ISG Immo Sem Guyane,ChIJmdnDfpPwtRIRo7V7Gho02OM,"[u'real_estate_agency', u'point_of_interest', u'establishment']"
0,43.893256,4.944208,Caumont-sur-Durance,ChIJWUKtjhjxtRIRAMWP_aUZCAQ,"[u'locality', u'political']"
0,43.8659369,4.9478883,Minutie,ChIJhRHJeeXwtRIR_iYW6-7JWRs,"[u'point_of_interest', u'establishment']"
0,43.8689128,4.9466009,Earl Pepinieres Joubert,ChIJFZ_5wOTwtRIRvN9i0-jU-xs,"[u'food', u'point_of_interest', u'establishment']"
0,43.8664975,4.9535186,Laurencich Didier,ChIJpbQCtefwtRIRqcxr2T4Phsc,"[u'food', u'point_of_interest', u'establishment']"
0,43.8664975,4.9535186,Vouland Pascal,ChIJpbQCtefwtRIRWjDTkykfqK4,"[u'point_of_interest', u'establishment']"
0,43.8664975,4.9535186,Boldarino Laurencich Maryse,ChIJpbQCtefwtRIRSTlc39hKb0k,"[u'food', u'point_of_interest', u'establishment']"
0,43.864385,4.9610847,Rolland Patrick,ChIJZboVqMTwtRIRMLAT9pnkJvQ,"[u'painter', u'point_of_interest', u'establishment']"
0,43.864385,4.9610847,Menard Aurelien,ChIJZboVqMTwtRIRxbY90uD-D88,"[u'electrician', u'point_of_interest', u'establishment']"
0,43.864385,4.9610847,Sarl Bartolotta Terrassement,ChIJZboVqMTwtRIRFeJ_phb4E30,"[u'general_contractor', u'point_of_interest', u'establishment']"
0,43.8644253,4.9515653,Goujon-pralus,ChIJkwfAu-jwtRIR3v_W-_aNyG0,"[u'point_of_interest', u'establishment']"
0,43.8644253,4.9515653,Réjo Yvan,ChIJ2YnOu-jwtRIRunv2syuTXgY,"[u'doctor', u'health', u'point_of_interest', u'establishment']"
0,43.8621842,4.9556125,Seabra Filipe Antonio Jose,ChIJMz521-nwtRIRK4ZUiBMaFAk,"[u'painter', u'point_of_interest', u'establishment']"
0,43.8612944,4.9562228,Isoard Francis,ChIJf6V7DMLwtRIRFO1wc8a4w84,"[u'point_of_interest', u'establishment']"
0,43.8613354,4.9552025,Villaescusa Frederic,ChIJI3al6OnwtRIRo2iSKDXGJ78,"[u'finance', u'point_of_interest', u'establishment']"
0,43.8621936,4.9527769,Botella Roland,ChIJl6BbD-nwtRIRSIy76ywYq4w,"[u'finance', u'point_of_interest', u'establishment']"
0,43.8666264,4.9475445,Halili Ismet,ChIJV7L8geXwtRIRvvEy-Rwu5UY,"[u'point_of_interest', u'establishment']"
0,43.8615833,4.9530957,Sci Tamaillon,ChIJW6hjoOnwtRIRhqX3-8jYOSg,"[u'point_of_interest', u'establishment']"
0,43.863706,4.949922,Soulard Thomas,ChIJ73M-VOnwtRIRsVw9Nsuhyj4,"[u'furniture_store', u'home_goods_store', u'store', u'point_of_interest', u'establishment']"
0,43.8644495,4.9490118,Cayuela Sandrine,ChIJw-M5bO_wtRIRY7eyAE_Trxs,"[u'point_of_interest', u'establishment']"
0,43.8659369,4.9478883,Xavier Dubois Xavier,ChIJhRHJeeXwtRIRj15UmXZuwSc,"[u'point_of_interest', u'establishment']"
0,43.8617711,4.9513642,School Maternelle-Publique,ChIJZ1MjOOnwtRIRBW1sAtGpWow,"[u'school', u'point_of_interest', u'establishment']"
0,43.861602,4.9502805,Camille GIRAUD Ostéopathe D.O.,ChIJFeRmtu7wtRIRdtBXVt0hkVw,"[u'health', u'point_of_interest', u'establishment']"
0,43.8616027,4.9502759,"Angélique OLIVON, Diététicienne-Nutritionniste",ChIJTxBntu7wtRIREbHgEK1zSGw,"[u'health', u'point_of_interest', u'establishment']"
0,43.8607636,4.9515165,Garidel Boulangerie,ChIJZ2J8WenwtRIRcQ6QHiDJATA,"[u'point_of_interest', u'establishment']"
0,43.8616808,4.9499638,Monteil David,ChIJNRwUuO7wtRIRO3vgIrgKX6k,"[u'point_of_interest', u'establishment']"
0,43.8605708,4.9518088,Monot Charles,ChIJtyYIX-nwtRIR37KqpxbPSZI,"[u'point_of_interest', u'establishment']"
0,43.861851,4.9496406,Fabre Frederic,ChIJWRiZwO7wtRIRz1kAUPnUnv8,"[u'lawyer', u'finance', u'point_of_interest', u'establishment']"
0,43.8689128,4.9466009,Latil Fernay Nicole Marcelle Augu,ChIJFZ_5wOTwtRIRvr4OkQH02s8,"[u'point_of_interest', u'establishment']"
0,43.8688999,4.9465873,Les Ecuries Pegase,ChIJ92P8wOTwtRIRse40npk1P5w,"[u'travel_agency', u'point_of_interest', u'establishment']"
0,43.8603697,4.9520637,Vidal Marielle,ChIJIx-_3-vwtRIRS7YVKy5fu1s,"[u'point_of_interest', u'establishment']"
0,43.8688852,4.9464822,Bichet Liliane,ChIJFZ_5wOTwtRIRtZo_TIA4NyA,"[u'store', u'point_of_interest', u'establishment']"
0,43.8608602,4.9508068,Bonnet Pascale,ChIJ7W8TrO7wtRIR5to6Nv-b0Fk,"[u'doctor', u'health', u'point_of_interest', u'establishment']"
0,43.8608602,4.9508068,Dura Monique,ChIJ7W8TrO7wtRIR-TQeorRw9DM,"[u'doctor', u'health', u'point_of_interest', u'establishment']"
0,43.860758,4.950942,Groupement Employeurs Provence Alpille,ChIJyZ0RVOnwtRIRpgMJcBq1clc,"[u'point_of_interest', u'establishment']"
0,43.8608452,4.9505493,Noc Alex,ChIJx_2prO7wtRIRXTCADuCbjsY,"[u'food', u'store', u'point_of_interest', u'establishment']"
0,43.8618649,4.9490341,Girard Celine,ChIJixNiv-7wtRIRVnkszWy_3xY,"[u'point_of_interest', u'establishment']"
0,43.8609268,4.950216,Iben Hamou Abdelhadi,ChIJHYXmru7wtRIRqMtB98aDL0M,"[u'point_of_interest', u'establishment']"
0,43.860902,4.949995,13440,ChIJqdTzpe7wtRIRR3qlBQ3LJvE,"[u'church', u'place_of_worship', u'point_of_interest', u'establishment']"
0,43.8607721,4.9501587,Fabro Candide,ChIJGT3Bru7wtRIRGekyQdxy7yk,"[u'point_of_interest', u'establishment']"
0,43.8611945,4.9494658,Manin Richard,ChIJ81IOmO7wtRIRU-k3TI6JB4s,"[u'point_of_interest', u'establishment']"
0,43.8610918,4.9496064,Dicchi Frederic,ChIJkfc-o-7wtRIRoGqTt1i9LeU,"[u'painter', u'point_of_interest', u'establishment']"
0,43.8600981,4.9664854,Noc Romain,ChIJVWgjVM_wtRIRswB9SAnG1Iw,"[u'point_of_interest', u'establishment']"
0,43.8594155,4.9710204,L Etoile Verte,ChIJt_V-UcnwtRIRpK2Uj22It5Y,"[u'moving_company', u'real_estate_agency', u'point_of_interest', u'establishment']"
0,43.8594155,4.9710204,SDF Espanet Et Brachotte,ChIJt_V-UcnwtRIRJhUaEmRDHoY,"[u'lodging', u'point_of_interest', u'establishment']"
0,43.8594155,4.9710204,M.n.d.,ChIJt_V-UcnwtRIR0Y7TOUQrtyo,"[u'moving_company', u'point_of_interest', u'establishment']"
0,43.8550733,4.9706078,Viret Gabriel,ChIJXyrW48nwtRIRJIe0L9Y7Geo,"[u'point_of_interest', u'establishment']"
0,43.8550733,4.9706078,Pitrat Bernard,ChIJXyrW48nwtRIRlMbzgoNQe90,"[u'point_of_interest', u'establishment']"
0,43.8550733,4.9706078,Marc Menichini Beatrice,ChIJXyrW48nwtRIRVYlY3UnKRbQ,"[u'hair_care', u'point_of_interest', u'establishment']"
0,43.8550733,4.9706078,Defrasne Alain,ChIJXyrW48nwtRIR4s-bBsVtpZQ,"[u'point_of_interest', u'establishment']"
0,43.8550733,4.9706078,Chevallier Marcellin Agnès,ChIJXyrW48nwtRIRvo8UHPNTjFY,"[u'food', u'point_of_interest', u'establishment']"
0,43.8550733,4.9706078,Menichini Gerard,ChIJXyrW48nwtRIRFuiTj0KL8E8,"[u'point_of_interest', u'establishment']"
0,43.854183,4.968432,Sarl Topia,ChIJd6nuzrfwtRIRWHPEkqYewps,"[u'general_contractor', u'point_of_interest', u'establishment']"
0,43.852215,4.96729,Sud Elec,ChIJFUHMc7fwtRIR63MxPHbV5o0,"[u'electrician', u'point_of_interest', u'establishment']"
0,43.8522031,4.9673156,Vilhet Fruit,ChIJgajKc7fwtRIRWCgehhhdrn0,"[u'food', u'point_of_interest', u'establishment']"
0,43.8521434,4.9673655,Illisson Earl,ChIJFUHMc7fwtRIRuvI49Vhhlwc,"[u'point_of_interest', u'establishment']"
0,43.8562523,4.9558055,Dlerdj Macas Sarl Pmie Pose Menuis Et In Djerdj,ChIJg_zFp-rwtRIRx3cq6udacEA,"[u'point_of_interest', u'establishment']"
0,43.8545241,4.9433718,La Cabane Aux Ponies,ChIJ1fdkGY3wtRIRAG2MKbPUZyo,"[u'point_of_interest', u'establishment']"
0,43.8610805,4.9442076,Private School Sainte Madeleine,ChIJbeMlhp3wtRIROt4enHuKZFg,"[u'school', u'point_of_interest', u'establishment']"
0,43.8632151,4.9463821,ABAC,ChIJ710Ize_wtRIRTf2xzwK9Smo,"[u'roofing_contractor', u'plumber', u'general_contractor', u'electrician', u'furniture_store', u'home_goods_store', u'store', u'point_of_interest', u'establishment']"
0,43.8606302,4.9454682,Arnault GUIN Architecte DPLG qualifié HQE,ChIJNSaqA_LwtRIRF9mb_urOQkE,"[u'insurance_agency', u'point_of_interest', u'establishment']"
0,43.8621367,4.9432835,Cabannes Stockage Conditionnement,ChIJc95XjvfwtRIRy867jnv5fAY,"[u'grocery_or_supermarket', u'food', u'store', u'point_of_interest', u'establishment']"
0,43.863291,4.9463413,Les Jardins de la Carita,ChIJ710Ize_wtRIRsYO13Fk3oEc,"[u'general_contractor', u'point_of_interest', u'establishment']"
0,43.863233,4.946246,PRO CHAP,ChIJ710Ize_wtRIRNuJIz9XnyQo,"[u'general_contractor', u'point_of_interest', u'establishment']"
0,43.8610805,4.9442076,Communauté Communes Vallées Ax,ChIJGT-p9PHwtRIRowSs1zJeXeM,"[u'point_of_interest', u'establishment']"
0,43.8620391,4.9446014,Proxitherm,ChIJTU9qwvHwtRIRW6Xigiu4wD8,"[u'point_of_interest', u'establishment']"
0,43.863135,4.942694,Agence de communication ARTEMYA,ChIJX9mxAfHwtRIR3L3_eHB8OQM,"[u'point_of_interest', u'establishment']"
0,43.858651,4.9490492,Charhi Abdeltif,ChIJZUDwXOzwtRIR05spl0qFk9E,"[u'general_contractor', u'point_of_interest', u'establishment']"
0,43.858651,4.9490492,Famille et Provence (SA),ChIJZUDwXOzwtRIRwBdXzVEqYMs,"[u'point_of_interest', u'establishment']"
0,43.8585482,4.949206,Istiquam Benattou,ChIJfXIzXOzwtRIRyGrfuzyuRek,"[u'point_of_interest', u'establishment']"
0,43.8451147,4.9775547,Isoard Jean-Claude,ChIJ9297p1L3tRIR1xa71ORwAT8,"[u'point_of_interest', u'establishment']"
0,43.8451147,4.9775547,Leveque Frédéric,ChIJ-xjmqFL3tRIRoX__8PHmuAE,"[u'food', u'point_of_interest', u'establishment']"
0,43.8522577,4.9680479,Cabamix,ChIJv6EgD7fwtRIRUmz3PWj0v94,"[u'shopping_mall', u'point_of_interest', u'establishment']"
0,43.8483398,4.9409376,Société Construction Bastieri,ChIJg3aDMI_wtRIRGsal5hV8o-U,"[u'general_contractor', u'point_of_interest', u'establishment']"
0,43.8524849,4.9479594,Joubert Vincent,ChIJzy6-S5LwtRIRuo6fiI8nrTQ,"[u'food', u'point_of_interest', u'establishment']"
0,43.852499,4.947672,Joubert Danielle,ChIJ7TRtSZLwtRIRxrT0ZuUdC4o,"[u'point_of_interest', u'establishment']"
0,43.853584,4.950418,Semsamar,ChIJmdnDfpPwtRIRpEJMcVTiNdQ,"[u'point_of_interest', u'establishment']"
0,43.8483398,4.9409376,Gayet Garnero Giselle Marie Andree,ChIJg3aDMI_wtRIRyYApgM3TlpI,"[u'point_of_interest', u'establishment']"
0,43.8483398,4.9409376,Dumas Sevieri Josette Aimee,ChIJg3aDMI_wtRIRPZ-Ka16ez08,"[u'food', u'point_of_interest', u'establishment']"
0,43.8545241,4.9433718,Sanchez Arliny,ChIJO2CG9ozwtRIR91Vr5RLGEJg,"[u'point_of_interest', u'establishment']"
0,43.8545241,4.9433718,La Bartholette,ChIJ1fdkGY3wtRIR5QTHuwWuFGk,"[u'food', u'point_of_interest', u'establishment']"
0,43.8545241,4.9433718,Benoit Remi Henri Jean,ChIJ1fdkGY3wtRIROgBhTasoZDY,"[u'point_of_interest', u'establishment']"
0,43.8546058,4.9433195,Rabier Sciavartini (SARL),ChIJ1fdkGY3wtRIRfJjdAzEueck,"[u'point_of_interest', u'establishment']"
0,43.8484619,4.9398166,Fare Christine,ChIJxTSj0HfwtRIRnxDSWN_j5Jg,"[u'point_of_interest', u'establishment']"
0,43.848373,4.939798,Le Roucas d'Eygalières,ChIJZ9Gyz4jwtRIR4FnpGoJlOJE,"[u'point_of_interest', u'establishment']"
0,43.8564,4.9504,Cabannes - Nabon SA,ChIJsWMQpuzwtRIRoHcmtFW7GO0,"[u'point_of_interest', u'establishment']"
0,43.8564055,4.9515467,Luczeczka Magalie,ChIJ73_YRevwtRIRTBkdlw_Ovnw,"[u'store', u'point_of_interest', u'establishment']"
0,43.8564083,4.9516529,La Cabanne Du Soleil Chato,ChIJD8t3RuvwtRIR--TLDK2fakI,"[u'food', u'point_of_interest', u'establishment']"
0,43.8566207,4.9517061,David Bertaud Colette Marie Louise,ChIJ00MncevwtRIRppaohPbgpmA,"[u'point_of_interest', u'establishment']"
0,43.8568817,4.9516474,Lemrini Mohamed,ChIJ_wMCQuvwtRIRVkozsyuVwEM,"[u'car_repair', u'store', u'point_of_interest', u'establishment']"
0,43.857162,4.9479412,Rahmouni Mohamed,ChIJj0ikH-3wtRIRsEdNdu3kAVA,"[u'point_of_interest', u'establishment']"
0,43.8434,4.941886,Pizzeria du Fournil 2,ChIJmbmYRoTwtRIRvPGwMhuP1aY,"[u'point_of_interest', u'establishment']"
0,43.857449,4.949254,13440,ChIJI0397OzwtRIRdPz_FhcquOk,"[u'church', u'place_of_worship', u'point_of_interest', u'establishment']"
0,43.8519049,4.9383004,Soliplanta,ChIJ1fdkGY3wtRIRZkffJjiX_s0,"[u'food', u'point_of_interest', u'establishment']"
0,43.8576205,4.9529464,Grenier Gilbert,ChIJPXd4BOvwtRIR3hBJtIcQ0Oo,"[u'point_of_interest', u'establishment']"
0,43.8576205,4.9529464,Khoukhchi Omar,ChIJPXd4BOvwtRIR1oPbAIfu1Fs,"[u'point_of_interest', u'establishment']"
0,43.842965,4.9404709,unnamed,ChIJL9IFH4TwtRIR5c4Kk6V7XwQ,"[u'point_of_interest', u'establishment']"
0,43.864858,4.937418,Le Mas Soleil,ChIJc95XjvfwtRIR_ywgi2eFe7U,"[u'lodging', u'point_of_interest', u'establishment']"
0,43.87394,4.942104,Mas des Papesses,ChIJ2WGjAMTwtRIRPgvAfSgs4fI,"[u'lodging', u'point_of_interest', u'establishment']"
0,43.865433,4.9368429,Mairie,ChIJc95XjvfwtRIR7DBQGK4TtnY,"[u'local_government_office', u'point_of_interest', u'establishment']"
0,43.8700677,4.9460796,Gorit Laval Magali,ChIJka2PqOTwtRIRWRzTYCTysTw,"[u'point_of_interest', u'establishment']"
0,43.8366045,5.0407814,Cavaillon,ChIJHcPgI4z3tRIRh7iXQUVBPXE,"[u'locality', u'political']"
0,43.877232,4.902065,Noves,ChIJq6xTMzzwtRIRcAGX_aUZCAQ,"[u'locality', u'political']"
0,43.8653546,4.9367818,Toutentub,ChIJc95XjvfwtRIRDYBv6cLap90,"[u'point_of_interest', u'establishment']"
0,43.8659,4.9349999,Auto Sécurité - Ctc,ChIJc95XjvfwtRIRivXliJTJL0E,"[u'car_repair', u'store', u'point_of_interest', u'establishment']"
0,43.8597182,4.9423998,Brahy Michel,ChIJ49QytvPwtRIR7LlQi4SfTvQ,"[u'moving_company', u'point_of_interest', u'establishment']"
0,43.8599078,4.9426137,Aloha Elvis Jonas Codjo,ChIJYwrpy_PwtRIRX_7q_HFr0xM,"[u'general_contractor', u'point_of_interest', u'establishment']"
0,43.859866,4.9429646,Signorini Marie-Armelle,ChIJcZt2TPLwtRIRDqcsoFK8XFs,"[u'point_of_interest', u'establishment']"
0,43.8600923,4.9429996,Solaz José,ChIJzyMcuPPwtRIRcIAuHjDLU0I,"[u'plumber', u'point_of_interest', u'establishment']"
0,43.8590316,4.9437484,Andreu Samson,ChIJv1RfnO7wtRIRZbjFUg5HJyE,"[u'electrician', u'point_of_interest', u'establishment']"
0,43.8592639,4.9439862,EMC,ChIJOTDPQ_LwtRIRqkdrBN7J_0Y,"[u'general_contractor', u'point_of_interest', u'establishment']"
0,43.860111,4.944155,13440,ChIJ-Z1mPfLwtRIRHc0R03Ivf18,"[u'train_station', u'transit_station', u'point_of_interest', u'establishment']"
0,43.8609997,4.9439998,Unival,ChIJj4ozivHwtRIR9zFKP0en8uk,"[u'point_of_interest', u'establishment']"
0,43.843879,4.980589,Jean Emballages,ChIJ9ePXFFL3tRIRm0KDbaPmZ5o,"[u'store', u'point_of_interest', u'establishment']"
0,43.845879,4.932121,spiruline du soleil,ChIJ_eHu3XzwtRIRvJ-aOvwGaW0,"[u'grocery_or_supermarket', u'food', u'store', u'point_of_interest', u'establishment']"
0,43.844663,4.9326247,Sani Cuisines 7,ChIJcy8plXvwtRIRKwlSy6B-lD0,"[u'plumber', u'point_of_interest', u'establishment']"
0,43.8440684,4.9315095,Usicom Provence,ChIJcy8plXvwtRIRDgRJSyS0g1c,"[u'locksmith', u'point_of_interest', u'establishment']"
0,43.84402,4.93146,Comesud,ChIJcy8plXvwtRIRqLYKy7iCGPM,"[u'point_of_interest', u'establishment']"
0,43.844019,4.931462,Verprim Sa,ChIJcy8plXvwtRIR_4vWiDJgJZc,"[u'grocery_or_supermarket', u'food', u'store', u'point_of_interest', u'establishment']"
0,43.843738,4.931549,Agripack SA,ChIJcy8plXvwtRIR-5J9W53wzTo,"[u'point_of_interest', u'establishment']"
0,43.8437538,4.9312621,La Malle des Indes,ChIJcy8plXvwtRIRThxdBdMfPUg,"[u'furniture_store', u'home_goods_store', u'store', u'point_of_interest', u'establishment']"
0,43.841862,4.934878,ESPACEMAG - COFIDEV,ChIJY1pkAX7wtRIRXge7qABJfCE,"[u'point_of_interest', u'establishment']"
0,43.8472541,4.9348367,Mancino Silvio,ChIJJyi2rmLwtRIRv5Z7WWnOj9s,"[u'car_repair', u'point_of_interest', u'establishment']"
0,43.8472541,4.9348367,Decour Chrystel,ChIJJyi2rmLwtRIRZXZ3AYxkUIg,"[u'health', u'point_of_interest', u'establishment']"
0,43.8472541,4.9348367,Girard Robert,ChIJJyi2rmLwtRIRNogzsfaPlx0,"[u'point_of_interest', u'establishment']"
0,43.8472541,4.9348367,Louit Gisèle,ChIJJyi2rmLwtRIRdNOx_Zwlahk,"[u'health', u'point_of_interest', u'establishment']"
0,43.8472541,4.9348367,Les Cuisines de Provence,ChIJJyi2rmLwtRIR-MzlkHfNxBA,"[u'furniture_store', u'home_goods_store', u'store', u'point_of_interest', u'establishment']"
0,43.847277,4.934743,Ajouc Patrice Paul Louis,ChIJKxa2rmLwtRIR4we7BIJHWSY,"[u'point_of_interest', u'establishment']"
0,43.854273,4.9367029,Chapelle Sainte-Croix,ChIJ92__84rwtRIR_154rPvEHzk,"[u'church', u'place_of_worship', u'point_of_interest', u'establishment']"
0,43.8465073,4.9330531,La Bastide D'Odette,ChIJnfm2L33wtRIRjFK0aubeGm0,"[u'lodging', u'point_of_interest', u'establishment']"
0,43.84765,4.92965,Garoucha,ChIJP7mQt3XwtRIRK-UMEbDaeao,"[u'gas_station', u'point_of_interest', u'establishment']"
0,43.8448872,4.9314224,PARTNER SCAMI,ChIJqfZB9HzwtRIRhov06MU4H1A,"[u'point_of_interest', u'establishment']"
0,43.844127,4.93175,unnamed,ChIJM-vBWnzwtRIRqVbbWyIwP3w,"[u'point_of_interest', u'establishment']"
0,43.844668,4.931007,Ste Commercial Menuiserie Aluminium,ChIJcy8plXvwtRIRx3IS7glpCvo,"[u'point_of_interest', u'establishment']"
0,43.844019,4.931462,Provence Direct Production,ChIJiSBEQ3zwtRIRM8rRwh4E-KY,"[u'food', u'point_of_interest', u'establishment']"
0,43.844019,4.931462,Boughriba Abderrahim,ChIJiSBEQ3zwtRIRQ7EUCSswdTM,"[u'point_of_interest', u'establishment']"
0,43.84402,4.93146,Les Clos des Herbes,ChIJcy8plXvwtRIRFFdyK08jeu8,"[u'point_of_interest', u'establishment']"
0,43.843738,4.931549,Debaès Vincent,ChIJcy8plXvwtRIRjB0TsnUXJ6I,"[u'furniture_store', u'home_goods_store', u'store', u'point_of_interest', u'establishment']"
0,43.8437026,4.9312886,Institut Bien Etre,ChIJXdK_QXzwtRIRmOVZkj-udas,"[u'beauty_salon', u'point_of_interest', u'establishment']"
0,43.8437026,4.9312886,Palmero Roxane,ChIJXdK_QXzwtRIRuUK_dPIzL6g,"[u'point_of_interest', u'establishment']"
0,43.8487307,4.9280093,sci alexandre et virginie,ChIJw8ZF72TwtRIR1gyc4c5XeVQ,"[u'restaurant', u'food', u'point_of_interest', u'establishment']"
0,43.848738,4.927862,Divers Garoucha - Relais des MIN,ChIJK_3C5WTwtRIRbG1hdignOOg,"[u'point_of_interest', u'establishment']"
0,43.844016,4.933131,Granulats de provence (sarl yousfi),ChIJI8v-r33wtRIRLYiT_Lxb60Q,"[u'store', u'point_of_interest', u'establishment']"
0,43.8835891,4.9514887,ID Logistics France,ChIJIYNE7hnxtRIRkWkXjRVII4o,"[u'point_of_interest', u'establishment']"
0,43.87662,4.939699,Aire de Repos de Cabannes,ChIJl9l1jQHxtRIRorp2EW3hhiM,"[u'point_of_interest', u'establishment']"
0,43.8724205,4.9400562,Guyot Severine,ChIJ124Mg_7wtRIRGR0w2iBzjLA,"[u'point_of_interest', u'establishment']"
0,43.8838451,4.9551957,Exploitation Pérez Claude,ChIJ15SaHBjxtRIR6AAkYh5_W-Y,"[u'food', u'point_of_interest', u'establishment']"
0,43.8838451,4.9551957,Perez Claude,ChIJ15SaHBjxtRIRl54U_bWAeos,"[u'grocery_or_supermarket', u'food', u'store', u'point_of_interest', u'establishment']"
0,43.8846536,4.9541597,Societe Chacon,ChIJT_uIHBjxtRIRB6-2hcKHWq0,"[u'general_contractor', u'point_of_interest', u'establishment']"
0,43.8666605,4.9416762,Martinez Joel Claude Louis,ChIJhYcWa_rwtRIRCryGKyy9t8U,"[u'general_contractor', u'point_of_interest', u'establishment']"
0,43.8666605,4.9416762,Carasso Nathalie,ChIJhYcWa_rwtRIR4PC36_DMIhQ,"[u'point_of_interest', u'establishment']"
0,43.865433,4.9368429,Autric Gauthier Mireille,ChIJc95XjvfwtRIRwYYRUf3biLo,"[u'point_of_interest', u'establishment']"
0,43.865433,4.9368429,Roger Corinne Marthe,ChIJc95XjvfwtRIRFY4HJU7IYV8,"[u'point_of_interest', u'establishment']"
0,43.865355,4.936782,L T B Motor,ChIJc95XjvfwtRIRaadBs38-xaU,"[u'car_repair', u'point_of_interest', u'establishment']"
0,43.8653546,4.9367818,Grand Pascal,ChIJc95XjvfwtRIR_hsBbmhkGac,"[u'point_of_interest', u'establishment']"
0,43.8653546,4.9367818,Domaine de Mondésir,ChIJc95XjvfwtRIRSMLyYrJfTJ4,"[u'point_of_interest', u'establishment']"
0,43.8653546,4.9367818,Garnier Savio Nicole,ChIJc95XjvfwtRIRT6nxZ3YxRY8,"[u'point_of_interest', u'establishment']"
0,43.8653546,4.9367818,Gauthier Jacques,ChIJc95XjvfwtRIRRGcT76CCZEs,"[u'point_of_interest', u'establishment']"
0,43.8653546,4.9367818,Dorleane,ChIJc95XjvfwtRIR-t_AtMMGYCw,"[u'grocery_or_supermarket', u'food', u'store', u'point_of_interest', u'establishment']"
0,43.8653546,4.9367818,Controle Technique Cabannais,ChIJc95XjvfwtRIRw_A4NEFFpQ4,"[u'car_repair', u'point_of_interest', u'establishment']"
0,43.86498,4.937313,Le Cal' Âne,ChIJV6Hjm_fwtRIRoLv2nkrUH2M,"[u'point_of_interest', u'establishment']"
0,43.863233,4.9402732,Guin Bernard,ChIJL7Mt1fbwtRIRbo-SzYwwhxU,"[u'point_of_interest', u'establishment']"
0,43.8662582,4.9342207,SARL ADETEC,ChIJT0vP9lfwtRIRxF0BvVw3EpU,"[u'electrician', u'point_of_interest', u'establishment']"
0,43.863252,4.943367,Clerc Gustave Jules,ChIJAQ8oU_DwtRIRo2IhI5GFook,"[u'point_of_interest', u'establishment']"
0,43.863252,4.943367,Geiger Daniel,ChIJDx4oU_DwtRIRA8eNLdfQ1EM,"[u'grocery_or_supermarket', u'food', u'store', u'point_of_interest', u'establishment']"
0,43.863721,4.9454498,Leonard Maria,ChIJ_4EHKPDwtRIRjl-xTjTJN98,"[u'point_of_interest', u'establishment']"
0,43.862827,4.944205,Malarin Jean-Pierre,ChIJo_HjyfHwtRIRCs4XqdBTO38,"[u'point_of_interest', u'establishment']"
0,43.8620071,4.943431,Mlynarski Eddy,ChIJa150mPHwtRIRB8lwbc4PizU,"[u'point_of_interest', u'establishment']"
0,43.8633229,4.946242,Roncaletti Frederic,ChIJ710Ize_wtRIR8t5q9OWouwY,"[u'point_of_interest', u'establishment']"
0,43.863291,4.9463413,Della-maggiore Neri Laure Valerie,ChIJ710Ize_wtRIRJ-Jl9rC28rk,"[u'point_of_interest', u'establishment']"
0,43.863291,4.9463413,Allard Emballages,ChIJ710Ize_wtRIRyeATjYm2204,"[u'point_of_interest', u'establishment']"
0,43.863291,4.9463413,Broussard Claude,ChIJ710Ize_wtRIRQnmWY3IANTU,"[u'plumber', u'point_of_interest', u'establishment']"
0,43.863291,4.9463413,Neri Veuve et Fils,ChIJ710Ize_wtRIRgSxbBfG9wC8,"[u'plumber', u'point_of_interest', u'establishment']"
0,43.8618788,4.9339572,Noêl Manon,ChIJYTPNuVjwtRIR6fR0K3sJXRo,"[u'point_of_interest', u'establishment']"
0,43.86106,4.9440609,13440,ChIJleBvi_HwtRIRUC9_xE_4BDw,"[u'point_of_interest', u'establishment']"
0,43.8610805,4.9442076,Sarl Din et Dor,ChIJGT-p9PHwtRIRCsvUX9_hPds,"[u'grocery_or_supermarket', u'food', u'store', u'point_of_interest', u'establishment']"
0,43.8618572,4.9459731,Ferronnerie Reynaud Gilles,ChIJc95XjvfwtRIR_Hyu9l1au_o,"[u'point_of_interest', u'establishment']"
0,43.854436,4.921043,Le Troc du Pro,ChIJDX0TQHf6tRIRN5cTl7bedeQ,"[u'store', u'point_of_interest', u'establishment']"
0,43.8541774,4.9212018,Direct Portails,ChIJhU9hDmnwtRIRAeWtChLUPVw,"[u'store', u'point_of_interest', u'establishment']"
0,43.8548426,4.9198366,Scania Méditérranée,ChIJEQbxYDfwtRIRIH_dLRr00Qc,"[u'car_dealer', u'store', u'point_of_interest', u'establishment']"
0,43.8618531,4.9334345,Alpilles Durance Batiment,ChIJlUjLyFjwtRIRHAiaYE8WI8M,"[u'general_contractor', u'point_of_interest', u'establishment']"
0,43.8618531,4.9334345,Gione Vidal Delphine Marie-Christine,ChIJlUjLyFjwtRIRZxGN0niamkA,"[u'hair_care', u'point_of_interest', u'establishment']"
0,43.862371,4.931898,unnamed,ChIJ9X8nI1nwtRIR2ejkTXxpzxU,"[u'point_of_interest', u'establishment']"
0,43.8622474,4.921412,Chauvet Julien Henry,ChIJTwfmcETwtRIRRXdhSKuqHRw,"[u'point_of_interest', u'establishment']"
0,43.8622474,4.921412,Chauvet Philippe,ChIJTwfmcETwtRIRziZhY4ecqhI,"[u'point_of_interest', u'establishment']"
0,43.8622474,4.921412,Sallier Michel,ChIJH7ZY20DwtRIRTJZOYFHl5Qg,"[u'point_of_interest', u'establishment']"
0,43.8621743,4.9213393,Gaec Pierre-Philippe,ChIJTwfmcETwtRIRjwzA0kA9484,"[u'point_of_interest', u'establishment']"
0,43.8556143,4.92055,Le relais de la bassaque,ChIJEQbxYDfwtRIRyXq5pC5tKYE,"[u'restaurant', u'food', u'point_of_interest', u'establishment']"
0,43.8538039,4.9208987,RAPID PNEUS,ChIJtXskFmzwtRIR97qJVs6ZOMs,"[u'car_repair', u'store', u'point_of_interest', u'establishment']"
0,43.835396,4.984958,Pépinières Pujante,ChIJq6tfDAH6tRIRNyNgNEjkDGw,"[u'food', u'point_of_interest', u'establishment']"
0,43.840259,4.976688,JULIEN.FACTOTOM,ChIJawm3qlT3tRIRXf5BrHTL1zE,"[u'point_of_interest', u'establishment']"
0,43.836579,4.979071,Gîtes Cabannes : Mas Saint Pierre en Provence,ChIJt4DedFX3tRIRRkDRpWHyxBo,"[u'lodging', u'point_of_interest', u'establishment']"
0,43.8401536,4.9664812,Vistoli Alain,ChIJ3aUmpqjwtRIRpEaehScIvJ8,"[u'furniture_store', u'home_goods_store', u'store', u'point_of_interest', u'establishment']"
0,43.832319,4.973584,Rainforth Kim,ChIJ4wpMDAH6tRIRtrR4iAfTJt8,"[u'point_of_interest', u'establishment']"
0,43.852876,4.995452,unnamed,ChIJo-YPZkD3tRIRTUb0AMTKG7U,"[u'point_of_interest', u'establishment']"
0,43.872891,4.9297955,Villa Mas St Jean,ChIJj5EJh1PwtRIRNG8zw4iU6wI,"[u'lodging', u'point_of_interest', u'establishment']"
0,43.873847,4.930225,Chabas Helene Jeanine Louise,ChIJZafqj1TwtRIRKaPcrHZdmyw,"[u'point_of_interest', u'establishment']"
0,43.879037,4.928709,Sarl L'escargot de Provence,ChIJL2EnaqzxtRIRNwdoalSq7kU,"[u'point_of_interest', u'establishment']"
0,43.879849,4.9286199,Aire de Repos de Noves,ChIJl4feF6zxtRIRz77oyk_q_Bw,"[u'point_of_interest', u'establishment']"
