,Latitude,Longitude,Name,Place_id,Type
0,43.330673,5.151576,Carry-le-Rouet,ChIJOV4ogsHdyRIRQASX_aUZCAQ,"[u'locality', u'political']"
0,43.339271,5.155656,FCCB (Football Club Côte Bleue) - carry le rouet,ChIJD2U_e8XdyRIRM8Y2zAK8xC8,"[u'stadium', u'point_of_interest', u'establishment']"
0,43.3366419,5.1541621,Agence Immobilière de la Gare,ChIJJWJSk9LdyRIRiEwIXpDxVuQ,"[u'real_estate_agency', u'point_of_interest', u'establishment']"
0,43.3364029,5.1551492,Primary School Simone Thoulouze,ChIJcY7Las7dyRIRRHWabGWHPrY,"[u'school', u'point_of_interest', u'establishment']"
0,43.3363465,5.1534302,Faye Frédérique,ChIJayNeS4jeyRIRCeIufZb_eFc,"[u'veterinary_care', u'point_of_interest', u'establishment']"
0,43.336555,5.157611,Leï Pitchoun | Crèches du Sud,ChIJ6bQkE9LdyRIRAmC6nbBHeIk,"[u'point_of_interest', u'establishment']"
0,43.3376637,5.1607346,Delgado Sarl,ChIJ16seksjdyRIRIV36GVkAM7E,"[u'car_repair', u'store', u'point_of_interest', u'establishment']"
0,43.3377008,5.1600297,"Salima Ciccariello, Cabinet de Shiatsu",ChIJb5B-vsjdyRIRh2wjeZ4j67Q,"[u'health', u'point_of_interest', u'establishment']"
0,43.3367466,5.1491509,Association New Sport,ChIJtdVyKNHdyRIR3a2cOSFC-jo,"[u'point_of_interest', u'establishment']"
0,43.3377292,5.15946,Sornika,ChIJ-Rdmt8jdyRIRJtAU8mras74,"[u'point_of_interest', u'establishment']"
0,43.335921,5.1574895,Jours 2 fêtes,ChIJ5W5v587dyRIRosDmHUVeu7g,"[u'point_of_interest', u'establishment']"
0,43.3367069,5.14904,Carry 5,ChIJtdVyKNHdyRIRYAVHZYvz3mM,"[u'point_of_interest', u'establishment']"
0,43.3376661,5.1608616,Aveliance Conseil,ChIJm8ykjcjdyRIRRbQzfW24-v8,"[u'point_of_interest', u'establishment']"
0,43.335221,5.15495,Commune De Carry Le Rouet,ChIJcY7Las7dyRIROTwV4afXQQE,"[u'school', u'point_of_interest', u'establishment']"
0,43.3373642,5.1614528,I.m.g.c,ChIJy9DGX8jdyRIRQ5o64kl51jM,"[u'accounting', u'finance', u'point_of_interest', u'establishment']"
0,43.3352413,5.1506596,Bridge Club,ChIJL3zbSdLdyRIRbVxkOX97t5U,"[u'point_of_interest', u'establishment']"
0,43.3361736,5.1598363,Villa Reiala,ChIJxa3TIMndyRIRc_issDmvWbg,"[u'lodging', u'point_of_interest', u'establishment']"
0,43.336699,5.1542917,Star's Jardin,ChIJ88T_zM_dyRIRycDifIUCMgs,"[u'general_contractor', u'point_of_interest', u'establishment']"
0,43.336711,5.153036,13620,ChIJx0BuLdDdyRIRajtatk7nnPs,"[u'fire_station', u'point_of_interest', u'establishment']"
0,43.3370513,5.1571887,DGS,ChIJwTeuEM_dyRIR10u2KlgjlI0,"[u'point_of_interest', u'establishment']"
0,43.3365327,5.1537163,Gare de Carry Le Rouet,ChIJm_rHKs7dyRIRJJMHTQ43X2w,"[u'train_station', u'transit_station', u'point_of_interest', u'establishment']"
0,43.336871,5.15698,13620,ChIJPbofG8_dyRIR9bYU9e4-Ip4,"[u'parking', u'point_of_interest', u'establishment']"
0,43.3377292,5.15946,Siomos Georgios,ChIJfwj2kcjdyRIRqJplyiJGnoM,"[u'point_of_interest', u'establishment']"
0,43.3361523,5.153253,Boutique SNCF,ChIJbeMm0dHdyRIR7ZCnr5zQgEA,"[u'travel_agency', u'point_of_interest', u'establishment']"
0,43.3370441,5.149228,Machado Carlos,ChIJP-yC2dDdyRIRPDGY-DiGWVg,"[u'point_of_interest', u'establishment']"
0,43.3360551,5.1542871,Dieudonne Christiane,ChIJSSAmLs7dyRIRI_f24onZTHQ,"[u'real_estate_agency', u'point_of_interest', u'establishment']"
0,43.336051,5.1536768,Aunave Genevieve,ChIJMUQ9KM7dyRIRyxScFTOdqQg,"[u'point_of_interest', u'establishment']"
0,43.3362619,5.1568344,Krikorian Samuel,ChIJPeHb_M7dyRIRPwYQyoHpZsw,"[u'clothing_store', u'store', u'point_of_interest', u'establishment']"
0,43.3367466,5.1491509,Mairie (Divers),ChIJcY7Las7dyRIRwEsI24Qirj4,"[u'point_of_interest', u'establishment']"
0,43.3371704,5.1597044,Gord Bruneau Laurence,ChIJJU5Kv8jdyRIRNVF0SQJaOMg,"[u'beauty_salon', u'point_of_interest', u'establishment']"
0,43.3358022,5.1566795,"PSYCHOTHERAPEUTE , Michèle BALMES",ChIJXVpm-c7dyRIRh8esy2GhrDk,"[u'point_of_interest', u'establishment']"
0,43.335921,5.1574913,Soula Laurent,ChIJT25v587dyRIRxPQ0c7QGXoY,"[u'point_of_interest', u'establishment']"
0,43.335221,5.15495,Zevaco Piaggi Muriel Michelle,ChIJcY7Las7dyRIRO47f5OyMEsk,"[u'point_of_interest', u'establishment']"
0,43.335221,5.15495,Elres,ChIJcY7Las7dyRIRRjyDtSY1nxY,"[u'point_of_interest', u'establishment']"
0,43.3374839,5.1614755,Chabot Serge,ChIJLadW9cjdyRIR8S4Y39IYS8w,"[u'painter', u'point_of_interest', u'establishment']"
0,43.3352408,5.1562881,Garros Sophie,ChIJk0-yis7dyRIRrB2AYKdJjvw,"[u'health', u'point_of_interest', u'establishment']"
0,43.3378691,5.1620937,Sacco Guy,ChIJ73kYacjdyRIRniwuFP59pyw,"[u'point_of_interest', u'establishment']"
0,43.3352413,5.1506596,Bridge Club Carry Cote Bleue,ChIJJZyic9HdyRIR7r7E39TRGu4,"[u'point_of_interest', u'establishment']"
0,43.337003,5.1614843,Palomares Philippe,ChIJl6qFWMjdyRIRD4afR9UcTcg,"[u'point_of_interest', u'establishment']"
0,43.3367581,5.161195,Baumann Jean-Pierre,ChIJk9TF-cjdyRIRBcLvwvz7qs0,"[u'accounting', u'finance', u'lawyer', u'point_of_interest', u'establishment']"
0,43.337155,5.1618159,Caloustian Catherine,ChIJv2uzXsjdyRIRV7RSOj0YhsY,"[u'health', u'point_of_interest', u'establishment']"
0,43.3352134,5.1499998,Fouque Trinchero Josselyne,ChIJGWl0adHdyRIRcHTGJclOXaA,"[u'food', u'point_of_interest', u'establishment']"
0,43.3374132,5.1622714,A.c.c.o,ChIJUeYJQsjdyRIRfYWtg3-3v9Y,"[u'point_of_interest', u'establishment']"
0,43.3345362,5.1538522,Prato Gerard Emile,ChIJMaK4A87dyRIR_JXgObyPThw,"[u'point_of_interest', u'establishment']"
0,43.3355615,5.1601414,Singolis Yvan,ChIJPRt9PcndyRIRnqXnifebDzQ,"[u'point_of_interest', u'establishment']"
0,43.3365994,5.1620105,Benhaim Nicole,ChIJGRe5UcjdyRIRlAsPn0IrRdA,"[u'point_of_interest', u'establishment']"
0,43.3392484,5.1647678,Gay Patrick,ChIJqxlgI7jdyRIRD_eMtePyjxA,"[u'point_of_interest', u'establishment']"
0,43.335965,5.161655,Subrini Christian,ChIJTWbPq8ndyRIRHGdjMOxAZQI,"[u'health', u'point_of_interest', u'establishment']"
0,43.3354445,5.1607208,Eudier-Coatalem Evelyne,ChIJibH2bNLdyRIRBbn_2Ks5NuU,"[u'health', u'point_of_interest', u'establishment']"
0,43.3359564,5.1619274,Mallevergne Gros Monique,ChIJ5YwzrMndyRIRKPqezYFvwYw,"[u'point_of_interest', u'establishment']"
0,43.3387382,5.1557507,Complexe sportif,ChIJlVzdfMXdyRIRDvr8wmS2q7k,"[u'premise', u'point_of_interest', u'establishment']"
0,43.3332027,5.1502939,Carry Hotel,ChIJvyEex9PdyRIR2ST5yOV8n3U,"[u'lodging', u'point_of_interest', u'establishment']"
0,43.3328256,5.1538718,Residence Adonis Adriana,ChIJGTIgi83dyRIR1hIpLeZh59U,"[u'lodging', u'point_of_interest', u'establishment']"
0,43.332685,5.151858,Villa Arena Hotel,ChIJuQ80RNLdyRIRk07PTw7lKIs,"[u'lodging', u'point_of_interest', u'establishment']"
0,43.329193,5.143745,hotel restaurant la tuiliere,ChIJFSmMryrcyRIRnk_llHByLYU,"[u'lodging', u'point_of_interest', u'establishment']"
0,43.3285347,5.1475904,Société Générale,ChIJMfeaYCvcyRIR5CecRNv-GJM,"[u'bank', u'atm', u'finance', u'point_of_interest', u'establishment']"
0,43.3311479,5.1524899,Photomania,ChIJic4OW9LdyRIRAFLT-31x1Dw,"[u'electronics_store', u'home_goods_store', u'store', u'point_of_interest', u'establishment']"
0,43.329997,5.153927,La Brise,ChIJ82i5r9LdyRIRaq1QmunHDp0,"[u'restaurant', u'food', u'point_of_interest', u'establishment']"
0,43.3304858,5.1516598,Les Terrasses,ChIJK0MGldLdyRIRai3-ievJq20,"[u'restaurant', u'bar', u'food', u'point_of_interest', u'establishment']"
0,43.32898,5.1507094,Agence de la Côte - Immobilière du Forum,ChIJeaU00SzcyRIRxyE3Sfz74RE,"[u'real_estate_agency', u'point_of_interest', u'establishment']"
0,43.3292459,5.1548598,Le Madrigal,ChIJzXxwszLcyRIRtKRPtofuc_w,"[u'restaurant', u'food', u'point_of_interest', u'establishment']"
0,43.331096,5.152202,CINEMA ESPACE FERNANDEL,ChIJ8xnBW9LdyRIRIoIQbnqXQtE,"[u'movie_theater', u'point_of_interest', u'establishment']"
0,43.330196,5.152684,Port de plaisance,ChIJKazbu9LdyRIRFFbODZ8Er3c,"[u'point_of_interest', u'establishment']"
0,43.330701,5.152858,Le Saint Trop - restaurant carry le rouet,ChIJA39ElNLdyRIRDWQaZaDtg0A,"[u'restaurant', u'food', u'point_of_interest', u'establishment']"
0,43.3311045,5.1512324,IMMO DU PORT,ChIJm4rx59LdyRIRD7ftAyJHEYA,"[u'real_estate_agency', u'point_of_interest', u'establishment']"
0,43.331507,5.1516925,Immo Belle Vue,ChIJ8xnBW9LdyRIRNt6WTHluhmY,"[u'real_estate_agency', u'point_of_interest', u'establishment']"
0,43.33216,5.16275,Foncia Transaction,ChIJ09t1QsrdyRIRlAmE1_skIWk,"[u'real_estate_agency', u'point_of_interest', u'establishment']"
0,43.3319697,5.1537761,Plongée Passion Carry-le-Rouet,ChIJTXhfgM3dyRIRbUXBgOYFYwo,"[u'point_of_interest', u'establishment']"
0,43.3305475,5.1543546,Cossic Michel,ChIJLyh_Qs3dyRIRinWCDGmSVQI,"[u'electronics_store', u'store', u'point_of_interest', u'establishment']"
0,43.3318503,5.151854,Carry-Immobililer,ChIJ0a4fx9PdyRIRqkzSc4kmJIc,"[u'real_estate_agency', u'point_of_interest', u'establishment']"
0,43.3326286,5.1518582,Institut Beauty Success,ChIJj3mgRdLdyRIR4-SyNQ3Fw_k,"[u'beauty_salon', u'clothing_store', u'store', u'point_of_interest', u'establishment']"
0,43.3320165,5.1528842,Vital'concept,ChIJyY8RY9LdyRIRfLyzmPYM9HI,"[u'health', u'point_of_interest', u'establishment']"
0,43.332783,5.151504,La Cave,ChIJJ5gZRdLdyRIRS25ZBDXCoqE,"[u'bar', u'restaurant', u'food', u'point_of_interest', u'establishment']"
0,43.332412,5.153749,ALSH Le Petit Nid,ChIJNbm21CzcyRIR1uGI4c51B5c,"[u'point_of_interest', u'establishment']"
0,43.3292346,5.1542054,Club Subaquatique de Carry-le-Rouet,ChIJVWQzqDLcyRIRzYUd6HL8BM8,"[u'point_of_interest', u'establishment']"
0,43.3313364,5.153614,Le Rouet,ChIJeeL4f83dyRIRuPkBPAvYjY0,"[u'physiotherapist', u'health', u'point_of_interest', u'establishment']"
0,43.331,5.15235,Le Scoop,ChIJnVkotNLdyRIRoZkRmBrFFo4,"[u'restaurant', u'bar', u'food', u'point_of_interest', u'establishment']"
0,43.3293868,5.1541654,Carry Plongée,ChIJJWJSk9LdyRIR_ahgZTXZHc8,"[u'point_of_interest', u'establishment']"
0,43.33334,5.1508062,Caisse d'Epargne Carry le Rouet,ChIJj25fQ7bdyRIRchxJw-uKUQ8,"[u'bank', u'atm', u'finance', u'point_of_interest', u'establishment']"
0,43.332203,5.151908,LCL - Le Crédit Lyonnais,ChIJu3fZW9LdyRIRr0Wy6N389Co,"[u'bank', u'atm', u'finance', u'point_of_interest', u'establishment']"
0,43.3324135,5.1531481,Post Office,ChIJCaZCcdLdyRIR0bYk0oWLm30,"[u'post_office', u'finance', u'point_of_interest', u'establishment']"
0,43.3319261,5.1527955,Mairie (Divers),ChIJNbm21CzcyRIRSuMVgrKYlW4,"[u'point_of_interest', u'establishment']"
0,43.330949,5.152342,Tennis Club,ChIJJWJSk9LdyRIRn_veOAesS6c,"[u'point_of_interest', u'establishment']"
0,43.3321824,5.1517876,Shangri'la,ChIJ8xnBW9LdyRIR482G-FkJk-Y,"[u'jewelry_store', u'store', u'point_of_interest', u'establishment']"
0,43.3289996,5.1542575,Office de Tourisme,ChIJNbm21CzcyRIR_8s5EXO5hKA,"[u'travel_agency', u'point_of_interest', u'establishment']"
0,43.33195,5.154068,Dr Barrière Bruno,ChIJ71MOCs3dyRIRfAdJFWl4W2Q,"[u'dentist', u'health', u'point_of_interest', u'establishment']"
0,43.331862,5.152593,Dr Laurent Gonnet,ChIJL1LpYdLdyRIRB6ybpSh8J3M,"[u'dentist', u'health', u'point_of_interest', u'establishment']"
0,43.3311931,5.1536335,Club Apnea,ChIJ0Zg5fc3dyRIRLsdbbEunii8,"[u'point_of_interest', u'establishment']"
0,43.330949,5.152342,D.G.Services,ChIJJWJSk9LdyRIRxfqyCjQUf-c,"[u'store', u'point_of_interest', u'establishment']"
0,43.3302159,5.151036,Pizza Bobby,ChIJP1Ur3SzcyRIROXFdLqwVVE0,"[u'meal_delivery', u'food', u'point_of_interest', u'establishment']"
0,43.3321824,5.1517876,Jean Bonan,ChIJ8xnBW9LdyRIRdVgabO1opDQ,"[u'hair_care', u'point_of_interest', u'establishment']"
0,43.3317009,5.151603,Perez Christophe,ChIJIWzr-dLdyRIRiUumBzKujGY,"[u'dentist', u'health', u'point_of_interest', u'establishment']"
0,43.3320165,5.1528842,Le Cann Frederique,ChIJyY8RY9LdyRIROwq1eNRhdIA,"[u'health', u'point_of_interest', u'establishment']"
0,43.3298002,5.1552661,Bar Tabac du Port,ChIJYcGOntLdyRIREQ6Qnnxd-4U,"[u'bar', u'cafe', u'food', u'point_of_interest', u'establishment']"
0,43.3322658,5.1520135,Lissac Optique CCB,ChIJIWzr-dLdyRIRjcX1fIvQ4h0,"[u'health', u'store', u'point_of_interest', u'establishment']"
0,43.332625,5.152751,Gouiran Stéphanie,ChIJwcveYtLdyRIRTQ6z8Gk42MA,"[u'dentist', u'health', u'point_of_interest', u'establishment']"
0,43.330673,5.151576,SAR CLUB,ChIJ6bQkE9LdyRIRbBfwEg801Fc,"[u'point_of_interest', u'establishment']"
0,43.332642,5.152751,Cuspidienne,ChIJwcveYtLdyRIRymfa02U8TCk,"[u'dentist', u'health', u'point_of_interest', u'establishment']"
0,43.3319586,5.151866,Maison Segard,ChIJ8xnBW9LdyRIRVWbYdgpupBA,"[u'florist', u'store', u'point_of_interest', u'establishment']"
0,43.3293815,5.1508601,Marie Hermance,ChIJk_GV1CzcyRIR_m5Xx0j9q5A,"[u'art_gallery', u'point_of_interest', u'establishment']"
0,43.3319143,5.1521414,Pharmacie du Centre,ChIJQdny9dLdyRIRmzmouApO110,"[u'pharmacy', u'health', u'store', u'point_of_interest', u'establishment']"
0,43.3329413,5.1514098,Institut Océane,ChIJL3zbSdLdyRIRNuTSZBZ4VQE,"[u'beauty_salon', u'point_of_interest', u'establishment']"
0,43.3329413,5.1514098,Le 33,ChIJoTbbSdLdyRIR6LTcgAU-aNo,"[u'hair_care', u'point_of_interest', u'establishment']"
0,43.331926,5.152796,Pâtisserie Regnier,ChIJwcveYtLdyRIRYQLVGUZFJio,"[u'bakery', u'food', u'store', u'point_of_interest', u'establishment']"
0,43.355331,5.203593,Ensuès-la-Redonne,ChIJL2b3gmXdyRIRPTzxtaP7BfE,"[u'locality', u'political']"
0,43.3388151,5.1665843,Les chambres d'hôtes du Grand Mornas,ChIJ00dqLLjdyRIR5DTJcVOp8QM,"[u'lodging', u'point_of_interest', u'establishment']"
0,43.336298,5.166816,"Chambre d'hôte ""Le Pigeonnier"" chez Francine et René TROUSSIEUX",ChIJVcErB7fdyRIR96KXZLzh7JQ,"[u'lodging', u'point_of_interest', u'establishment']"
0,43.3371811,5.1668318,APF System Automatismes Protection.F,ChIJxb9fnrfdyRIRO5mABeG_9Cw,"[u'point_of_interest', u'establishment']"
0,43.3374416,5.16534,La Régie,ChIJrUTJlLfdyRIReJBK2wV6dBw,"[u'point_of_interest', u'establishment']"
0,43.3370903,5.1658125,Sarl Formadev Conseil,ChIJDxStvbfdyRIR6H8ZPi617vA,"[u'point_of_interest', u'establishment']"
0,43.3372376,5.1647389,Orsoni Anne-Marie,ChIJ6_0n6LfdyRIRo-QkwCMntQ8,"[u'point_of_interest', u'establishment']"
0,43.3382808,5.1681399,Dhombres Andre,ChIJ6Y_zX7fdyRIRhmPd94tjZKU,"[u'point_of_interest', u'establishment']"
0,43.3365554,5.1649445,Martin Bruno Andre Albert,ChIJQZSCMLbdyRIRMBtP6bJQZLM,"[u'point_of_interest', u'establishment']"
0,43.3365409,5.1664928,Mairie (Divers),ChIJcY7Las7dyRIRM1YaykfOXlw,"[u'point_of_interest', u'establishment']"
0,43.3356174,5.1624112,Chaki Serge,ChIJ-fc-t8ndyRIRzw_OsFtCyPM,"[u'real_estate_agency', u'point_of_interest', u'establishment']"
0,43.3367343,5.1682294,Promayrat Stephane,ChIJ26RrPLfdyRIR2sJnTmSekTY,"[u'electrician', u'point_of_interest', u'establishment']"
0,43.3361757,5.1670625,Liniger Lisbeth,ChIJVzt_AbfdyRIRxm4VuqMBjYE,"[u'lawyer', u'finance', u'point_of_interest', u'establishment']"
0,43.3356983,5.1666038,Sembolini Mireille,ChIJr5hjVrbdyRIR8N8eFks22xg,"[u'beauty_salon', u'point_of_interest', u'establishment']"
0,43.3361324,5.1681822,Chay Aimeric,ChIJp0cSIbfdyRIRcKqnub2xaec,"[u'point_of_interest', u'establishment']"
0,43.3366563,5.1702145,Bernabeu Julien,ChIJtVINxLDdyRIRSi2ymq-ltKA,"[u'point_of_interest', u'establishment']"
0,43.3367838,5.1706786,Landes Francois,ChIJRVA_6rDdyRIRk1n5ch8LdaA,"[u'point_of_interest', u'establishment']"
0,43.3361876,5.1701538,Huron Daniel,ChIJa01M2rDdyRIRMlvlVi6PH0o,"[u'point_of_interest', u'establishment']"
0,43.3345546,5.1672328,Lippi Jauffret Fabienne,ChIJCzB3krbdyRIRGze9teujjEo,"[u'point_of_interest', u'establishment']"
0,43.3368381,5.1717884,Peyrol Michael,ChIJ900M9bDdyRIR0z9FHawLZtw,"[u'point_of_interest', u'establishment']"
0,43.3355001,5.1698347,Martin Vinciane,ChIJga05L7HdyRIR7dEimStbK_c,"[u'point_of_interest', u'establishment']"
0,43.3366863,5.1720018,Guiraud Daniel,ChIJPSzuWLDdyRIRMi7sE-J9UpY,"[u'point_of_interest', u'establishment']"
0,43.332412,5.11057,Sausset-les-Pins,ChIJEY9760beyRIREP-W_aUZCAQ,"[u'locality', u'political']"
0,43.3354409,5.1432896,S.D.Tuyauterie Industrielle,ChIJN09JHNbdyRIRtXlEEpHbcsc,"[u'point_of_interest', u'establishment']"
0,43.3349176,5.1470908,WEB 13 Pascale TRAN,ChIJz-HsmtbdyRIRgrjk6V7gFF8,"[u'point_of_interest', u'establishment']"
0,43.3362214,5.1432164,Beltra Jean-François,ChIJrV2xIdbdyRIR5sD45b0DquI,"[u'real_estate_agency', u'point_of_interest', u'establishment']"
0,43.3354058,5.1405274,Jackle Jurgen,ChIJm6iiIXneyRIRZzIIaatqbgQ,"[u'point_of_interest', u'establishment']"
0,43.3352927,5.1400908,Seccia Robert,ChIJqaWUGHneyRIRpi-rTS89nRo,"[u'point_of_interest', u'establishment']"
0,43.3343803,5.1418722,Abeille Dépannage 13,ChIJX6sCR3_eyRIROOb5VTYR8xQ,"[u'point_of_interest', u'establishment']"
0,43.3340941,5.1462727,Caluri Michel,ChIJH30uMNTdyRIR_ciKskwLCs4,"[u'real_estate_agency', u'point_of_interest', u'establishment']"
0,43.334028,5.1437267,Lauriol Sylvie,ChIJf8Ns8NXdyRIRXbHBjhtMm8Q,"[u'health', u'point_of_interest', u'establishment']"
0,43.3340608,5.1428858,Guertin Thouvard Sandra Celine,ChIJ030yUH_eyRIR2K08qHTg7bU,"[u'real_estate_agency', u'point_of_interest', u'establishment']"
0,43.3339328,5.1427454,Eurl R.g.f. Nettoyage,ChIJeRxRWn_eyRIRIPCh1EP9Opk,"[u'point_of_interest', u'establishment']"
0,43.334273,5.1723737,BEACH HOTEL,ChIJG0folbHdyRIR0dAyJeqpZOs,"[u'lodging', u'point_of_interest', u'establishment']"
0,43.335966,5.171735,Vacanciel La Calanque,ChIJYR8c_7DdyRIRKeiyISCKfxE,"[u'travel_agency', u'point_of_interest', u'establishment']"
0,43.3343985,5.1725892,Le Beach Café - Restaurant Carry-Le-Rouet,ChIJs7oBKbLdyRIR9Qs5dMEagO8,"[u'bar', u'restaurant', u'food', u'store', u'point_of_interest', u'establishment']"
0,43.3309193,5.1702955,Villa Grande Bleue,ChIJVwRAcLPdyRIR-NGB_RXynBs,"[u'travel_agency', u'real_estate_agency', u'lodging', u'point_of_interest', u'establishment']"
0,43.3348242,5.1725107,Parc Marin de la Côte Bleue,ChIJ-cubDbHdyRIR1bPgm0uawVE,"[u'point_of_interest', u'establishment']"
0,43.3333987,5.1681415,Société Villa Les Roches Vives,ChIJW1hrHrTdyRIRXjcQPhqB2ms,"[u'lodging', u'point_of_interest', u'establishment']"
0,43.336427,5.170804,Le Rouet,ChIJaV6Z6LDdyRIRRLdi5-5RZ4Y,"[u'sublocality_level_1', u'sublocality', u'political']"
0,43.3300362,5.1648178,Gamma,ChIJPcGEarXdyRIRfS8mrrRrK1o,"[u'point_of_interest', u'establishment']"
0,43.3300362,5.1648178,Sigma,ChIJPcGEarXdyRIRN0bdFiGIPK8,"[u'point_of_interest', u'establishment']"
0,43.3288412,5.1672311,Art de Vivre Creation Imm,ChIJafhAxbTdyRIR_hspHC7oqgQ,"[u'point_of_interest', u'establishment']"
0,43.3311723,5.1679127,Floriant Nicolas,ChIJw4b7ZbTdyRIRGB_Lz81VgfQ,"[u'point_of_interest', u'establishment']"
0,43.3323851,5.1638731,Casino,ChIJOWr7dMrdyRIRXOYakV5etGQ,"[u'point_of_interest', u'establishment']"
0,43.330036,5.164818,ASCOTRANS,ChIJ5RGcQrXdyRIRwCT4KSy4FBk,"[u'point_of_interest', u'establishment']"
0,43.333599,5.1574707,Chambres d'Hôtes La Chamade,ChIJmYNpIszdyRIR6Ji1SKNPn50,"[u'lodging', u'point_of_interest', u'establishment']"
0,43.333903,5.17236,Le Jean Bart,ChIJT2sGKbLdyRIRP5BoViI0mIg,"[u'restaurant', u'bar', u'food', u'point_of_interest', u'establishment']"
0,43.3311448,5.1551239,POMPES FUNEBRES HORUS,ChIJFSM7Cc3dyRIRkFdLbBuPvTM,"[u'funeral_home', u'point_of_interest', u'establishment']"
0,43.332412,5.153749,Vernal Finance,ChIJHTdviM3dyRIRcflL0MqUclc,"[u'finance', u'point_of_interest', u'establishment']"
0,43.3356392,5.1720957,gbcb,ChIJJ6PvVrDdyRIRFKMrHP51y7A,"[u'plumber', u'general_contractor', u'point_of_interest', u'establishment']"
0,43.3319697,5.1537761,Melissa Nails,ChIJUWabgM3dyRIRrCWP8DcnA5I,"[u'beauty_salon', u'hair_care', u'point_of_interest', u'establishment']"
0,43.333903,5.17236,K2,ChIJv-DOmrHdyRIRbWtKUVNom0Q,"[u'point_of_interest', u'establishment']"
0,43.3344694,5.1723098,Les Trois Cals,ChIJAwuUmLHdyRIRTtx-WFd1hH8,"[u'point_of_interest', u'establishment']"
0,43.33034,5.135486,Camping Lou Soulei,ChIJIb22gX3eyRIRXMxmkat5Cqc,"[u'campground', u'rv_park', u'park', u'lodging', u'point_of_interest', u'establishment']"
0,43.330239,5.137204,Casino supermarché Carry-le-Rouet,ChIJvbqefofeyRIRLU9XbSsnCA0,"[u'convenience_store', u'grocery_or_supermarket', u'food', u'store', u'point_of_interest', u'establishment']"
0,43.330266,5.13841,Scoubidou,ChIJ1TpnAX7eyRIR6uqPiJN4CMs,"[u'restaurant', u'food', u'point_of_interest', u'establishment']"
0,43.3277514,5.1455732,Planet Services,ChIJ55uW5SrcyRIRXRjk4RybuhI,"[u'point_of_interest', u'establishment']"
0,43.3312313,5.1431648,GENKI CARRY,ChIJk0aMYdXdyRIRKxCrJlIGPKI,"[u'spa', u'health', u'point_of_interest', u'establishment']"
0,43.3301675,5.1394589,Sarl Garage de La Tuiliere - Citroën,ChIJR8Bl1n_eyRIR97D9MfNdSTI,"[u'car_repair', u'point_of_interest', u'establishment']"
0,43.3329705,5.1452833,Chambres d'hôtes Villa Le Bosquet - Carry-Le-Rouet,ChIJtbjfTdTdyRIRToLtJcAkKuY,"[u'lodging', u'point_of_interest', u'establishment']"
0,43.3322282,5.143444,SOINS ÉNERGÉTIQUES GENKI,ChIJq3rnYdXdyRIRyjK35xi4p4Q,"[u'spa', u'health', u'point_of_interest', u'establishment']"
0,43.328585,5.147284,m,ChIJy3gBQSvcyRIR4bzKisEALwQ,"[u'meal_delivery', u'restaurant', u'food', u'point_of_interest', u'establishment']"
0,43.3285064,5.1477647,CAP CONDUITE,ChIJMfeaYCvcyRIRSFv9xB0grLw,"[u'point_of_interest', u'establishment']"
0,43.3316931,5.1414681,Intelligence Activity,ChIJXY6Ol3_eyRIRA3iOQyMjZ64,"[u'finance', u'point_of_interest', u'establishment']"
0,43.3333528,5.1509384,ATR Assurances,ChIJ0a4fx9PdyRIROr2quN6Ew4I,"[u'insurance_agency', u'point_of_interest', u'establishment']"
0,43.335827,5.1752075,L'Albatros Côte Bleue,ChIJIw3IudLdyRIRP9ztaYwi3fc,"[u'travel_agency', u'point_of_interest', u'establishment']"
0,43.3344489,5.1726825,Brasserie de la Plage,ChIJAwuUmLHdyRIRUyKdEG_GvJ8,"[u'bar', u'point_of_interest', u'establishment']"
0,43.3365707,5.1779112,Leprince Yves,ChIJj5c6E6_dyRIReerZ9ORDuxo,"[u'doctor', u'health', u'point_of_interest', u'establishment']"
0,43.3358721,5.1719707,Suzanne Jean-Marc,ChIJ9VrMRbfdyRIRQX5T03vqJP0,"[u'real_estate_agency', u'point_of_interest', u'establishment']"
0,43.336764,5.17673,L'Hippocampe,ChIJkw1ruq_dyRIR9S9VSvc7x0M,"[u'restaurant', u'bar', u'food', u'point_of_interest', u'establishment']"
0,43.3358788,5.1757797,Alimentation Lysa,ChIJMQF3yq_dyRIRGPZku3grC9A,"[u'food', u'store', u'point_of_interest', u'establishment']"
0,43.3358247,5.175705,Gimenez Voliani Dolores Christiane,ChIJa-F2yq_dyRIRfzmLFXSIqvg,"[u'grocery_or_supermarket', u'food', u'store', u'point_of_interest', u'establishment']"
0,43.3343948,5.1697358,Barton Smith Alexandra,ChIJzzu0zbHdyRIRcSLpBFDK1ns,"[u'beauty_salon', u'point_of_interest', u'establishment']"
0,43.3343247,5.1725059,La Crique,ChIJs7oBKbLdyRIRlWpNeXT9F-4,"[u'restaurant', u'bar', u'food', u'point_of_interest', u'establishment']"
0,43.334847,5.173744,13620,ChIJZxfrxLHdyRIRnMR6IcvEt-s,"[u'parking', u'point_of_interest', u'establishment']"
0,43.3348794,5.1751775,AVCR Association Voile Carry Le Rouet,ChIJedTXOa7dyRIRFW7hO9LsGOA,"[u'point_of_interest', u'establishment']"
0,43.333547,5.180627,Club Vacanciel de Carry-le-Rouet,ChIJo5VMW6ndyRIR64SlNt2sfIU,"[u'lodging', u'point_of_interest', u'establishment']"
0,43.3337607,5.1796664,Association Consulting And Guidance Professionnelle Et Personnelle,ChIJoyzqsq7dyRIRbhI3oTvUaR4,"[u'point_of_interest', u'establishment']"
0,43.3334093,5.1723152,SNRP Société Nautique Rouet Plage,ChIJJwDvVrDdyRIRQeUduPEM2do,"[u'storage', u'point_of_interest', u'establishment']"
0,43.3325926,5.1707498,Sci Roche Cline Escarra,ChIJIZxnwrPdyRIRx7x8UR_13AA,"[u'real_estate_agency', u'point_of_interest', u'establishment']"
0,43.333538,5.1699009,Kerdraon Julien Yann,ChIJreGOV7HdyRIR2o-PEQ7NppM,"[u'point_of_interest', u'establishment']"
0,43.3319533,5.1685406,Dehestru Mauguin Annie,ChIJn_CObrTdyRIRf5gmqtRG298,"[u'point_of_interest', u'establishment']"
0,43.3341072,5.1678097,Gavault Dominique,ChIJ1ZTqmbbdyRIR0ap1ti6GXDg,"[u'real_estate_agency', u'point_of_interest', u'establishment']"
0,43.3318208,5.1678752,Esteban.f.marketing,ChIJGUfsQrTdyRIR6NyVcrthnrc,"[u'point_of_interest', u'establishment']"
0,43.3325595,5.1674016,Societe Louveau Gestion Patrimoine,ChIJx0UpR7TdyRIR_87TDKBY32I,"[u'point_of_interest', u'establishment']"
0,43.3329394,5.166989,SCI Financière Griva,ChIJF2riA8rdyRIR9s-XaMXsM7s,"[u'real_estate_agency', u'point_of_interest', u'establishment']"
0,43.3319279,5.1673801,Colliot Demerson Patricia Jacqueline,ChIJZaIqQbTdyRIR9FA6UdxSF7c,"[u'health', u'point_of_interest', u'establishment']"
0,43.3338567,5.1779661,Sci Côte Bleue,ChIJYfBcka7dyRIRK3HGYB_aTd0,"[u'real_estate_agency', u'point_of_interest', u'establishment']"
0,43.3339415,5.1780074,Wilde Claudine,ChIJYfBcka7dyRIRatHRQhvZRN4,"[u'point_of_interest', u'establishment']"
0,43.330026,5.1340993,L'Alliance - Restaurant Sausset-les-Pins,ChIJz0mT9IfeyRIRhmzxtxjWGS8,"[u'restaurant', u'food', u'point_of_interest', u'establishment']"
0,43.3299014,5.1368971,Pharmacie de la Côte Bleue,ChIJAYUkDIDeyRIRdecvZyYPObo,"[u'pharmacy', u'health', u'store', u'point_of_interest', u'establishment']"
0,43.3301675,5.1394589,Architectonic France,ChIJR8Bl1n_eyRIR_OsJDw6NQAY,"[u'point_of_interest', u'establishment']"
0,43.329244,5.13178,Matchou Animation,ChIJE3Wp9FDeyRIRwDegzJFcd6M,"[u'point_of_interest', u'establishment']"
0,43.3317065,5.1340602,"Diagamter Diagnostic immobilier Martigues, Marignane",ChIJV-0EPn3eyRIRD_RBjTrhlb0,"[u'health', u'finance', u'point_of_interest', u'establishment']"
0,43.331131,5.133408,Town De Carry-Le-Rouet,ChIJ7ZRQT33eyRIRkXbqHWy9czQ,"[u'point_of_interest', u'establishment']"
0,43.3299661,5.1342467,Tao,ChIJh9x3i4feyRIRFrVNXVP5pqA,"[u'point_of_interest', u'establishment']"
0,43.329966,5.134247,L’Envie,ChIJh9x3i4feyRIR2tLoGx4XHEo,"[u'bar', u'point_of_interest', u'establishment']"
0,43.3296012,5.1310329,"Emmanuelle,esthéticienne à Sausset",ChIJMXInC_jeyRIRwocL4mA8mC4,"[u'point_of_interest', u'establishment']"
0,43.330245,5.139581,Station-service TOTAL,ChIJQ1pFIX7eyRIREWkKTCB4Tu0,"[u'car_repair', u'point_of_interest', u'establishment']"
0,43.3306301,5.1296161,Leroy,ChIJWSIbeWLeyRIRYu06j6qq5WU,"[u'point_of_interest', u'establishment']"
0,43.3310109,5.141908,Mairie,ChIJ2Rmg6n_eyRIRiXc7DaY5p3s,"[u'local_government_office', u'point_of_interest', u'establishment']"
0,43.331335,5.128544,MAQUILLEUSE PROFESSIONNELLE DANS LE 13 : GRAZIE,ChIJk4pYEWLeyRIR1M4nXKZgsMU,"[u'point_of_interest', u'establishment']"
0,43.3286048,5.1302864,TAXI ROUX,ChIJvbJjTYjeyRIRz1V6DMMvMC0,"[u'point_of_interest', u'establishment']"
0,43.3301946,5.1435471,ARCADIUM EXPERTISES,ChIJRUY0UdXdyRIR1AdaFHLXzu0,"[u'finance', u'point_of_interest', u'establishment']"
0,43.3298716,5.1269537,Compagnie Nicol David,ChIJiZoHCIreyRIRw7REh_8h4Ak,"[u'point_of_interest', u'establishment']"
0,43.3308932,5.1453674,Mairie,ChIJiw9wItXdyRIRjTXrJ4kiutU,"[u'local_government_office', u'point_of_interest', u'establishment']"
0,43.3322874,5.1245148,LIDL,ChIJiw4_TGDeyRIReNlXCBx8lhk,"[u'grocery_or_supermarket', u'food', u'store', u'point_of_interest', u'establishment']"
0,43.3277302,5.1440577,"Osehypnose - Olivier Mezan - hypnothérapeute ericksonienne, hypnose spirituelle, PNL",ChIJLUPbjircyRIRzcl0S5lkzYg,"[u'health', u'point_of_interest', u'establishment']"
0,43.3289833,5.1438848,Da Viken,ChIJow4NuyrcyRIRCPvQGGMPi88,"[u'point_of_interest', u'establishment']"
0,43.329604,5.141951,La Cale,ChIJmdm4dYDeyRIRitMiF3shSZE,"[u'restaurant', u'bar', u'food', u'point_of_interest', u'establishment']"
0,43.333972,5.133775,Station D'Épuration Carry-Sausset,ChIJX40tv3zeyRIRfJy-_7aT86U,"[u'point_of_interest', u'establishment']"
0,43.3326956,5.1338879,Association NewSport BNN,ChIJs7Vx33zeyRIRMWU2BO2cx9Y,"[u'point_of_interest', u'establishment']"
0,43.3326956,5.1338879,Loisirs Provence Events,ChIJs7Vx33zeyRIRZ_J5wOLhTHM,"[u'point_of_interest', u'establishment']"
0,43.3320159,5.1339554,Acquafresca Carole,ChIJ66sRPX3eyRIR_7mhczGhA7g,"[u'health', u'point_of_interest', u'establishment']"
0,43.3309626,5.1381468,MDB Immo,ChIJ4VFhAX7eyRIRgt-SC70GiSg,"[u'real_estate_agency', u'point_of_interest', u'establishment']"
0,43.3310778,5.1333044,Plomberie Chauffage Côte Bleue,ChIJzSMYoPjeyRIRjGyN_ij9gbM,"[u'plumber', u'point_of_interest', u'establishment']"
0,43.330631,5.1340674,Hagger France,ChIJV_2vXX3eyRIRlPZobEOVK4c,"[u'clothing_store', u'store', u'point_of_interest', u'establishment']"
0,43.3301541,5.1383101,Claudel Immobilier,ChIJbaZ8AX7eyRIRo3GFIwvgUek,"[u'real_estate_agency', u'point_of_interest', u'establishment']"
0,43.329902,5.1374763,Centre Kinésithérapie Cote Bleue,ChIJi4b39X3eyRIRrpJwBfGX2PA,"[u'health', u'point_of_interest', u'establishment']"
0,43.329902,5.1374763,Mouquet Serge,ChIJi4b39X3eyRIRQOVpjN1p9X8,"[u'health', u'point_of_interest', u'establishment']"
0,43.329902,5.1374763,Devaux Agnes,ChIJRVIEV4feyRIRN7lTr2Ghb3A,"[u'physiotherapist', u'health', u'point_of_interest', u'establishment']"
0,43.329902,5.1374763,Frebillot Frederic,ChIJRVIEV4feyRIReMBavxc4KwQ,"[u'physiotherapist', u'health', u'point_of_interest', u'establishment']"
0,43.329902,5.1374763,Bonnet Erwan,ChIJi4b39X3eyRIRRTqX_PiHAQM,"[u'health', u'point_of_interest', u'establishment']"
0,43.3303396,5.1330348,Ruscitto Marc Yan,ChIJL260VX3eyRIRaLpgMLWT5UQ,"[u'general_contractor', u'point_of_interest', u'establishment']"
0,43.3297132,5.1345367,Victy Beach,ChIJ2XdH8ofeyRIR7ejenwf4IaM,"[u'restaurant', u'food', u'point_of_interest', u'establishment']"
0,43.3304276,5.1393401,Pandelé Pierre,ChIJY8MTIn7eyRIRxJDVYuXbCFM,"[u'point_of_interest', u'establishment']"
0,43.3316745,5.1409114,Nardini Isabelle,ChIJPSAcsn_eyRIR_Wgl8THg-Oo,"[u'point_of_interest', u'establishment']"
0,43.3302294,5.13915,Ageco Cinq Est,ChIJPZIHH37eyRIRwNrCJlGwuSA,"[u'point_of_interest', u'establishment']"
0,43.3302294,5.13915,Conbichoc Service,ChIJPZIHH37eyRIR7r5Ig3Wq1wI,"[u'point_of_interest', u'establishment']"
0,43.3294832,5.1356357,La Bienvenue,ChIJQ_c_d4feyRIR_tx7s_9M5yo,"[u'lodging', u'point_of_interest', u'establishment']"
0,43.3301675,5.1394589,Vachey Pascal,ChIJw9OpIX7eyRIRY-Q6RKgraIE,"[u'general_contractor', u'point_of_interest', u'establishment']"
0,43.3301675,5.1394589,Bianconi Georges,ChIJw9OpIX7eyRIRvlALEciy8V0,"[u'point_of_interest', u'establishment']"
0,43.329549,5.133836,Zanzibar,ChIJncEJ7ofeyRIR7QuNDavaeYE,"[u'restaurant', u'food', u'point_of_interest', u'establishment']"
0,43.38296,5.164636,Châteauneuf-les-Martigues,ChIJXQqlUDTnyRIR8AOX_aUZCAQ,"[u'locality', u'political']"
0,43.3342103,5.181882,Calanques des eaux salee,ChIJ8VitAardyRIRHjE3okqVdbE,"[u'point_of_interest', u'establishment']"
0,43.3327702,5.1820069,13620,ChIJHUrX1avdyRIRMlZwT90OfKg,"[u'lodging', u'point_of_interest', u'establishment']"
0,43.332346,5.17976,13620,ChIJdznu96vdyRIRiIo0P2GvIMc,"[u'church', u'place_of_worship', u'point_of_interest', u'establishment']"
0,43.3334414,5.1788373,Villa Nausicaa,ChIJWWK0lq7dyRIR-tEgDrOtR1s,"[u'point_of_interest', u'establishment']"
0,43.3322929,5.182216,Trome Thierry,ChIJQbee0qvdyRIRyaXEX-hLXwY,"[u'point_of_interest', u'establishment']"
0,43.3343706,5.1782733,Tarasconi Jean-Pierre,ChIJiTnl6q7dyRIRFNboEY8GtfA,"[u'point_of_interest', u'establishment']"
0,43.3319285,5.1789549,Catalan Martine,ChIJ-YUXE6zdyRIR0nK-0BurpX8,"[u'point_of_interest', u'establishment']"
