,Latitude,Longitude,Name,Place_id,Type
0,43.8820059,4.855685,Châteaurenard,ChIJHVhC0lTutRIRtgdpL1MWNAg,"[u'locality', u'political']"
0,43.887468,4.8438075,Tondoland,ChIJTfXxFN7utRIRZdjfQl62NvQ,"[u'hardware_store', u'store', u'point_of_interest', u'establishment']"
0,43.8889621,4.8424084,"Piscines DESJOYAUX 84, Ent. BERTHIER",ChIJsYbmp_rutRIRr6qN0_PUul0,"[u'spa', u'store', u'point_of_interest', u'establishment']"
0,43.8843557,4.8506055,BIOAXIOME CHATEAURENARD,ChIJ3QSQyPjutRIRGP3_EJ7BRak,"[u'health', u'point_of_interest', u'establishment']"
0,43.88432,4.85007,Vintage Scooter Service,ChIJC62F0fjutRIRA0Ud15s5BFI,"[u'store', u'point_of_interest', u'establishment']"
0,43.8853645,4.8491846,Coup de Coeur Immobilier,ChIJI_esHvnutRIRWjIi0gRGwe0,"[u'real_estate_agency', u'point_of_interest', u'establishment']"
0,43.8808276,4.8501384,Reflex Inserim,ChIJ5-Hduv_utRIRr75NREUchXM,"[u'point_of_interest', u'establishment']"
0,43.8863625,4.8347676,Chocolaterie de l'Opéra,ChIJDYmDYj7stRIRJ3D1Twlr1ZI,"[u'food', u'store', u'point_of_interest', u'establishment']"
0,43.8842727,4.849838,Edifac Sarl,ChIJNa9B0fjutRIRIE13LjJoKo0,"[u'real_estate_agency', u'point_of_interest', u'establishment']"
0,43.8862938,4.8469149,DEP'Art / Ecole prépa concours des ecoles d'art et de restauration-conservation,ChIJ4yc4f_nutRIRJmUKb520E3A,"[u'school', u'point_of_interest', u'establishment']"
0,43.8794861,4.8445193,Du Tilleul,ChIJOyrngP3utRIRgAm80DbpCH4,"[u'food', u'point_of_interest', u'establishment']"
0,43.8793085,4.8435368,Le jardin de laurent,ChIJOyrngP3utRIRCIqMLcpr9Fg,"[u'food', u'point_of_interest', u'establishment']"
0,43.8864418,4.8364839,Mehadrin International,ChIJTfXxFN7utRIRRO3OjzDkE6c,"[u'point_of_interest', u'establishment']"
0,43.8860563,4.8352184,Biogenese,ChIJV4P46ObutRIRTi53lvPcL0I,"[u'point_of_interest', u'establishment']"
0,43.8811044,4.838414,RS Ferronnerie Métallerie,ChIJj6LDfR3vtRIRLPODkFpgLpU,"[u'point_of_interest', u'establishment']"
0,43.8811044,4.838414,Renaud Sebastien Clement,ChIJQanDfR3vtRIRrM7ZVFyI8_c,"[u'furniture_store', u'home_goods_store', u'store', u'point_of_interest', u'establishment']"
0,43.8883258,4.8409748,Fruitex,ChIJW4toRVTutRIR1bd8qnZBBPQ,"[u'grocery_or_supermarket', u'food', u'store', u'point_of_interest', u'establishment']"
0,43.87966,4.845528,CF ALTERNATIVE,ChIJRXO9jP3utRIRArcz0XhW5sY,"[u'electrician', u'electronics_store', u'store', u'point_of_interest', u'establishment']"
0,43.8865955,4.8383483,Copadel,ChIJTfXxFN7utRIRLB1E35fUwmU,"[u'point_of_interest', u'establishment']"
0,43.8802272,4.8445502,Giovanni Rénovation,ChIJmeMbnP3utRIRkTwIys7MvkM,"[u'point_of_interest', u'establishment']"
0,43.8873239,4.8377457,Mehadrin Services,ChIJRZ8WyOXutRIRo3N4sZfly_E,"[u'point_of_interest', u'establishment']"
0,43.8795466,4.8331938,Solis Culturae,ChIJ1Qj3zR_vtRIRoB55lqzfhng,"[u'point_of_interest', u'establishment']"
0,43.8890038,4.8416078,Picard,ChIJVc8UhVfutRIR6PcY712AdOc,"[u'food', u'store', u'point_of_interest', u'establishment']"
0,43.884983,4.8472573,Maurin (SAS),ChIJb0k8XPnutRIRpQRT3rgi2UU,"[u'point_of_interest', u'establishment']"
0,43.889029,4.839517,ASSELA,ChIJlfnvVP_utRIRQyHKqXhcEsg,"[u'store', u'point_of_interest', u'establishment']"
0,43.889004,4.841694,Cellier du Castel,ChIJU0osrRLstRIROa0lp6A3hjU,"[u'liquor_store', u'food', u'store', u'point_of_interest', u'establishment']"
0,43.887557,4.845182,LAUMACO S.A.R.L.,ChIJyQzc41futRIRq-CxlpE1Bk0,"[u'point_of_interest', u'establishment']"
0,43.8775263,4.8338819,Morelli Travaux Publics Sarl,ChIJZ8AYVR7vtRIRbjqimZLlptU,"[u'general_contractor', u'point_of_interest', u'establishment']"
0,43.8892244,4.8412629,Hydralians - Somair Gervat,ChIJP_xkkPrutRIRBNQcqntzUlw,"[u'store', u'point_of_interest', u'establishment']"
0,43.8831271,4.8489114,Lariviere Philippe,ChIJia8V2_7utRIRb63zSUWSaBk,"[u'general_contractor', u'point_of_interest', u'establishment']"
0,43.88849,4.843503,Giovanni Favaro,ChIJsTXLj_rutRIRJGU3RmNJAIg,"[u'grocery_or_supermarket', u'food', u'store', u'point_of_interest', u'establishment']"
0,43.885147,4.849466,ECF Maryline Cherri,ChIJ9W353_jutRIRYchA8ruN37I,"[u'point_of_interest', u'establishment']"
0,43.8807808,4.8308553,Omag Sud Agro Perret,ChIJ98oz5N_utRIR9eY960UysY4,"[u'point_of_interest', u'establishment']"
0,43.8827644,4.8495615,Sud Dépannage,ChIJ3Vc8IP_utRIR4mBcXqFhYE0,"[u'point_of_interest', u'establishment']"
0,43.8839239,4.8495375,Entreprise GONON Ghislain,ChIJA29d1fjutRIRcfBBxMEDpcc,"[u'general_contractor', u'point_of_interest', u'establishment']"
0,43.8848067,4.8493127,Marbrerie Pompes Funèbres Jouve et Fils,ChIJYylAIfnutRIREoyBSLUv_GE,"[u'point_of_interest', u'establishment']"
0,43.8851612,4.8488027,"Ame D""ongle",ChIJxYn5F_nutRIRZo1ma1H-hXg,"[u'beauty_salon', u'hair_care', u'point_of_interest', u'establishment']"
0,43.8842705,4.84934,Sobodis,ChIJQUzOLvnutRIRwvGMprvFO_I,"[u'food', u'point_of_interest', u'establishment']"
0,43.8864143,4.8486875,Rippert Michel,ChIJJ_ekTjHitRIRlD3QuojQZic,"[u'general_contractor', u'point_of_interest', u'establishment']"
0,43.8796416,4.8493751,Acthemis,ChIJH5Ebxv_utRIRaakvtUNoc7k,"[u'lawyer', u'finance', u'point_of_interest', u'establishment']"
0,43.8853905,4.8489904,Prayet Dany,ChIJOQH1GfnutRIRy7yDsyUBruE,"[u'jewelry_store', u'store', u'point_of_interest', u'establishment']"
0,43.8804923,4.8501344,Post Office,ChIJ5-Hduv_utRIRgFLxK5cxmeI,"[u'post_office', u'finance', u'point_of_interest', u'establishment']"
0,43.8836334,4.8301059,Concept Telecom,ChIJ617pLfnutRIRrLo3GVYjZUw,"[u'point_of_interest', u'establishment']"
0,43.8880661,4.8463922,Salez Jean-Lou,ChIJl_q1G_rutRIRLXejOWRbWZw,"[u'point_of_interest', u'establishment']"
0,43.8876072,4.8479933,Ad'hocpneu,ChIJ6UDnkvnutRIRrwxULHn6z1A,"[u'car_repair', u'store', u'point_of_interest', u'establishment']"
0,43.8847569,4.8498118,One Day Communication,ChIJ5V48-VXutRIR62uQX2xy8yM,"[u'point_of_interest', u'establishment']"
0,43.8861399,4.8297726,Idyl,ChIJqZAQz93utRIRFMQeFgz-OlI,"[u'point_of_interest', u'establishment']"
0,43.8841398,4.8505545,Imprimerie des Tours,ChIJhYgsyPjutRIRDJaMa45Y5Uk,"[u'travel_agency', u'point_of_interest', u'establishment']"
0,43.889349,4.8347123,Gaillardet Orlando,ChIJXUekmejutRIRIBrFXOYZJWg,"[u'point_of_interest', u'establishment']"
0,43.8819363,4.8506036,DIA,ChIJk0XvGv_utRIRA26zgLpvQ4E,"[u'store', u'point_of_interest', u'establishment']"
0,43.8799971,4.8503506,Le Grenier à Pain,ChIJZdXXxf_utRIRYXN6UbkXvp4,"[u'bakery', u'food', u'store', u'point_of_interest', u'establishment']"
0,43.8843593,4.8508975,École Saint-Denys-Saint-Joseph,ChIJm06et_jutRIR1WxLEUfREFg,"[u'point_of_interest', u'establishment']"
0,43.877257,4.849723,Market Châteaurenard,ChIJ9SMiKgDvtRIR3cwhGybjzMI,"[u'grocery_or_supermarket', u'food', u'store', u'point_of_interest', u'establishment']"
0,43.8797974,4.8501934,Macia Norbert,ChIJZw1Pxf_utRIRf1angPwLpRE,"[u'health', u'point_of_interest', u'establishment']"
0,43.879054,4.8497732,Town De Chateaurenard,ChIJ9SMiKgDvtRIRchdJY4Z37DI,"[u'school', u'point_of_interest', u'establishment']"
0,43.8869464,4.8491658,Lissac,ChIJk66yOfjutRIR96KFg_gtElw,"[u'health', u'store', u'point_of_interest', u'establishment']"
0,43.885227,4.850699,Laverie Gambetta,ChIJewgj6_jutRIRWQCnRXtAZa8,"[u'laundry', u'point_of_interest', u'establishment']"
0,43.8790148,4.8498855,Erilia,ChIJ9SMiKgDvtRIRyjin1b0BqQo,"[u'real_estate_agency', u'point_of_interest', u'establishment']"
0,43.884391,4.8511776,Ehpad - Maison de Retraite Canto Cigalo,ChIJzdSQtvjutRIRo4k5gQBMXuU,"[u'health', u'point_of_interest', u'establishment']"
0,43.8875522,4.8484395,Robert Bernard,ChIJCyAgk_nutRIRhs5Itdv5WEE,"[u'point_of_interest', u'establishment']"
0,43.8721272,4.8345315,La Bastide Des Oliviers,ChIJicSNrxnvtRIRGl2ev1vBF88,"[u'point_of_interest', u'establishment']"
0,43.8732367,4.8468921,Debard Justine,ChIJU6tYIwTvtRIRcRXCV_z3u18,"[u'point_of_interest', u'establishment']"
0,43.8732367,4.8468921,Poney Club des Tours,ChIJU6tYIwTvtRIRUw2vZRokexk,"[u'point_of_interest', u'establishment']"
0,43.8679862,4.8414785,Neutral (Sarl),ChIJgWUaKRDvtRIRIsfwtORQeA0,"[u'point_of_interest', u'establishment']"
0,43.8658941,4.8378357,A.s.prod,ChIJN-OjQxHvtRIRtssXyONdKsg,"[u'point_of_interest', u'establishment']"
0,43.8738497,4.8518524,Chateaurenard-courtoisie,ChIJmXPjVgfvtRIRvoyJ44_mSSs,"[u'point_of_interest', u'establishment']"
0,43.8778417,4.8503191,Mr.Bricolage,ChIJcYLf4gDmtRIR1AisahLU69Y,"[u'home_goods_store', u'store', u'point_of_interest', u'establishment']"
0,43.8767442,4.8511078,Témoins de Jéhovah,ChIJQwCJYQDvtRIRLbCZ9_KIx5Q,"[u'place_of_worship', u'point_of_interest', u'establishment']"
0,43.873259,4.839086,Peytier Xavier,ChIJx67fCRvvtRIR1RuXMc9ikXo,"[u'food', u'point_of_interest', u'establishment']"
0,43.8722158,4.8420376,Mas Lafleur,ChIJGTOJKQXvtRIRDH-4f2Wussk,"[u'lodging', u'point_of_interest', u'establishment']"
0,43.8753641,4.8422117,Chanal Jean-Pierre,ChIJDcm3TwPvtRIR7p0UyMwz7Js,"[u'point_of_interest', u'establishment']"
0,43.8724556,4.835715,Blanc Jullian Eliane,ChIJ76AGnRnvtRIR5hulQK_KM1g,"[u'food', u'point_of_interest', u'establishment']"
0,43.8727735,4.8354779,Colard Stéphane,ChIJGe5VdBnvtRIR3rslhUjljgs,"[u'painter', u'point_of_interest', u'establishment']"
0,43.8749486,4.8348415,Les Chaffines,ChIJm1FbMxnvtRIR5T5TOT56RFc,"[u'food', u'point_of_interest', u'establishment']"
0,43.871071,4.844721,My Agency And I,ChIJtSFpogXvtRIR8ESzcpEKT-E,"[u'point_of_interest', u'establishment']"
0,43.8706564,4.8442863,Combe Armand,ChIJAV4SdgXvtRIRUtCKFya5Aq4,"[u'food', u'point_of_interest', u'establishment']"
0,43.8706564,4.8442863,Genin Jean-Paul,ChIJvz1_dgXvtRIRi2CvZzCKOqY,"[u'food', u'point_of_interest', u'establishment']"
0,43.8706564,4.8442863,Le Clos Primeur,ChIJvz1_dgXvtRIR9tmMHfg1GKI,"[u'food', u'point_of_interest', u'establishment']"
0,43.8763686,4.8346781,Ginoux Gilbert,ChIJ1drw6B7vtRIRd3QvWJRuxVw,"[u'food', u'point_of_interest', u'establishment']"
0,43.8699631,4.8352699,Vachet Jonathan Yannick Sylvain,ChIJCceWWBfvtRIRtlagVbhRLcM,"[u'point_of_interest', u'establishment']"
0,43.868374,4.836831,13160,ChIJ-9H_zRDvtRIR27KEt2CtSrU,"[u'parking', u'point_of_interest', u'establishment']"
0,43.8684488,4.8365434,Bar Mathieu,ChIJjX6H0xbvtRIR2OORhQpNJPY,"[u'bar', u'point_of_interest', u'establishment']"
0,43.8781424,4.8356583,Ginoux Michel,ChIJ4cO8bh7vtRIREr7slwqhJPM,"[u'food', u'point_of_interest', u'establishment']"
0,43.8728702,4.8321284,Martin William,ChIJmYX_iBjvtRIRMElnPfCP8Sg,"[u'point_of_interest', u'establishment']"
0,43.868619,4.835837,13160,ChIJ6ZZzOhfvtRIR4Vfhfa0LrxU,"[u'point_of_interest', u'establishment']"
0,43.8787126,4.8366519,Zaragoza Patric,ChIJWwcC4R3vtRIRf8XfQ20qbE8,"[u'point_of_interest', u'establishment']"
0,43.86863,4.835449,13160,ChIJl4hBPBfvtRIRDprD0APvdYU,"[u'parking', u'point_of_interest', u'establishment']"
0,43.8678844,4.8421386,Earl Des Deux Platanes,ChIJTaa90Q_vtRIRpkOneSl4DLA,"[u'food', u'point_of_interest', u'establishment']"
0,43.8678844,4.8421386,Delnau Aprin Mireille,ChIJTaa90Q_vtRIRPUDHVTXrVDc,"[u'food', u'point_of_interest', u'establishment']"
0,43.8775263,4.8338819,Carrosserie des Lonnes,ChIJZ8AYVR7vtRIR1AAv4k7TVa4,"[u'car_dealer', u'car_repair', u'store', u'point_of_interest', u'establishment']"
0,43.8775263,4.8338819,Bs General Auto,ChIJZ8AYVR7vtRIRFZ1nJiBLb4w,"[u'point_of_interest', u'establishment']"
0,43.8775263,4.8338819,Manadjer,ChIJZ8AYVR7vtRIRzgtbD8mmZg0,"[u'point_of_interest', u'establishment']"
0,43.877612,4.8339835,Jullian Marc,ChIJuRTDVB7vtRIRZ4fTUjqXCxY,"[u'bar', u'point_of_interest', u'establishment']"
0,43.8787396,4.836087,Ben-taieb Jordan,ChIJmcVADB7vtRIRvCFdwpjAPlw,"[u'point_of_interest', u'establishment']"
0,43.876779,4.832701,Romera Jean Pierre,ChIJaVwk7RnvtRIRx4rN8Cd88sE,"[u'food', u'point_of_interest', u'establishment']"
0,43.8796211,4.8408195,Eyssautier Alain,ChIJ40YXp-LutRIRx_jFI_Svyxw,"[u'point_of_interest', u'establishment']"
0,43.867946,4.83588,13160,ChIJ45h-KBfvtRIRQFeKC_1DZUI,"[u'parking', u'point_of_interest', u'establishment']"
0,43.8770653,4.8471482,Sg Musique,ChIJKYTTgwHvtRIRzG7Em5tw-Uo,"[u'point_of_interest', u'establishment']"
0,43.8773253,4.8470383,Feuilladieu Eric,ChIJLfzmhgHvtRIRqT87ajuvu_g,"[u'furniture_store', u'home_goods_store', u'store', u'point_of_interest', u'establishment']"
0,43.877523,4.8468274,Gaussen Claude,ChIJo_XuJwLvtRIRpwFWrBGAvaM,"[u'point_of_interest', u'establishment']"
0,43.8738658,4.8489515,Defer Maquinghem Paulette Marie Julia,ChIJ_zw60AbvtRIRYPsosoyPlDA,"[u'health', u'point_of_interest', u'establishment']"
0,43.8674515,4.8358036,Achard Sebastien,ChIJ5ZwT2hbvtRIRHmMgdanXdHs,"[u'electrician', u'point_of_interest', u'establishment']"
0,43.8798963,4.8424411,Noguier Louis,ChIJfaQUWv3utRIRU5koXt3HCBQ,"[u'point_of_interest', u'establishment']"
0,43.875987,4.8312447,Segura Jean,ChIJowFmYR_vtRIRphDF-Cjtnyk,"[u'point_of_interest', u'establishment']"
0,43.8774004,4.8475691,Maurel Alain,ChIJVwTcmgHvtRIRN5yXRN7cHe4,"[u'painter', u'point_of_interest', u'establishment']"
0,43.8774004,4.8475691,Morcillo Garcia Fernando,ChIJVwTcmgHvtRIRaEPdJ_B0jyU,"[u'finance', u'point_of_interest', u'establishment']"
0,43.8722396,4.8305492,Atturat Rigot Lucienne,ChIJaWivlDTvtRIR0tSAj1I3FuA,"[u'food', u'point_of_interest', u'establishment']"
0,43.8774111,4.8476817,Milhon Maryse,ChIJ2aD3mgHvtRIRMtnr35JcIUw,"[u'restaurant', u'food', u'point_of_interest', u'establishment']"
0,43.8803195,4.840198,LES BEAUMES,ChIJD6X6luLutRIR7BleVGQBBo8,"[u'point_of_interest', u'establishment']"
0,43.8666019,4.8377036,Romera Rene Antoine Jean,ChIJN_a1ORHvtRIReskfVWl0roM,"[u'food', u'point_of_interest', u'establishment']"
0,43.8947169,4.8485354,De Varga Catherine,ChIJQTumZvbutRIRvY9Fx7Lvixw,"[u'health', u'point_of_interest', u'establishment']"
0,43.8878083,4.8498165,Intermarché Super,ChIJ642wOfjutRIR9h1Orz3Uiqk,"[u'grocery_or_supermarket', u'food', u'store', u'point_of_interest', u'establishment']"
0,43.893219,4.845674,MUR Marcel Exploitant Forestier,ChIJHQILb_HutRIRTLJHoAd_pOc,"[u'general_contractor', u'point_of_interest', u'establishment']"
0,43.8929863,4.8451895,Détente au Naturel,ChIJHQILb_HutRIRUWRLLa6atb8,"[u'beauty_salon', u'spa', u'health', u'point_of_interest', u'establishment']"
0,43.8958785,4.8369867,l'Accro des Toiles,ChIJt4lqBu3utRIR-iPvGDB68LU,"[u'point_of_interest', u'establishment']"
0,43.8929864,4.8451894,Détente au Naturel,ChIJ79Kgb_HutRIRccipfaf6X3s,"[u'point_of_interest', u'establishment']"
0,43.8958785,4.8369867,Montoir Alain,ChIJxxQPd-zutRIRuMnBQQBnioA,"[u'point_of_interest', u'establishment']"
0,43.892185,4.8498869,Garage Delko,ChIJz1mSXfbutRIRLF3YTEFrdv8,"[u'car_repair', u'point_of_interest', u'establishment']"
0,43.8956781,4.8479075,Ets Horticole Valade,ChIJ-_AwYfTutRIR34L4GE-_gms,"[u'point_of_interest', u'establishment']"
0,43.891825,4.829925,ACEL ONISFLOR,ChIJPxps9cLutRIRbqJ-MdGOzHg,"[u'point_of_interest', u'establishment']"
0,43.892185,4.849887,Nguyen Thomas,ChIJz1mSXfbutRIR4apv-rnz-Io,"[u'restaurant', u'bar', u'food', u'point_of_interest', u'establishment']"
0,43.898458,4.843378,Perrais Montoir Monique,ChIJJTFay_LutRIRj-tXbnYXcaI,"[u'store', u'point_of_interest', u'establishment']"
0,43.8896294,4.8291457,Socafna,ChIJz0FqZzzutRIR2y06orsrKKg,"[u'moving_company', u'point_of_interest', u'establishment']"
0,43.8877801,4.8498413,Sa Chatodis Intermarche,ChIJVc8UhVfutRIRhcSmDD4n6NY,"[u'grocery_or_supermarket', u'food', u'store', u'point_of_interest', u'establishment']"
0,43.8882122,4.8512005,RENAULT-DACIA CHATEAURENARD : LES RELAIS DE L'AUTOMOBILE,ChIJm-kuDvjutRIRGzmj4sj2E78,"[u'car_dealer', u'car_rental', u'car_repair', u'store', u'point_of_interest', u'establishment']"
0,43.8902372,4.8281364,Eureka Sarl,ChIJobgp1NzutRIRyV2BHtEjaKE,"[u'moving_company', u'point_of_interest', u'establishment']"
0,43.886923,4.849466,Fun Look,ChIJk66yOfjutRIR0xa2KYvBsCA,"[u'hair_care', u'point_of_interest', u'establishment']"
0,43.887016,4.849582,Vita Liberté Chateaurenard,ChIJS30cTfjutRIRASj1qQykDJI,"[u'gym', u'health', u'food', u'store', u'point_of_interest', u'establishment']"
0,43.8880147,4.8505426,Le Festival des Pains,ChIJt3dKEfjutRIRCrLIU9WkGYA,"[u'bakery', u'food', u'store', u'point_of_interest', u'establishment']"
0,43.8893237,4.8286414,Tout pour le Fruit Sud Est,ChIJobgp1NzutRIRkJJC__3DGdg,"[u'point_of_interest', u'establishment']"
0,43.8879916,4.8504047,Côté Frais,ChIJLy9bO_jutRIRRgV38YJD8ak,"[u'food', u'store', u'point_of_interest', u'establishment']"
0,43.8869098,4.8495757,Loft,ChIJ3TBkTfjutRIRJxAf2uIdisA,"[u'clothing_store', u'store', u'point_of_interest', u'establishment']"
0,43.8893237,4.8286414,Axis 3 D,ChIJobgp1NzutRIRxZZowdZaJ9w,"[u'point_of_interest', u'establishment']"
0,43.8893237,4.8286414,Bambou,ChIJobgp1NzutRIRWfwNtqshOCI,"[u'point_of_interest', u'establishment']"
0,43.8892665,4.8285451,La Compagnie Fruitière,ChIJobgp1NzutRIRYR-TndhkHkQ,"[u'point_of_interest', u'establishment']"
0,43.8881208,4.8508056,Contrôle technique Autosur Châteaurenard,ChIJN-o3EfjutRIRKC__uVA_fAc,"[u'car_repair', u'point_of_interest', u'establishment']"
0,43.8892665,4.8285451,Ax'eau,ChIJobgp1NzutRIR5nLXYxz0kVk,"[u'point_of_interest', u'establishment']"
0,43.8992393,4.8343137,Bricomarché,ChIJc6490ZTutRIRBPoex-a7eEg,"[u'home_goods_store', u'store', u'point_of_interest', u'establishment']"
0,43.8879924,4.8507014,Bistrot du Chateau,ChIJH3dKEfjutRIRoNk-2aTIIVo,"[u'bar', u'restaurant', u'food', u'point_of_interest', u'establishment']"
0,43.891101,4.8274787,Maya,ChIJAWLAFMPutRIROBWQZgNCcKc,"[u'grocery_or_supermarket', u'food', u'store', u'point_of_interest', u'establishment']"
0,43.8992933,4.8344135,Jungle Café,ChIJc6490ZTutRIRxwjhspqZrlo,"[u'restaurant', u'food', u'point_of_interest', u'establishment']"
0,43.891013,4.827509,Sud Creabitat,ChIJ0SLW9U7utRIR_djY8w8pLuQ,"[u'point_of_interest', u'establishment']"
0,43.890911,4.8274955,Boulangeries B.G,ChIJOX_NFMPutRIRXrmF01BMjtg,"[u'bakery', u'food', u'store', u'point_of_interest', u'establishment']"
0,43.8912762,4.8388254,Earl Mas Raoulx Raymond,ChIJBdLKBu_utRIRHuPrXbpqBQI,"[u'food', u'point_of_interest', u'establishment']"
0,43.8912192,4.8386401,Bertrand Jean-Pierre Eric,ChIJkUtqBO_utRIReTnpXkR4CuA,"[u'food', u'point_of_interest', u'establishment']"
0,43.8925014,4.8418277,Affre Gilbert,ChIJJ1QdKO7utRIREB6T2MD6sks,"[u'general_contractor', u'point_of_interest', u'establishment']"
0,43.88364,4.854449,Hôtel Restaurant Le Central,ChIJFcUxK1TutRIRz3LtuCmQ4VE,"[u'bar', u'lodging', u'restaurant', u'food', u'point_of_interest', u'establishment']"
0,43.8811444,4.8543367,La Trentaine,ChIJL5NBB1XutRIRcbYUTf5GM2k,"[u'lodging', u'point_of_interest', u'establishment']"
0,43.8822969,4.8536495,Era Immobilier,ChIJdcLJvlXutRIRMIPmJ_1YqSM,"[u'real_estate_agency', u'point_of_interest', u'establishment']"
0,43.8831222,4.8525985,Société Générale,ChIJNTPw7lXutRIRZDj89Lrv2ec,"[u'bank', u'atm', u'finance', u'point_of_interest', u'establishment']"
0,43.8819545,4.8541345,Le Bistrot Provençal,ChIJ53BDsFXutRIR3nFIyvovzBU,"[u'restaurant', u'food', u'point_of_interest', u'establishment']"
0,43.8830962,4.8546314,Denis-Farlay Immobilier,ChIJzQeQ0lXutRIR5DyYI-fhi6A,"[u'real_estate_agency', u'point_of_interest', u'establishment']"
0,43.8807873,4.8544091,Andralys,ChIJT-SUBpDuBUgR6fMaGxxa5Hg,"[u'point_of_interest', u'establishment']"
0,43.887648,4.852542,Daurelle Immobilier,ChIJGRSh8lfutRIRGHUg1nlLA7w,"[u'real_estate_agency', u'point_of_interest', u'establishment']"
0,43.8840935,4.8554957,Crédit Mutuel Agricole et Rural,ChIJbY8Hm1butRIRVK2Ki03e-9w,"[u'bank', u'atm', u'finance', u'point_of_interest', u'establishment']"
0,43.8808818,4.853698,Middle School Saint Joseph,ChIJ-3BHFFXutRIR7Cdyaof-y40,"[u'school', u'point_of_interest', u'establishment']"
0,43.8845353,4.8539096,Chemin de Fer Du Val de Provence,ChIJC3DublbutRIRS9wNEm4lEgk,"[u'point_of_interest', u'establishment']"
0,43.8823601,4.8541311,Hawecker Frères,ChIJgUkKt1XutRIRhbeah7dqeWw,"[u'bakery', u'real_estate_agency', u'food', u'store', u'point_of_interest', u'establishment']"
0,43.8825476,4.8528722,CCAS,ChIJ9SMiKgDvtRIRmlCn5VpXoow,"[u'local_government_office', u'point_of_interest', u'establishment']"
0,43.8833959,4.8580174,Pharmacie des Allées,ChIJdw_Z_FPutRIR5N6921eyOwg,"[u'pharmacy', u'health', u'store', u'point_of_interest', u'establishment']"
0,43.8837585,4.8543108,Rugby Club Chateaurenardais,ChIJ5VcG01XutRIR7njf3xmQDQo,"[u'point_of_interest', u'establishment']"
0,43.881937,4.854057,Détente City,ChIJO3TgKBbutRIR_3Wlk3aS0Sg,"[u'beauty_salon', u'point_of_interest', u'establishment']"
0,43.8840282,4.8563278,Crédit Agricole Alpes Provence,ChIJi_5en1butRIRilexCOHrYJs,"[u'bank', u'atm', u'finance', u'point_of_interest', u'establishment']"
0,43.8832047,4.8533868,LCL - Le Crédit Lyonnais,ChIJxRlQmVbutRIRMq9D6dzwPHY,"[u'bank', u'atm', u'finance', u'point_of_interest', u'establishment']"
0,43.883826,4.855082,Caisse d'Epargne Chateaurenard,ChIJoY3Ug1butRIR6utCZ_eo7xA,"[u'bank', u'atm', u'finance', u'point_of_interest', u'establishment']"
0,43.8840037,4.852852,brocante provencale,ChIJgbYEBlbutRIR1nSlLyo9L-8,"[u'furniture_store', u'home_goods_store', u'store', u'point_of_interest', u'establishment']"
0,43.8829381,4.8534419,BNP Paribas - Chateaurenard,ChIJ7bdqwlXutRIR6TB_6OYIGg4,"[u'bank', u'atm', u'finance', u'point_of_interest', u'establishment']"
0,43.8820059,4.855685,Restaurant PAR GOURMANDISE,ChIJIVeKKVTutRIR264FMSil4YA,"[u'restaurant', u'cafe', u'bar', u'food', u'point_of_interest', u'establishment']"
0,43.8838428,4.8516894,Reynes Van Brabandt Sonia,ChIJLQo9rfjutRIRTSXVF2Uk7VI,"[u'doctor', u'health', u'point_of_interest', u'establishment']"
0,43.8819954,4.8530281,This Is Dans L'air,ChIJO46skFXutRIRrj_QBiEbMS0,"[u'point_of_interest', u'establishment']"
0,43.882531,4.8538482,Société Marseillaise de Crédit - Châteaurenard,ChIJw88Bdhib70cRon5CK6bOeA0,"[u'bank', u'atm', u'finance', u'point_of_interest', u'establishment']"
0,43.8818038,4.8557522,Paroisse Châteaurenard,ChIJwZ28XVTutRIRxtz4V8cnwk4,"[u'church', u'place_of_worship', u'point_of_interest', u'establishment']"
0,43.8842564,4.85243,Frigolet Liqueur,ChIJTTR8A1butRIRBEeuQJcrPVs,"[u'bakery', u'liquor_store', u'food', u'store', u'point_of_interest', u'establishment']"
0,43.8830294,4.8526488,Banque Populaire Provençale et Corse,ChIJRQRf7lXutRIRiMlMBBDXPOc,"[u'bank', u'finance', u'point_of_interest', u'establishment']"
0,43.8844963,4.8553066,Banque Chaix,ChIJf6njllbutRIRbpNqKZUvzJE,"[u'bank', u'atm', u'finance', u'point_of_interest', u'establishment']"
0,43.8812914,4.8543951,Borel Jouve Aline,ChIJ3zxHB1XutRIRCg2QBFpT9nc,"[u'lodging', u'point_of_interest', u'establishment']"
0,43.8789966,4.8531426,Clinique Vétérinaire O'ptits soins,ChIJsZBN0KrvtRIRtvqJ8F3y11k,"[u'veterinary_care', u'point_of_interest', u'establishment']"
0,43.8842481,4.8540099,Au Coiffeur du Coin,ChIJwW0TcFbutRIRBFy2dHOYdR0,"[u'hair_care', u'point_of_interest', u'establishment']"
0,43.881959,4.855349,J.p.s,ChIJW4toRVTutRIRAF68ZUz_suc,"[u'grocery_or_supermarket', u'food', u'store', u'point_of_interest', u'establishment']"
0,43.8845703,4.8549995,Agence Groupama Chateaurenard,ChIJo5gOklbutRIRmANscCj3fMo,"[u'insurance_agency', u'bank', u'finance', u'point_of_interest', u'establishment']"
0,43.8829328,4.8528792,Banque Populaire,ChIJnxkA71XutRIRxNinrMVVfto,"[u'bank', u'atm', u'finance', u'point_of_interest', u'establishment']"
0,43.8877886,4.8534381,PB Piles et Batteries,ChIJ1-roklfutRIRjeIwlBO7Hi4,"[u'point_of_interest', u'establishment']"
0,43.881959,4.855349,Comité Gestion Maison Paisible,ChIJW4toRVTutRIRcD2QC8HVSnU,"[u'point_of_interest', u'establishment']"
0,43.8833834,4.8521584,Association des Commerçants de Châteaurenard,ChIJv0fm-FXutRIRYrI00KfBO8Y,"[u'point_of_interest', u'establishment']"
0,43.8799747,4.8552627,chambres d hôtes Chateaurenard,ChIJ6fap3VTutRIRWWrdqDSmnfg,"[u'lodging', u'point_of_interest', u'establishment']"
0,43.8860409,4.829452,Guanter Rodriguez,ChIJy4PF093utRIRgaFuhSuyUjg,"[u'moving_company', u'point_of_interest', u'establishment']"
0,43.877693,4.8272388,Cabrol Annette,ChIJ_TqDICHvtRIRytqQzTdeZnM,"[u'point_of_interest', u'establishment']"
0,43.88168,4.822532,Les Garras,ChIJFTFvQdjutRIRwvc2s5mP-MU,"[u'sublocality_level_1', u'sublocality', u'political']"
0,43.8892326,4.8277736,Holding Bernard Blachère,ChIJ-1u0ztzutRIRJLczKAt8F3g,"[u'food', u'store', u'point_of_interest', u'establishment']"
0,43.8888773,4.8248024,Passion Jardin,ChIJAYUFWtvutRIRufH49c5ZJik,"[u'general_contractor', u'food', u'store', u'point_of_interest', u'establishment']"
0,43.882259,4.831522,Brasserie des Lonnes,ChIJXQ_tKt7utRIRw3QMOcJsVl8,"[u'restaurant', u'food', u'point_of_interest', u'establishment']"
0,43.883626,4.8299419,Michollet Denis,ChIJKf_-at7utRIRno6Mc5q1SSE,"[u'point_of_interest', u'establishment']"
0,43.8839,4.83061,Niquet Georges,ChIJj9iUEN7utRIRHQfaG1eSo_s,"[u'point_of_interest', u'establishment']"
0,43.8839,4.83061,Seisson Robert,ChIJj9iUEN7utRIRag0-J9p4j8g,"[u'food', u'point_of_interest', u'establishment']"
0,43.8839,4.83061,Rigot Frederic,ChIJj9iUEN7utRIRcCKdB5OLYwA,"[u'food', u'point_of_interest', u'establishment']"
0,43.8836852,4.8320633,Dupuis Genevieve,ChIJldnfvODutRIRIhvL4srXHwM,"[u'point_of_interest', u'establishment']"
0,43.8806317,4.8308977,Cabassole Bernard Marcel,ChIJH6kZ49_utRIR7rXQTV478HU,"[u'point_of_interest', u'establishment']"
0,43.8844734,4.8310077,Lemattre Alexandra Monique Francoise,ChIJS2s1Ad7utRIRC5QVtTcsDGg,"[u'point_of_interest', u'establishment']"
0,43.880414,4.8324359,Vincent Lacroix,ChIJy97OGeDutRIR4v5eSkYEqhU,"[u'point_of_interest', u'establishment']"
0,43.8852687,4.8289199,Sarrazin Chantal,ChIJMQnL093utRIRqegNusATOXA,"[u'point_of_interest', u'establishment']"
0,43.8852687,4.8289199,Prosol Achats,ChIJy4PF093utRIR2PhcCuLbMWU,"[u'grocery_or_supermarket', u'food', u'store', u'point_of_interest', u'establishment']"
0,43.8856625,4.8320487,Bossu Claude,ChIJTfXxFN7utRIRcw0a-oJryPc,"[u'point_of_interest', u'establishment']"
0,43.8856625,4.8320487,Vergers du Soleil SARL,ChIJTfXxFN7utRIR5ONLNxHvTNM,"[u'grocery_or_supermarket', u'food', u'store', u'point_of_interest', u'establishment']"
0,43.8856625,4.8320487,Le Jardin Provençal,ChIJTfXxFN7utRIROb8KOplMdr0,"[u'grocery_or_supermarket', u'food', u'store', u'point_of_interest', u'establishment']"
0,43.8856625,4.8320487,Claude Transports,ChIJTfXxFN7utRIRKAjGOZ6lvKA,"[u'moving_company', u'point_of_interest', u'establishment']"
0,43.8856625,4.8320487,Entreprise Ludovico,ChIJTfXxFN7utRIRVbJZ6tcOv1I,"[u'general_contractor', u'point_of_interest', u'establishment']"
0,43.8856625,4.8320487,Escudier et Verger Ets,ChIJTfXxFN7utRIRy6wJva9jyjo,"[u'point_of_interest', u'establishment']"
0,43.8856625,4.8320487,Fortané Jean-Marc,ChIJTfXxFN7utRIRXiy6myhSAxk,"[u'veterinary_care', u'point_of_interest', u'establishment']"
0,43.8856625,4.8320487,Boutet Lucien et Fils,ChIJybhnQ-futRIRnmNqBK-e7wY,"[u'point_of_interest', u'establishment']"
0,43.8795466,4.8331938,Ducci Lilian,ChIJfRn12R_vtRIR06W_cmTuGVg,"[u'point_of_interest', u'establishment']"
0,43.879153,4.8317248,Earl Des Lonnes,ChIJr3Ug8R_vtRIRla2jBWokQDo,"[u'food', u'store', u'point_of_interest', u'establishment']"
0,43.8792313,4.8290669,Martel Francis,ChIJj9KXiN_utRIRpsGhF8KJov0,"[u'food', u'point_of_interest', u'establishment']"
0,43.885436,4.833889,Lebre Patrice,ChIJ9QJRJ-futRIRqm_mycA5a4k,"[u'general_contractor', u'point_of_interest', u'establishment']"
0,43.885805,4.828583,Bouillard Jean-Louis,ChIJc7T5NNzutRIR5tWAoRDqtPc,"[u'point_of_interest', u'establishment']"
0,43.8833452,4.8250484,Delmer Pascal,ChIJs_lPPNnutRIRXJdA4zQYtYU,"[u'point_of_interest', u'establishment']"
0,43.8860563,4.8352184,Provefel,ChIJV4P46ObutRIRgcpJ8HoeiIQ,"[u'grocery_or_supermarket', u'food', u'store', u'point_of_interest', u'establishment']"
0,43.8861431,4.8356688,Blache Moll Brigitte Mireille,ChIJlUvY5-butRIRqR8ro3dQ39g,"[u'grocery_or_supermarket', u'food', u'store', u'point_of_interest', u'establishment']"
0,43.883851,4.824056,Mas Des Retrouvailles -Chambres d'hôtes Châteaurenard,ChIJQxx2DNnutRIRKYIlNa0-d20,"[u'lodging', u'point_of_interest', u'establishment']"
0,43.8781105,4.8268789,Saladin Freres,ChIJm0uL2iDvtRIRXr73mtwd0Og,"[u'general_contractor', u'point_of_interest', u'establishment']"
0,43.8679499,4.8287758,Li Tres Pichot,ChIJ_SUmqz3vtRIRjOgC2w73JbQ,"[u'point_of_interest', u'establishment']"
0,43.8636958,4.839151,La mélodie des mets,ChIJIcaIShLvtRIROC7hyWD9wzk,"[u'food', u'point_of_interest', u'establishment']"
0,43.8636846,4.8393609,DES FILLES ET DES ONGLES,ChIJk2uKShLvtRIRZMCSSbqTS2w,"[u'point_of_interest', u'establishment']"
0,43.8643702,4.8377518,Pub Le Troll,ChIJJ1ps6hPvtRIR3FUfufNsGkI,"[u'bar', u'point_of_interest', u'establishment']"
0,43.859761,4.842967,Gîtes et Roulotte du Soleil,ChIJtW86zxLvtRIRGGqzuHnMBaQ,"[u'lodging', u'point_of_interest', u'establishment']"
0,43.8649346,4.8298269,Mas des deux mondes,ChIJdR7KbT7vtRIRY8wmtMI7_uE,"[u'lodging', u'point_of_interest', u'establishment']"
0,43.8645456,4.8291283,referencement reseau 118 annuaires,ChIJz52BXT7vtRIRICyOPz4prqg,"[u'point_of_interest', u'establishment']"
0,43.8614065,4.8504845,Sarl Nicolas,ChIJNbmg6wrvtRIR7IhvUy6WAm4,"[u'general_contractor', u'point_of_interest', u'establishment']"
0,43.8615423,4.8427857,Lignereux Mariotti Anne Elisabeth,ChIJzxlKeA3vtRIRgfjM4z7UfFI,"[u'point_of_interest', u'establishment']"
0,43.8679499,4.8287758,Luchesi Blachon Simone Egedia Augusta,ChIJ38ajHT3vtRIRs4i6EyqrS5c,"[u'point_of_interest', u'establishment']"
0,43.8642316,4.8392831,La Crau Transports Sarl,ChIJNckXNRLvtRIRmgBQmN8kt3w,"[u'moving_company', u'point_of_interest', u'establishment']"
0,43.8643256,4.8389506,Lovisa Christophe,ChIJ6yELyxPvtRIRCTMC8832v7Y,"[u'point_of_interest', u'establishment']"
0,43.8644816,4.8389484,Roméra Maurice,ChIJGwQDzhPvtRIRPwfgP_pRA44,"[u'grocery_or_supermarket', u'food', u'store', u'point_of_interest', u'establishment']"
0,43.8651902,4.8388722,Le Jardin de la Malgue,ChIJJ9m51RPvtRIRYvezlb80DJY,"[u'food', u'point_of_interest', u'establishment']"
0,43.8651901,4.8414923,Cavastrin Julien Thierry Gilbert,ChIJc_7XARLvtRIRPOIaUB4rJDA,"[u'point_of_interest', u'establishment']"
0,43.841579,4.841977,Eyragues,ChIJpwtyXIbltRIRjx2enjt8Zjk,"[u'locality', u'political']"
0,43.8633366,4.8386691,Forest Radellet Patricia,ChIJhyfurhPvtRIR_cF4GzTeVvI,"[u'point_of_interest', u'establishment']"
0,43.8626078,4.8415876,Sci Triacca,ChIJx77ygRLvtRIRe1qvgMNIqcQ,"[u'point_of_interest', u'establishment']"
0,43.8630391,4.8371889,Masseboeuf Rémi,ChIJhxxPnRPvtRIRCFOcnGQGUxM,"[u'food', u'point_of_interest', u'establishment']"
0,43.8621195,4.8413557,Bernard Procureur Christiane Yvette,ChIJ07hjmxLvtRIRdAhpHU_9nG0,"[u'food', u'point_of_interest', u'establishment']"
0,43.8664646,4.8371255,Mialon et Fils,ChIJB2drOhHvtRIRBus0HJPbySs,"[u'point_of_interest', u'establishment']"
0,43.8616716,4.8383719,Hubert Aime,ChIJQ3goPRPvtRIRDulobX_P9u8,"[u'point_of_interest', u'establishment']"
0,43.8615374,4.8379638,Bertrand Mickael,ChIJkZ7SPhPvtRIRSTUFZNUnKJc,"[u'food', u'point_of_interest', u'establishment']"
0,43.8615374,4.8379638,Gonzales Lopez Bertrand Angelina,ChIJkZ7SPhPvtRIRQnfkXaDBH3Y,"[u'food', u'point_of_interest', u'establishment']"
0,43.8663033,4.8437394,Testud Patrick,ChIJ26iiXQ7vtRIR1ac5Sfz99Ws,"[u'food', u'point_of_interest', u'establishment']"
0,43.866502,4.8438425,Mouret Denise,ChIJ8e1YXA7vtRIRWxeJt5S2TP8,"[u'food', u'point_of_interest', u'establishment']"
0,43.8622935,4.8440399,Farbos Vanessa,ChIJf_QEqA3vtRIR21SXVwrZ0Xc,"[u'health', u'point_of_interest', u'establishment']"
0,43.8605018,4.8377966,Ginoux Jean Marie,ChIJ_V1gtWzvtRIR0rVIN9cxSVU,"[u'point_of_interest', u'establishment']"
0,43.8645741,4.8457504,Barriol Patrick,ChIJ7RZsGQzvtRIRz2WYZnqur4A,"[u'food', u'point_of_interest', u'establishment']"
0,43.8597614,4.8429668,Libourel Jean Pierre,ChIJ_cLV4ofltRIRLc9oWpHfHgA,"[u'point_of_interest', u'establishment']"
0,43.8667988,4.8329567,Des Ecoles Earl,ChIJz1OEQRbvtRIRMIzycA0sumo,"[u'food', u'point_of_interest', u'establishment']"
0,43.8667437,4.8322318,Bernard René,ChIJOTp0FhbvtRIRZbsnsvT0OSE,"[u'food', u'point_of_interest', u'establishment']"
0,43.8661731,4.8315625,Bouillard Alain,ChIJM8LWHBbvtRIR-Yst4QO075k,"[u'food', u'point_of_interest', u'establishment']"
0,43.8607087,4.8328142,Girardot Nicole,ChIJA9tay2rvtRIRwjLmhzM-_VA,"[u'lodging', u'point_of_interest', u'establishment']"
0,43.8615147,4.8313787,Chasson Hubert,ChIJq2ZhSBXvtRIRnIwiEPz__rE,"[u'food', u'point_of_interest', u'establishment']"
0,43.8628001,4.8497595,Roumieux Michel,ChIJw5-bUwrvtRIRLQRR_Jx2BQ4,"[u'point_of_interest', u'establishment']"
0,43.8616931,4.8498339,De l'Espinet Earl,ChIJ2ZqW5ArvtRIRqQ55upNECyg,"[u'point_of_interest', u'establishment']"
0,43.8644174,4.8289993,Sci Bernard,ChIJ1bIsXD7vtRIR-H3DfO8e0e8,"[u'point_of_interest', u'establishment']"
0,43.868706,4.830457,Ruffinatto Albert,ChIJN75uQj3vtRIR72Vyl0J2uFQ,"[u'general_contractor', u'point_of_interest', u'establishment']"
0,43.8614065,4.8504845,Mouiren Nicolas Patricia Gisele,ChIJNbmg6wrvtRIRWCscqpm6xpc,"[u'beauty_salon', u'point_of_interest', u'establishment']"
0,43.8756328,4.8603846,La Sousto,ChIJI6wGtK3vtRIRU9m3lDjjHSY,"[u'lodging', u'point_of_interest', u'establishment']"
0,43.8756825,4.8535343,Centre de formation AECD,ChIJAbDsQarvtRIRPEN1VHpwNu0,"[u'point_of_interest', u'establishment']"
0,43.8765657,4.8522821,Michon Bruno,ChIJS4hbfqrvtRIR7Vj19wP1SMk,"[u'point_of_interest', u'establishment']"
0,43.8792091,4.8503682,Crèche De La Marelle,ChIJ555A2P_utRIRgMo8rPoOyjw,"[u'point_of_interest', u'establishment']"
0,43.8733133,4.8546703,Actions Conseils,ChIJwwfEcqnvtRIRdsZbghPjCyg,"[u'point_of_interest', u'establishment']"
0,43.8773128,4.8515502,Amc conseil,ChIJi8RkcADvtRIRC2bahC8u8bU,"[u'electronics_store', u'store', u'point_of_interest', u'establishment']"
0,43.8707769,4.853473,L'Argelier,ChIJa69ZQKjvtRIRNJ658QeGB9Q,"[u'sublocality_level_1', u'sublocality', u'political']"
0,43.8708417,4.8564038,Le temps d'une pose,ChIJOd-6xqjvtRIRVaH2Cmvtd3M,"[u'beauty_salon', u'hair_care', u'point_of_interest', u'establishment']"
0,43.8778607,4.8544939,Cimetiere Eyragues,ChIJk8xS3qrvtRIRKJnq3qO8g0k,"[u'place_of_worship', u'point_of_interest', u'establishment']"
0,43.8784475,4.8540399,Pompes Funèbres Bourelier,ChIJY5pN0KrvtRIRattld5MeU78,"[u'point_of_interest', u'establishment']"
0,43.8798456,4.8515797,Association A.P.A.C.S.E,ChIJPRVxRVTutRIRXdCQLCHGHBI,"[u'point_of_interest', u'establishment']"
0,43.878464,4.854046,Pompes Funèbres et Marbrerie Simoncelli,ChIJlZpN0KrvtRIREDlbBRcDWug,"[u'funeral_home', u'point_of_interest', u'establishment']"
0,43.8759343,4.8582212,Correas Amable,ChIJY28iXazvtRIR-cCiiP5HDjY,"[u'general_contractor', u'point_of_interest', u'establishment']"
0,43.8798458,4.8537901,Bonne Pioche,ChIJ-ewAPFXutRIRmyjo19cKjaY,"[u'store', u'point_of_interest', u'establishment']"
0,43.8670135,4.8553511,Nougier,ChIJx9MiaqbvtRIRzu5WXKSiSGk,"[u'point_of_interest', u'establishment']"
0,43.8728752,4.8599952,Neutral S A R L,ChIJ328EzlTutRIRF7QSUOnXv5M,"[u'point_of_interest', u'establishment']"
0,43.8813526,4.8517596,Renault F,ChIJ5-CYgf_utRIRQnxCdeAUJsA,"[u'car_dealer', u'real_estate_agency', u'store', u'point_of_interest', u'establishment']"
0,43.8809487,4.8537235,Collège St Joseph,ChIJG36aDlXutRIRm_qM3_1ExyE,"[u'school', u'point_of_interest', u'establishment']"
0,43.8809487,4.8539991,Locale ADMR de Chateaurenard,ChIJzSK9BVXutRIRt1gT4T7rFjQ,"[u'courthouse', u'point_of_interest', u'establishment']"
0,43.8813145,4.8543684,PAULEAU Jonathan Ostéopathe D.O.,ChIJCfZnY0DptRIRyL4gnllRdrE,"[u'health', u'point_of_interest', u'establishment']"
0,43.8820158,4.8524584,La Pêcherie Laura,ChIJXw44uVXutRIRy7qPueOHVrk,"[u'food', u'point_of_interest', u'establishment']"
0,43.8822917,4.8510636,Lévêque Eric,ChIJv4OJa__utRIRlfpacQJilAk,"[u'insurance_agency', u'point_of_interest', u'establishment']"
0,43.8728021,4.851044,Baptiste Frédéric,ChIJ2dWhQAfvtRIR31dQhHwhObI,"[u'finance', u'point_of_interest', u'establishment']"
0,43.8719039,4.8523443,Lefevre Louis,ChIJA_dM06nvtRIRuLgPais9Qbw,"[u'point_of_interest', u'establishment']"
0,43.8747186,4.8528954,Cabassud Patrice,ChIJh7FQGqrvtRIRiqZQRpBT_ec,"[u'point_of_interest', u'establishment']"
0,43.8747249,4.85302,Nicolas Claude,ChIJu7FQGqrvtRIRAZcttOZv8qo,"[u'general_contractor', u'point_of_interest', u'establishment']"
0,43.873686,4.853737,13160,ChIJMeZsjqnvtRIRemweuVYbgbA,"[u'parking', u'point_of_interest', u'establishment']"
0,43.8770689,4.8488598,Carrosserie C.q.f.d.,ChIJCzJRrwHvtRIRG6codQrieck,"[u'car_repair', u'point_of_interest', u'establishment']"
0,43.87392,4.853929,13160,ChIJnyO2iKnvtRIRNY42WM80iDU,"[u'point_of_interest', u'establishment']"
0,43.8760377,4.8525492,Armapro Construction,ChIJ0wCAcKrvtRIRnHiQaAbWPLk,"[u'point_of_interest', u'establishment']"
0,43.8738588,4.854042,Nursery School De L'argelier,ChIJ1_9em6nvtRIRiLhYFk8Yntg,"[u'school', u'point_of_interest', u'establishment']"
0,43.87234,4.8217888,Groupe Vocal Arc En Ciel,ChIJTbRecyXvtRIRQFPObLsPGA4,"[u'point_of_interest', u'establishment']"
0,43.8725892,4.8216595,Expa 13,ChIJWfC_1C_vtRIRBc7aDn41ubk,"[u'accounting', u'finance', u'point_of_interest', u'establishment']"
0,43.8719142,4.82852,Daminiani Marc,ChIJaWivlDTvtRIRVwidIlEH8Wc,"[u'food', u'point_of_interest', u'establishment']"
0,43.8749873,4.8267946,Pleindoux Valérie,ChIJ1XtSeCHvtRIR4hCcAR74BmY,"[u'point_of_interest', u'establishment']"
0,43.8709993,4.8259822,Ad Primeurs,ChIJo6WgqSTvtRIRULTG6bSgPQM,"[u'food', u'point_of_interest', u'establishment']"
0,43.8710643,4.8256005,Mas De Moizelle,ChIJFWBMriTvtRIRwCoRhQmhRfY,"[u'lodging', u'point_of_interest', u'establishment']"
0,43.8776252,4.8272924,Lucchesi Courtial Andree Jeannette,ChIJjStcICHvtRIRZPHrV4asO8U,"[u'food', u'point_of_interest', u'establishment']"
0,43.877693,4.8272388,C.D.F. Constructions,ChIJA3hk3yDvtRIRWPW-8b5QObw,"[u'general_contractor', u'point_of_interest', u'establishment']"
0,43.8749016,4.8242644,Delacroix Georges,ChIJl0HJOiTvtRIRzD7m-TZWPjo,"[u'food', u'point_of_interest', u'establishment']"
0,43.8687136,4.8275931,Durey Lucien,ChIJN4157TzvtRIRUwQLoFWty8U,"[u'food', u'point_of_interest', u'establishment']"
0,43.8697741,4.8227513,Pechillon Patricia,ChIJt6S5wjrvtRIRqeHdML5_nx8,"[u'health', u'point_of_interest', u'establishment']"
0,43.8724344,4.8211761,Lambertin Eric,ChIJH9HsYyXvtRIRa8lkPUOa3RM,"[u'point_of_interest', u'establishment']"
0,43.8751657,4.8213437,Seisson Henri,ChIJW2egyCXvtRIRaZwN_69i9S0,"[u'food', u'point_of_interest', u'establishment']"
0,43.8720273,4.8199593,Lambertin Valerie Claude Maecelle,ChIJtdDsYyXvtRIREmFXpwhdRgc,"[u'point_of_interest', u'establishment']"
0,43.8796655,4.8238714,Les Jardins d'Hespérie,ChIJjStcICHvtRIRJ-8_MA77HR4,"[u'point_of_interest', u'establishment']"
0,43.9030289,4.8311698,Stax Club,ChIJpTjH8b7utRIRUFwdsZsiYpE,"[u'night_club', u'restaurant', u'food', u'point_of_interest', u'establishment']"
0,43.902448,4.844837,Nicolas Michel,ChIJMblcMIzutRIRlpYkgwq1_U4,"[u'point_of_interest', u'establishment']"
0,43.8998129,4.841459,Philippe Jack,ChIJ0TgKXI3utRIRsrQsQhNGEyc,"[u'point_of_interest', u'establishment']"
0,43.8995743,4.8419635,Veillet Raoul,ChIJMY1jXo3utRIR5bQBvXPn2b4,"[u'point_of_interest', u'establishment']"
0,43.8982094,4.8372049,Anais,ChIJB-U8sOzutRIRtb7z6-T7va8,"[u'hair_care', u'point_of_interest', u'establishment']"
0,43.9007512,4.8441584,Earl Des Comtois,ChIJRQYXOozutRIRb1Ozsso2Jps,"[u'food', u'point_of_interest', u'establishment']"
0,43.899859,4.8443302,Pascal Yves,ChIJRQYXOozutRIR3aqhIq9nc2A,"[u'insurance_agency', u'point_of_interest', u'establishment']"
0,43.8975874,4.8375104,Bouvarel Fabien,ChIJr0D_vezutRIRU8Qd3RUdOeo,"[u'point_of_interest', u'establishment']"
0,43.9027559,4.829114,Les Dortes,ChIJcWgkZ77utRIRUnx7qgkPZWE,"[u'sublocality_level_1', u'sublocality', u'political']"
0,43.8978237,4.8432434,Aubert Jean Baptistin,ChIJ8Y0ixvLutRIRyGlpBq3VBi8,"[u'point_of_interest', u'establishment']"
0,43.904413,4.839622,unnamed,ChIJSwytmZHutRIR6PHkwtajr3c,"[u'point_of_interest', u'establishment']"
0,43.898603,4.8351396,Robin Earl,ChIJdZ9_NevutRIR2rAWp3DMZP8,"[u'food', u'point_of_interest', u'establishment']"
0,43.9024519,4.8448789,Nicolas Benoit,ChIJfadoMIzutRIRBMihKHmmPoE,"[u'point_of_interest', u'establishment']"
0,43.9024519,4.8448789,Durant Pascal Christiane Renee,ChIJfadoMIzutRIRkjUOdvJbPDw,"[u'food', u'point_of_interest', u'establishment']"
0,43.8992933,4.8344135,Clamen Fils Sarl,ChIJc6490ZTutRIRVKRCGpuSB3k,"[u'grocery_or_supermarket', u'food', u'store', u'point_of_interest', u'establishment']"
0,43.8992933,4.8344135,Monteleon Antoine,ChIJc6490ZTutRIRSBIHgIacOiA,"[u'general_contractor', u'point_of_interest', u'establishment']"
0,43.8964859,4.8386046,Cestier Robert Henri Honore,ChIJb10r7-zutRIRAaZKHbqBJ44,"[u'food', u'point_of_interest', u'establishment']"
0,43.8989062,4.834535,SARL L'éclat de soleil,ChIJTb980ZTutRIR-u9SE4HFzVE,"[u'point_of_interest', u'establishment']"
0,43.899077,4.834373,SARL L'éclat De Soleil,ChIJOecn0pTutRIR8_msnkvmY-8,"[u'point_of_interest', u'establishment']"
0,43.9008028,4.832945,La Bette de Provence,ChIJ5djXDZXutRIRM-tHMxn7iwg,"[u'food', u'point_of_interest', u'establishment']"
0,43.8956219,4.8380846,Cestier Bernard,ChIJ15FMQ-zutRIRjD99fWDAaNk,"[u'food', u'point_of_interest', u'establishment']"
0,43.8956219,4.8380846,Tron Daniel,ChIJdWwwQ-zutRIRiTOOGTjjpT4,"[u'food', u'point_of_interest', u'establishment']"
0,43.8957344,4.8424301,Gaillardet Felicien,ChIJF3vtivLutRIRhS1TVFX9swQ,"[u'food', u'point_of_interest', u'establishment']"
0,43.8951221,4.8421556,Pauleau Regine Et Lionel,ChIJgRmuc_LutRIRFVcS5GlDsWs,"[u'food', u'point_of_interest', u'establishment']"
0,43.8974427,4.8332945,Etablissements Bernard Cabassole Sarl,ChIJ358b5urutRIRsr8P7yxUOGI,"[u'point_of_interest', u'establishment']"
0,43.8948268,4.8422894,Pauleau Danielle,ChIJ705uDfLutRIRsmZEykcbG0E,"[u'food', u'point_of_interest', u'establishment']"
0,43.8946658,4.8376922,HIDEZ FRANCE,ChIJUzayF-zutRIR1tYg8QrHr58,"[u'store', u'point_of_interest', u'establishment']"
0,43.8946674,4.843837,Amiet Frédéric,ChIJpZPlNvLutRIR9q3j76hsSYA,"[u'health', u'point_of_interest', u'establishment']"
0,43.894208,4.843715,Pauleau Robert Louis,ChIJefzqL_LutRIR2i307RUUUNY,"[u'food', u'point_of_interest', u'establishment']"
0,43.894208,4.843715,Pauleau Yves,ChIJbVztcvLutRIRdbrgH3JnTUI,"[u'point_of_interest', u'establishment']"
0,43.8952325,4.8331865,Saxton-Mazure Claire,ChIJgzU5OurutRIR44Jv-WH_VWM,"[u'point_of_interest', u'establishment']"
0,43.8949656,4.8335949,Eurl Provence Oliviers,ChIJTaZkMerutRIR9qBf9xDrsrA,"[u'florist', u'store', u'point_of_interest', u'establishment']"
0,43.8949656,4.8335949,Cabassole Rodolphe,ChIJTaZkMerutRIRSU5GDaa12F4,"[u'food', u'point_of_interest', u'establishment']"
0,43.893707,4.8349755,De Fontanel SCEA,ChIJudOi2uvutRIRY4rgK2khvqw,"[u'food', u'point_of_interest', u'establishment']"
0,43.9003364,4.8505712,Soft Concept,ChIJ2Q1nfIrutRIRz80x5AFIUbM,"[u'point_of_interest', u'establishment']"
0,43.904456,4.8303079,13160,ChIJF0DG6L3utRIR89ViypU8GZo,"[u'parking', u'point_of_interest', u'establishment']"
0,43.8954525,4.8306219,Valdarchi Hélène,ChIJQR7MwsHutRIRj2mCkBs_E2I,"[u'point_of_interest', u'establishment']"
0,43.8930512,4.8453108,Salerno Edith,ChIJu2caZvHutRIR4YQU6DmW8Qg,"[u'point_of_interest', u'establishment']"
0,43.8929864,4.8451894,Extension d'Ongles,ChIJHQILb_HutRIRc2GNHRKY2tY,"[u'point_of_interest', u'establishment']"
0,43.8929863,4.8451895,Lagarde Jean-Bernard,ChIJE_4Kb_HutRIRc-O2k9cwZyw,"[u'painter', u'point_of_interest', u'establishment']"
0,43.8954295,4.8499258,Genevet Robert,ChIJy9burvXutRIRKGFZ9lPpQEA,"[u'food', u'point_of_interest', u'establishment']"
0,43.8876271,4.8530397,Elo Esthetic,ChIJGRSh8lfutRIRXEWpUNeRRkI,"[u'beauty_salon', u'point_of_interest', u'establishment']"
0,43.8880785,4.8543579,NATURHOUSE,ChIJg9CGeFfutRIRrtaPvMYDGO8,"[u'health', u'point_of_interest', u'establishment']"
0,43.8879702,4.8540917,Boulangerie de Marie Blachère,ChIJVc8UhVfutRIRQt6mYdPySB0,"[u'bakery', u'restaurant', u'food', u'store', u'point_of_interest', u'establishment']"
0,43.8878567,4.8532939,Assurance AXA SARL ASSURALLIANCE,ChIJ7Xt4jVfutRIR0gNJ7_xlwAE,"[u'insurance_agency', u'bank', u'health', u'finance', u'point_of_interest', u'establishment']"
0,43.893531,4.855967,Pierre et Musique Animations,ChIJ32gftl7utRIR8BOW7VVZHNE,"[u'point_of_interest', u'establishment']"
0,43.8878806,4.854102,Ms Fruits,ChIJVc8UhVfutRIRsL2uj49Px04,"[u'grocery_or_supermarket', u'food', u'store', u'point_of_interest', u'establishment']"
0,43.8872845,4.8549083,Docks Electriques Rhône Durance DERD,ChIJF_SPCFfutRIRUENyCsdWcEk,"[u'store', u'point_of_interest', u'establishment']"
0,43.888635,4.852725,Irrifore,ChIJbfva41futRIRJUynmZFrGBU,"[u'general_contractor', u'point_of_interest', u'establishment']"
0,43.888636,4.852237,ARMAR AUTO,ChIJz1mSXfbutRIRroB53I7Z6Kc,"[u'car_repair', u'point_of_interest', u'establishment']"
0,43.8922238,4.8556683,BL E-COM - Huile d'Argan,ChIJ9ylfwVjutRIRqQ7Vc2zB5b4,"[u'clothing_store', u'store', u'point_of_interest', u'establishment']"
0,43.887655,4.853864,agence immobiliere,ChIJ26LekFfutRIRhOjgWDG_nqE,"[u'real_estate_agency', u'point_of_interest', u'establishment']"
0,43.8922238,4.8556683,BL E-COM - Ginseng,ChIJ9ylfwVjutRIRrUq-KDAXQGw,"[u'health', u'food', u'store', u'point_of_interest', u'establishment']"
0,43.8887703,4.8533554,Pomona,ChIJcfVXH1jutRIRL3qGWR7oVrc,"[u'point_of_interest', u'establishment']"
0,43.888254,4.852673,McDonald's,ChIJdfra41futRIR1CUBtlwzDGs,"[u'restaurant', u'food', u'point_of_interest', u'establishment']"
0,43.8879372,4.852159,Dubois Céline,ChIJKXEGifbutRIRbho1WsI85aM,"[u'point_of_interest', u'establishment']"
0,43.8962835,4.8544578,Sokoloff Environnement,ChIJ05AdoV_utRIR8TsEfXdCC_M,"[u'general_contractor', u'point_of_interest', u'establishment']"
0,43.887648,4.852542,Casadei Fabien,ChIJ5eL15FfutRIRdrWllr-7yqU,"[u'store', u'point_of_interest', u'establishment']"
0,43.8879422,4.8531398,BC Pommes De Terre,ChIJW01x8lfutRIRSV2o_M5tTP8,"[u'point_of_interest', u'establishment']"
0,43.892603,4.824294,La Maison du Bon Café - Boutique de Châteaurenard,ChIJobgp1NzutRIRCZy8VNl6mvI,"[u'food', u'store', u'point_of_interest', u'establishment']"
0,43.893222,4.821109,Discothèque La STATION,ChIJVTfdY8_utRIRlHO9wKNsw7U,"[u'night_club', u'point_of_interest', u'establishment']"
0,43.8915737,4.8268068,Citinnov,ChIJobgp1NzutRIR9s_2CURVZR8,"[u'point_of_interest', u'establishment']"
0,43.8932285,4.824535,Mister Bonbon,ChIJobgp1NzutRIRC3BlyWJrF6c,"[u'food', u'store', u'point_of_interest', u'establishment']"
0,43.8940685,4.8265013,JM Alex,ChIJ5RTl-8PutRIRN6uqCuUTWrU,"[u'store', u'point_of_interest', u'establishment']"
0,43.893114,4.824575,Ax'eau,ChIJobgp1NzutRIRqmSNQs7FHGA,"[u'health', u'point_of_interest', u'establishment']"
0,43.8926255,4.8233736,Baccauto Sarl,ChIJ5RTl-8PutRIRWJi1olt6jU0,"[u'car_repair', u'store', u'point_of_interest', u'establishment']"
0,43.892104,4.820214,San Rémo,ChIJy6TonM_utRIRyMr3k3abM2s,"[u'sublocality_level_1', u'sublocality', u'political']"
0,43.892794,4.824828,AXIS 3D,ChIJuXucQsTutRIRrR4GZxVdqXQ,"[u'point_of_interest', u'establishment']"
0,43.892778,4.823611,Autocite - Citroën,ChIJaQrv7_jutRIRI5sBwqmBHZc,"[u'car_repair', u'point_of_interest', u'establishment']"
0,43.8951548,4.820182,Carrelages Rive Gauche,ChIJS7ZssMjutRIRRj-DSLVoY6Y,"[u'hardware_store', u'home_goods_store', u'store', u'point_of_interest', u'establishment']"
0,43.895633,4.819949,Magasin Bio AVICENNE,ChIJfUPvrcjutRIRqv7XJdAKS-o,"[u'grocery_or_supermarket', u'food', u'store', u'point_of_interest', u'establishment']"
0,43.8917745,4.8299702,JMT,ChIJ1WU89cLutRIR0Shy-WGeveQ,"[u'general_contractor', u'point_of_interest', u'establishment']"
0,43.8917745,4.8299702,Requin Michel,ChIJ1WU89cLutRIR-YPzRztI6Rw,"[u'point_of_interest', u'establishment']"
0,43.891501,4.8293671,Chato Controle des Tours,ChIJW2p3-sLutRIR5pfDJ5id-NE,"[u'point_of_interest', u'establishment']"
0,43.8915705,4.8329754,Lou Jardin de Panisse - Vente directe,ChIJ3WJ6TOjutRIRRk94SBjBNek,"[u'food', u'store', u'point_of_interest', u'establishment']"
0,43.8915705,4.8329754,Mouret Gilbert,ChIJkZ4aROjutRIRuaPmzQB9b8g,"[u'food', u'point_of_interest', u'establishment']"
0,43.8895721,4.8317521,La Compagnie Fruitière,ChIJobgp1NzutRIRGgdXVUPH-QY,"[u'point_of_interest', u'establishment']"
0,43.8904546,4.8336045,Aquilina Gaillardet Rose-Marie,ChIJCzeQmOjutRIR1PgOh_hpDhc,"[u'point_of_interest', u'establishment']"
0,43.891101,4.8274787,B Et G Provence,ChIJAWLAFMPutRIRWobs6AZOEbk,"[u'grocery_or_supermarket', u'real_estate_agency', u'food', u'store', u'point_of_interest', u'establishment']"
0,43.891101,4.8274787,Immobiliere Du Pradet,ChIJAWLAFMPutRIRyfr7JlVaCX0,"[u'real_estate_agency', u'point_of_interest', u'establishment']"
0,43.891101,4.8274787,Immobla Oyonnax,ChIJAWLAFMPutRIRWBkSRMrkVDI,"[u'real_estate_agency', u'grocery_or_supermarket', u'food', u'store', u'point_of_interest', u'establishment']"
0,43.890911,4.8274955,Tom'isol,ChIJKV93efjrtRIRhbzDYx6wjt8,"[u'point_of_interest', u'establishment']"
0,43.890911,4.8274955,Vivarais Emballages,ChIJOX_NFMPutRIR2GOwj0tDe2o,"[u'point_of_interest', u'establishment']"
0,43.889557,4.828523,Etni,ChIJdSTN1NzutRIRvLf80l_-iZk,"[u'electrician', u'point_of_interest', u'establishment']"
0,43.8901475,4.8340087,Legrand Yoan,ChIJ9y6q_-XutRIRqw8w_x0E1jY,"[u'car_repair', u'point_of_interest', u'establishment']"
0,43.8906211,4.8274275,La Maison de Marie,ChIJ8aqDQMPutRIRZxodIsOWBIo,"[u'point_of_interest', u'establishment']"
0,43.885858,4.8694325,Hôtel Akena City,ChIJX5HGB0nutRIRX5w091GtAxY,"[u'lodging', u'point_of_interest', u'establishment']"
0,43.8856809,4.8676031,School Aesthetic Health Neroli,ChIJ341s7rTvtRIRM2xuRJYwV3E,"[u'hair_care', u'spa', u'health', u'point_of_interest', u'establishment']"
0,43.8823654,4.8667318,Stades Sports,ChIJz9c-H0zutRIRSWnNx9AgPkI,"[u'point_of_interest', u'establishment']"
0,43.884444,4.864843,Autard Roger et Bouchet Lambert Martine,ChIJSU6NYE7utRIR_eFDZwSqnBU,"[u'finance', u'point_of_interest', u'establishment']"
0,43.883828,4.8648675,Ambulances Delta,ChIJpb3HSU7utRIRCTMUde-ozNE,"[u'health', u'point_of_interest', u'establishment']"
0,43.88814,4.863766,Mas de l'Echanson,ChIJAUtJYEXutRIRdi1Wm_wJ4Ro,"[u'restaurant', u'bar', u'food', u'point_of_interest', u'establishment']"
0,43.8807137,4.8628479,Chausson Matériaux Chateaurenard,ChIJxWYhZE3utRIR2E7gl4BQuXA,"[u'store', u'point_of_interest', u'establishment']"
0,43.8862243,4.8626546,LIDL,ChIJ2WdLKVDutRIR01XohsdE9wQ,"[u'grocery_or_supermarket', u'food', u'store', u'point_of_interest', u'establishment']"
0,43.8829222,4.8664518,Secondary School Education,ChIJz9c-H0zutRIRMMNIInY8LtA,"[u'school', u'point_of_interest', u'establishment']"
0,43.8861789,4.856751,Marché d'Intérêt National de Châteaurenard,ChIJd_RMLlfutRIRP0H6yhDs3kw,"[u'point_of_interest', u'establishment']"
0,43.8847003,4.864618,SOLIBEL,ChIJI-bDzVHutRIRjaR607nLqIc,"[u'general_contractor', u'point_of_interest', u'establishment']"
0,43.8827834,4.8641743,Le Mas des Beaumes,ChIJ_RGiwk3utRIR9ZiyREqRWmM,"[u'lodging', u'point_of_interest', u'establishment']"
0,43.8859661,4.8610615,Acel Onisflor,ChIJywR9NVDutRIRo7uNFTb7olk,"[u'store', u'point_of_interest', u'establishment']"
0,43.8836848,4.8224921,Reynier Jean-Louis,ChIJj9iUEN7utRIRtLmHspfmJdA,"[u'food', u'point_of_interest', u'establishment']"
0,43.8838586,4.8235046,Sci Du Barret Veronique,ChIJccHvn9nutRIRhkUwmg_aBmQ,"[u'point_of_interest', u'establishment']"
0,43.898503,4.803017,Rognonas,ChIJVwR1hDbptRIR0GPhnwenCk4,"[u'locality', u'political']"
0,43.8842715,4.8214625,Earl A B D G Aline,ChIJn5Wp5dnutRIRUeJ2-qu_6h8,"[u'food', u'point_of_interest', u'establishment']"
0,43.8845692,4.8186761,Co-exploitation Cartagena-teissier,ChIJ66Gv19butRIRgLbukLotJoE,"[u'food', u'point_of_interest', u'establishment']"
0,43.884676,4.8182452,Delaye Chantal,ChIJ66Gv19butRIRkvtHjtOTYhM,"[u'point_of_interest', u'establishment']"
0,43.8802569,4.8181534,Dupoux Bonnelly Cecile,ChIJha1D1CnvtRIROY5QkW--nQk,"[u'point_of_interest', u'establishment']"
0,43.8855087,4.8182654,Tron,ChIJc_vHQ9HutRIRzPg0EI7bVmk,"[u'food', u'point_of_interest', u'establishment']"
0,43.8785119,4.817264,Dupoux Marius Francois,ChIJpTmwoSnvtRIRMRB7397tOJA,"[u'food', u'point_of_interest', u'establishment']"
0,43.8783155,4.817295,Cuau Stephane,ChIJZziwoSnvtRIRaFaPd1tcWVc,"[u'point_of_interest', u'establishment']"
0,43.888376,4.826225,Moron Luc,ChIJ7fBWX9vutRIRD5DVyYvdmF0,"[u'painter', u'point_of_interest', u'establishment']"
0,43.8845229,4.8130724,Brousson Croze Marcelle,ChIJkf1citTutRIRhVcGPlQourw,"[u'point_of_interest', u'establishment']"
0,43.8845229,4.8130724,Fargier,ChIJkf1citTutRIRALKc7B1stCY,"[u'food', u'point_of_interest', u'establishment']"
0,43.8764134,4.8178557,Bonnafoux Roland,ChIJ3-4OJSnvtRIRQgnweNISNes,"[u'food', u'point_of_interest', u'establishment']"
0,43.889117,4.825755,Meynaud Maurice,ChIJw0-jUNvutRIRayaH4adMUPo,"[u'point_of_interest', u'establishment']"
0,43.8781454,4.8138625,Dupoux Benoit,ChIJzZZosivvtRIRn_Yyh9tVSCg,"[u'grocery_or_supermarket', u'food', u'store', u'point_of_interest', u'establishment']"
0,43.880406,4.81177,Villemur Georges,ChIJmVcloirvtRIR_9IxZ94Vja0,"[u'point_of_interest', u'establishment']"
0,43.889196,4.82697,unnamed...Provence Vivarais,ChIJIVABsdzutRIRRLklOZF_6bc,"[u'point_of_interest', u'establishment']"
0,43.8631079,4.8549874,Aprin Mickael Yannick,ChIJZVGPG6HvtRIRSoTVFYXMsvE,"[u'finance', u'point_of_interest', u'establishment']"
0,43.8599477,4.8508632,Bois Thierry,ChIJ0_5NtwrvtRIRqQ0h3xf1dzQ,"[u'plumber', u'point_of_interest', u'establishment']"
0,43.869804,4.851615,Procureur Thibault,ChIJofalhRLvtRIRoxseLupNmjM,"[u'food', u'point_of_interest', u'establishment']"
0,43.8705393,4.8536865,Abate William,ChIJe8tPaqjvtRIRwzr4TLNkH34,"[u'general_contractor', u'point_of_interest', u'establishment']"
0,43.8701472,4.854922,Portes Michel,ChIJTTE0vKjvtRIR5WBbWV4Xv5U,"[u'plumber', u'point_of_interest', u'establishment']"
0,43.8709932,4.8532725,Levanteri Francisco Gabriel,ChIJsb3waKjvtRIRVj5VsP05SB0,"[u'painter', u'point_of_interest', u'establishment']"
0,43.856644,4.8496976,Riousset Mistral Jany Rita Augusta,ChIJnTZGtHXvtRIRtrRP4_xL7js,"[u'lodging', u'food', u'point_of_interest', u'establishment']"
0,43.8699372,4.8581446,Avril Post Beatrice Marie Helene,ChIJ76OURK_vtRIRMPcJMi4lupQ,"[u'point_of_interest', u'establishment']"
0,43.8698099,4.8583028,Culetto Hannapel Magali,ChIJQZRMvaXvtRIRsKSQHkMSgA8,"[u'beauty_salon', u'point_of_interest', u'establishment']"
0,43.8559246,4.8529549,Ouna Ali,ChIJbWIwRZ7vtRIRuJKusR-pKq8,"[u'food', u'point_of_interest', u'establishment']"
0,43.8629782,4.8269306,Alpilles Techni-Services,ChIJW6zoJD_vtRIRQaiU3anIm8w,"[u'point_of_interest', u'establishment']"
0,43.8615954,4.8259587,Art et beauté de l'ongle,ChIJd_lOtzjvtRIRaMpPBVWq5Ws,"[u'point_of_interest', u'establishment']"
0,43.8652465,4.8221394,Copiatti Herve,ChIJ-7ORkznvtRIRByb9sE6uUQU,"[u'food', u'point_of_interest', u'establishment']"
0,43.8677304,4.8222599,Frattesi Vendran Daniele,ChIJO1XFTTrvtRIRr_ewBmH0ZoY,"[u'food', u'point_of_interest', u'establishment']"
0,43.8571686,4.82963,Mistral Christiane,ChIJ-2mNlkHvtRIRZ4zgW7TTOqU,"[u'point_of_interest', u'establishment']"
0,43.8571455,4.8295987,Provencio Marc,ChIJ2znplkHvtRIRg_7YGL8XuwU,"[u'general_contractor', u'point_of_interest', u'establishment']"
0,43.859617,4.8230332,Philip Sandrine,ChIJoyjJpEfvtRIR0r19QDNteE4,"[u'point_of_interest', u'establishment']"
0,43.8661171,4.8202812,Ginoux Monique,ChIJb6evsjDvtRIROI93q1AUnhw,"[u'point_of_interest', u'establishment']"
0,43.8661165,4.8200152,Ginoux David Gerard,ChIJQ96YtDDvtRIR9MIHr_hQmxk,"[u'food', u'point_of_interest', u'establishment']"
0,43.8685503,4.820898,Les Boissonnades,ChIJm2DzhjDvtRIRaldsVOwJGhI,"[u'food', u'point_of_interest', u'establishment']"
0,43.8580528,4.8226493,Nicolas Francis,ChIJIaD3REbvtRIR7JxVXjxRr2I,"[u'food', u'point_of_interest', u'establishment']"
0,43.8770599,4.8635482,"Les Romarins, Location de vacances, villa indépendante avec piscine et jardin privés",ChIJlVCeTU3utRIRXsFQWs-tzXc,"[u'lodging', u'point_of_interest', u'establishment']"
0,43.8744578,4.8643231,Larive Bruno,ChIJq_WvOrLvtRIRMFWXG12VocQ,"[u'point_of_interest', u'establishment']"
0,43.8744578,4.8643231,LDA Construction,ChIJc_SvOrLvtRIRxstHGFzTn0k,"[u'general_contractor', u'point_of_interest', u'establishment']"
0,43.878804,4.858971,Roux Vlasta,ChIJZaA-M1PutRIREMbBNlXZWps,"[u'point_of_interest', u'establishment']"
0,43.8787584,4.8632671,Sporting Club Chateaurenardais,ChIJlVCeTU3utRIRh03YY3GAz_I,"[u'point_of_interest', u'establishment']"
0,43.8741236,4.8686581,Location maison sud provence,ChIJo6q9b7TvtRIRizv72vk5pKE,"[u'travel_agency', u'real_estate_agency', u'point_of_interest', u'establishment']"
0,43.8809609,4.8609694,Maleo Web & Print,ChIJJSxC9VLutRIRXCLnKN2EtTI,"[u'point_of_interest', u'establishment']"
0,43.879768,4.86479,La Noria,ChIJH4F9H03utRIRYxyOubtEADs,"[u'food', u'point_of_interest', u'establishment']"
0,43.8816953,4.8552826,Tapissier Nasratiar,ChIJKbCCUFTutRIRwv-a1svLycA,"[u'furniture_store', u'home_goods_store', u'store', u'point_of_interest', u'establishment']"
0,43.8819168,4.8597902,Mister Bonbon,ChIJg4ijTFLutRIR8ZOXjbJmCNk,"[u'food', u'store', u'point_of_interest', u'establishment']"
0,43.882005,4.855684,Centre contrôle technique Norisko Auto,ChIJfWRfXkTutRIRZILzY0fcq4k,"[u'car_repair', u'point_of_interest', u'establishment']"
0,43.88196,4.85535,Bleu Vert,ChIJW4toRVTutRIRbHJCN24H4Vc,"[u'store', u'point_of_interest', u'establishment']"
0,43.881959,4.855349,Serres et Pilaire Châteaurenard,ChIJW4toRVTutRIRDQPdDnhOCgg,"[u'moving_company', u'point_of_interest', u'establishment']"
0,43.88196,4.85535,Jullian Roland,ChIJW4toRVTutRIRnSvQhGpiiH8,"[u'point_of_interest', u'establishment']"
0,43.881959,4.855349,Les Vergers des Tours,ChIJW4toRVTutRIRbBeGV-zUnUw,"[u'grocery_or_supermarket', u'food', u'store', u'point_of_interest', u'establishment']"
0,43.882006,4.855685,www.bellcosmetics.fr,ChIJtRV2Q1TutRIR9oODSiW2i1w,"[u'store', u'point_of_interest', u'establishment']"
0,43.871591,4.8175148,C.l.c,ChIJWfC_1C_vtRIRuaOxjzGHDgQ,"[u'point_of_interest', u'establishment']"
0,43.8731428,4.8189737,Bellaton Isabelle,ChIJZ0P4qC_vtRIRAIz-jbN0oyI,"[u'point_of_interest', u'establishment']"
0,43.871591,4.8175148,Sarrazin Alain,ChIJp_C_1C_vtRIRHV7i1aBf0F4,"[u'accounting', u'finance', u'point_of_interest', u'establishment']"
0,43.8725414,4.8165999,Earl de Raam,ChIJJ-OIbi7vtRIRY0bw-Ouf5C4,"[u'food', u'point_of_interest', u'establishment']"
0,43.870445,4.8166732,Dubreuil Michel Joseph,ChIJA2Dt5THvtRIRr_q5bT-W3wA,"[u'point_of_interest', u'establishment']"
0,43.8684757,4.8190551,Sci la Villa,ChIJIS_w9zDvtRIRNpmujwfRHdM,"[u'point_of_interest', u'establishment']"
0,43.8681968,4.819251,Michel Daniel,ChIJaWivlDTvtRIRbjira-foxaU,"[u'food', u'point_of_interest', u'establishment']"
0,43.8681968,4.819251,Debout Musichini Jeannette Cecile,ChIJaWivlDTvtRIRSJxsSThACgA,"[u'point_of_interest', u'establishment']"
0,43.8681243,4.8189767,Earl les Cannillades,ChIJaWivlDTvtRIRJKOnmplTlXk,"[u'food', u'point_of_interest', u'establishment']"
0,43.8696291,4.815794,Gaec Vignaud,ChIJv1OO7zHvtRIR_N1_DfxAA8o,"[u'food', u'point_of_interest', u'establishment']"
0,43.8696191,4.8143117,Earl les Gazagnes,ChIJ4ZEWQTLvtRIRXd0YurRFA4I,"[u'food', u'point_of_interest', u'establishment']"
0,43.8696191,4.8143117,Laurens Louis,ChIJ4ZEWQTLvtRIRklK1K0ipTV0,"[u'point_of_interest', u'establishment']"
0,43.8697397,4.8140578,Audrin Philippe,ChIJqXQDPjLvtRIRzxoBybq555k,"[u'point_of_interest', u'establishment']"
0,43.8731,4.81151,Earl Mas Saint Joseph,ChIJgTGamy3vtRIR6TeEFmtJUMI,"[u'point_of_interest', u'establishment']"
0,43.8731,4.81151,Chauvet Amaury Sylvain Herve,ChIJPzicLC3vtRIRIO2AAwCAlb8,"[u'food', u'point_of_interest', u'establishment']"
0,43.8656808,4.8186616,CapSudMedia,ChIJ3_3QKDfvtRIRuGPb8jGs5A8,"[u'point_of_interest', u'establishment']"
0,43.949317,4.805528,Avignon,ChIJB528OYfrtRIRNnsd-m6bQuY,"[u'locality', u'political']"
0,43.9158344,4.8467339,Earl Rippert Et Fils,ChIJTQJOJ4LutRIR0EPZPlgczK4,"[u'food', u'point_of_interest', u'establishment']"
0,43.8998046,4.8611513,Equi-Trot,ChIJh07ktWfutRIRGD-gdVjXGTk,"[u'point_of_interest', u'establishment']"
0,43.8958099,4.8536754,3A Production,ChIJ05AdoV_utRIRuH0nfzM_fFA,"[u'food', u'point_of_interest', u'establishment']"
0,43.8948054,4.8514337,Bertrand Jean-Joseph,ChIJjX5ukvXutRIRzefIyKV2EjI,"[u'food', u'point_of_interest', u'establishment']"
0,43.8945997,4.8511768,Vezzani Patrick,ChIJY2g4k_XutRIRtlV7JKIKfrk,"[u'point_of_interest', u'establishment']"
0,43.8941501,4.8540838,Genevet Andre,ChIJa72pPF_utRIRRE6DpSMian4,"[u'point_of_interest', u'establishment']"
0,43.8928723,4.8498325,Corpotherapie Institut,ChIJl9lae_butRIRDAGzJCM8csk,"[u'gym', u'health', u'point_of_interest', u'establishment']"
0,43.8927046,4.8491605,Indivision Fabre Clement Et Juliette,ChIJdXEqifbutRIRl2iD1XIs7UY,"[u'point_of_interest', u'establishment']"
0,43.8999528,4.8599585,Association Equi-trot,ChIJdcdaqmfutRIR3Dq2eT5G3o0,"[u'point_of_interest', u'establishment']"
0,43.8931212,4.8540905,Seisson Jean Pierre,ChIJ03G70ljutRIRBRHazfq60ns,"[u'food', u'point_of_interest', u'establishment']"
0,43.892185,4.8498869,L'Ain Provence,ChIJz1mSXfbutRIRYvONUesM294,"[u'grocery_or_supermarket', u'food', u'store', u'point_of_interest', u'establishment']"
0,43.892185,4.8498869,Auto Nickel,ChIJz1mSXfbutRIR__PDNxkGcbk,"[u'point_of_interest', u'establishment']"
0,43.892185,4.8498869,Societe Exploit Ets Claude Janvier,ChIJz1mSXfbutRIR4owy9XoifW0,"[u'food', u'store', u'point_of_interest', u'establishment']"
0,43.892185,4.8498869,Fruitiere de Provence,ChIJz1mSXfbutRIRGYyB0krMOjA,"[u'grocery_or_supermarket', u'food', u'store', u'point_of_interest', u'establishment']"
0,43.892185,4.8498869,Aubert Michel Lucien,ChIJz1mSXfbutRIRApVtpHe_yh0,"[u'food', u'point_of_interest', u'establishment']"
0,43.8951469,4.8584684,Odezenne Jean-Marc,ChIJy9nFRFzutRIRoctGdNiA5qQ,"[u'food', u'point_of_interest', u'establishment']"
0,43.8979576,4.8605157,Baptiste Paul,ChIJPaUUhmfutRIRzjrGO7-TqS8,"[u'store', u'point_of_interest', u'establishment']"
0,43.9024788,4.8276996,Atouservice,ChIJ30cu7r7utRIR_RgbPQ54zsY,"[u'point_of_interest', u'establishment']"
0,43.9050546,4.8286499,Le Mas De La Digue,ChIJO9BTtb3utRIRk7NwG1P1aIw,"[u'lodging', u'point_of_interest', u'establishment']"
0,43.9071051,4.8238867,Le Yody,ChIJsQVhG7vutRIRVjKC5CK7OjI,"[u'point_of_interest', u'establishment']"
0,43.900321,4.8268301,Alonso Carmen,ChIJfU0XPr_utRIRHLT6lBoncCs,"[u'health', u'point_of_interest', u'establishment']"
0,43.9022193,4.8271312,Chembon Olivier Rene Desire,ChIJM-VRw77utRIRCZMpmOfvo2g,"[u'point_of_interest', u'establishment']"
0,43.9047076,4.8272974,Benamar Hamid,ChIJXylcFrzutRIRltloRMvgUSM,"[u'point_of_interest', u'establishment']"
0,43.8971469,4.8250551,Monteleon Pierre-Guy Sebastien,ChIJ8QD6I8futRIRBZyhQL72npY,"[u'store', u'point_of_interest', u'establishment']"
0,43.9054831,4.8255311,Nouguier Nais,ChIJA-YFjrvutRIRy3dKgzV8kj8,"[u'point_of_interest', u'establishment']"
0,43.9059687,4.8251877,Day Care Center Les Péquelets,ChIJi5zZm7vutRIR8Hlr5_em3qY,"[u'point_of_interest', u'establishment']"
0,43.9055823,4.8240904,Chardes Christophe Antoine Dominique,ChIJM5fDsLvutRIR2BqhTMp6ifk,"[u'point_of_interest', u'establishment']"
0,43.8940685,4.8265013,Lambert Francis,ChIJ5RTl-8PutRIRL_YOeyDyBxY,"[u'food', u'point_of_interest', u'establishment']"
0,43.8941174,4.8251476,Confines,ChIJxcJbGcTutRIRBVuG-8pXC4s,"[u'food', u'point_of_interest', u'establishment']"
0,43.8940525,4.8250626,Brun Philippe,ChIJGZw5GcTutRIRgcppqCSOgCA,"[u'point_of_interest', u'establishment']"
0,43.9054054,4.8220941,Fontaine Pauleau Jacqueline Petronill,ChIJXYk5QTbutRIR5w5jZ64H8dc,"[u'food', u'point_of_interest', u'establishment']"
0,43.8943336,4.8227733,Douard Didier,ChIJI1OY2cXutRIRdPHFPFT2QLU,"[u'real_estate_agency', u'point_of_interest', u'establishment']"
0,43.8879436,4.8570283,Ecoloc,ChIJMZ03UlfutRIRE0WBHw3mzTI,"[u'car_rental', u'point_of_interest', u'establishment']"
0,43.8877524,4.8637284,Eusa Colors Sarl,ChIJAUtJYEXutRIRIRH3akrfDn0,"[u'point_of_interest', u'establishment']"
0,43.8857652,4.8565149,Laboratoire Agricole Roussiere-Bec Selarl,ChIJW4toRVTutRIRlAEX48DAkEA,"[u'point_of_interest', u'establishment']"
0,43.8852845,4.8579718,La Fromenterie L'Arton,ChIJifGKOlHutRIRUJNqJ-z2438,"[u'bakery', u'food', u'store', u'point_of_interest', u'establishment']"
0,43.8872705,4.8592249,Les Maraichers du Midi,ChIJ3YSw8lDutRIR70cSJ4oxQC0,"[u'grocery_or_supermarket', u'food', u'store', u'point_of_interest', u'establishment']"
0,43.8950393,4.8631811,Terre Et Compost,ChIJ4WzC3kPutRIRpUZG3zcYWWE,"[u'store', u'point_of_interest', u'establishment']"
0,43.8870949,4.8600964,CAPL Gamm Vert,ChIJR5dCQ1zutRIRAjpNuUd0VPc,"[u'point_of_interest', u'establishment']"
0,43.8863599,4.8605235,Fabre,ChIJuWbzT1DutRIRhEVxoRnX7Xg,"[u'car_repair', u'point_of_interest', u'establishment']"
0,43.890712,4.864567,Atrium,ChIJ37n5-0TutRIRti3AzBbDT0Q,"[u'point_of_interest', u'establishment']"
0,43.8881296,4.8568366,SUD-RENT Châteaurenard,ChIJMZ03UlfutRIRLQD_BhoyLJY,"[u'car_rental', u'point_of_interest', u'establishment']"
0,43.8914185,4.8653825,Philippe Rey SA,ChIJfWRfXkTutRIR6gmqn8CfGJ0,"[u'moving_company', u'point_of_interest', u'establishment']"
0,43.887415,4.8591947,Canavese SA,ChIJVc8UhVfutRIRZ_d3TMjDPcc,"[u'grocery_or_supermarket', u'food', u'store', u'point_of_interest', u'establishment']"
0,43.8922238,4.8556683,Boutiques En Ligne-com,ChIJSVKjPlnutRIRRI9p0ol4mSs,"[u'point_of_interest', u'establishment']"
0,43.888123,4.8570967,Garage Vidal,ChIJPYhlrVDutRIRr6THa8yonv8,"[u'car_repair', u'point_of_interest', u'establishment']"
0,43.8882231,4.8544255,Inter Caves,ChIJedqGeFfutRIRxS3ZWhETDFc,"[u'liquor_store', u'food', u'store', u'point_of_interest', u'establishment']"
0,43.887881,4.854102,Le Bistrot du Marché,ChIJVc8UhVfutRIRwnRAakOI3rY,"[u'bar', u'restaurant', u'food', u'point_of_interest', u'establishment']"
0,43.8878806,4.854102,Sodiscom Produits Frais,ChIJVc8UhVfutRIRmVEa8Vn7560,"[u'grocery_or_supermarket', u'food', u'store', u'point_of_interest', u'establishment']"
0,43.887082,4.859953,Jardinerie Gamm vert Chateaurenard,ChIJZUxuYFDutRIRqzIjSqWUMVk,"[u'park', u'store', u'point_of_interest', u'establishment']"
0,43.8853199,4.8617895,"JLA TRAITEUR Orgnisateur d'évènements, entre Avignon et Saint Remy de Provence",ChIJ2xLI0VHutRIR0WqJ0vx3sxo,"[u'food', u'point_of_interest', u'establishment']"
0,43.890712,4.864567,Imprimeries IPS,ChIJG6F4_ETutRIRSB1eAbS4-YI,"[u'point_of_interest', u'establishment']"
0,43.887731,4.8533766,Assuralliance,ChIJQ-ktk1futRIRbb4Pw8mPUtc,"[u'point_of_interest', u'establishment']"
0,43.893258,4.865596,EDMS Jean-Lou Salez,ChIJfWRfXkTutRIRbD38pf48PT4,"[u'car_repair', u'store', u'point_of_interest', u'establishment']"
0,43.8848083,4.8587608,Eurorepar Garage William Paris,ChIJAatmFlHutRIRjvWpE5z9V6Y,"[u'car_repair', u'point_of_interest', u'establishment']"
0,43.8854079,4.8590364,Gilles Devillers Expertises,ChIJCdcmlFbutRIRKfq8PlLsVXE,"[u'point_of_interest', u'establishment']"
0,43.8956526,4.8191279,Canet Levage,ChIJa5xvw8jutRIRnF1Y2Iv7n-c,"[u'point_of_interest', u'establishment']"
0,43.8924479,4.8114352,Mas Saint Antoine,ChIJCwDzJs3utRIRtMx-_gk9AJQ,"[u'lodging', u'point_of_interest', u'establishment']"
0,43.8992334,4.8182287,FOSELEV RHONE DURANCE - Châteaurenard,ChIJa5xvw8jutRIRxEGAt9M82f0,"[u'general_contractor', u'point_of_interest', u'establishment']"
0,43.898696,4.81626,Motorenard,ChIJg8fU88nutRIRHd4KFSTgvxU,"[u'store', u'point_of_interest', u'establishment']"
0,43.8977518,4.8146618,Lomabat,ChIJdcrRUTbptRIRGYE1xWpvCzc,"[u'point_of_interest', u'establishment']"
0,43.898967,4.816568,TLS 2R2N Tout Le Spectacle,ChIJda7hF8rutRIRXk8_juoc9SI,"[u'point_of_interest', u'establishment']"
0,43.89847,4.81506,Dirickx Espace Clôture Avignon,ChIJda7hF8rutRIRT6kQ7VjgTV8,"[u'general_contractor', u'point_of_interest', u'establishment']"
0,43.8994067,4.8170785,GROUPE MAEVA CARRELAGE,ChIJrR3QT8zutRIRy71sAwDFWaw,"[u'home_goods_store', u'store', u'point_of_interest', u'establishment']"
0,43.898472,4.815057,Delta Distribution,ChIJO1bgF8rutRIRVF_WfPeJtpc,"[u'point_of_interest', u'establishment']"
0,43.891976,4.8239638,Carrosserie Teston Serge,ChIJW4toRVTutRIRCcwuwCRf1B0,"[u'car_repair', u'point_of_interest', u'establishment']"
0,43.8918928,4.8172696,Concession Tupperware Provence,ChIJYWjdXM7utRIRgyVHrh1CQMc,"[u'store', u'point_of_interest', u'establishment']"
0,43.8918928,4.8172696,Le Mas des Chèvres,ChIJYWjdXM7utRIRc-VFJfJcqpM,"[u'food', u'point_of_interest', u'establishment']"
0,43.8913204,4.8266693,Prométhée Conseil,ChIJc70-0STstRIRmnlq84tLHTk,"[u'point_of_interest', u'establishment']"
0,43.8935163,4.8180426,Assaud Jean Louis Francis,ChIJd5Tu4M7utRIRSsECMj9GDLw,"[u'point_of_interest', u'establishment']"
0,43.8949157,4.8203907,Bonnaud David,ChIJb9HprcjutRIRdYGvQOlHCXo,"[u'car_repair', u'point_of_interest', u'establishment']"
0,43.891699,4.827075,VSU,ChIJgZtSccPutRIRKQ5OK79zfWE,"[u'point_of_interest', u'establishment']"
0,43.8952536,4.8200673,Lebre Maxime,ChIJww6isMjutRIRTL6PN5bu-b8,"[u'point_of_interest', u'establishment']"
0,43.8952536,4.8200673,Creations Metalliques GSG,ChIJww6isMjutRIRZWWvbb84kpw,"[u'locksmith', u'point_of_interest', u'establishment']"
0,43.8906211,4.8274275,F L Discount,ChIJ8aqDQMPutRIRGrBy6_kUuIY,"[u'food', u'point_of_interest', u'establishment']"
0,43.8906211,4.8274275,Bladis,ChIJ8aqDQMPutRIRfmLqT2Py5m4,"[u'point_of_interest', u'establishment']"
0,43.8840389,4.8698842,Camping La Roquette,ChIJSenCcUnutRIRGnL9Ehi2LQs,"[u'campground', u'park', u'lodging', u'point_of_interest', u'establishment']"
0,43.8857557,4.8682736,Dr Olivier Henry-Savajol - Chirurgien-dentiste,ChIJ5ZNQL1TutRIRTsNtJFTboYg,"[u'dentist', u'health', u'point_of_interest', u'establishment']"
0,43.885116,4.868773,Pointdev,ChIJ341s7rTvtRIR7xV31Lj5SZY,"[u'point_of_interest', u'establishment']"
0,43.877232,4.902065,Noves,ChIJq6xTMzzwtRIRcAGX_aUZCAQ,"[u'locality', u'political']"
0,43.8835215,4.867294,BBA Emballages Chateaurenard,ChIJ_Y3Mqk7utRIR2t8TzAIB204,"[u'store', u'point_of_interest', u'establishment']"
0,43.885181,4.869432,"Alazard Traiteur - Salle de Réception ""La Noria""",ChIJSZGFHEnutRIRYVBEymSoPlg,"[u'food', u'point_of_interest', u'establishment']"
0,43.8848832,4.8643852,MMA Chateaurenard Parc Des Baumes,ChIJX72cVk7utRIRvrZ8auiNVB0,"[u'insurance_agency', u'point_of_interest', u'establishment']"
0,43.885142,4.86881,Ag-log,ChIJrbycJknutRIRAHbZEQUnQ68,"[u'point_of_interest', u'establishment']"
0,43.8863241,4.8644323,Becherini Sandrine - A FLEUR DE SOI,ChIJFZxlmk_utRIR1_oqPB8og2M,"[u'spa', u'health', u'point_of_interest', u'establishment']"
0,43.885116,4.868773,Alp'Ages Coordination,ChIJq4IdJknutRIRTALhIw0uA3k,"[u'point_of_interest', u'establishment']"
0,43.884686,4.864765,Aide et Conseil en Gestion Chateaurenard (ACGC),ChIJPyq8Xk7utRIRBWO7VN82kAs,"[u'accounting', u'finance', u'point_of_interest', u'establishment']"
0,43.884083,4.860291,ASSAUVEN Association pour la Sauvegarde de l'Environnement de Châteaurenard,ChIJ6fAvm1HutRIRemOwpljsc8A,"[u'point_of_interest', u'establishment']"
0,43.8854776,4.8675495,Demeures Val Durance,ChIJE30a1U7utRIRBrVrmPwPTOU,"[u'point_of_interest', u'establishment']"
0,43.885007,4.863853,Myhrisse Espace bien-être,ChIJAyG4R07utRIRuiAN0P1IYa8,"[u'beauty_salon', u'point_of_interest', u'establishment']"
0,43.8809373,4.8734987,BIMBO COSMETIQUE,ChIJK33nnTXutRIRl08dzoixXmU,"[u'store', u'point_of_interest', u'establishment']"
0,43.8874941,4.8666381,BlackSoft-Concept,ChIJOaOhXE_utRIR6MSxs6Gyus4,"[u'electronics_store', u'store', u'point_of_interest', u'establishment']"
0,43.885073,4.865022,GROUPE CYS,ChIJZTH9V07utRIRqRp1cnU24tM,"[u'lawyer', u'point_of_interest', u'establishment']"
0,43.8849649,4.8655969,SCP ARNAL-PITRAT,ChIJeQ4TilXutRIR06LrJfAEEbw,"[u'point_of_interest', u'establishment']"
0,43.883828,4.8648675,AGC Midi Mediterranee,ChIJF9kpfU7utRIR5x4Fee-qY4I,"[u'point_of_interest', u'establishment']"
0,43.883828,4.8648675,b.attitude,ChIJF9kpfU7utRIRr5036JMxYDI,"[u'point_of_interest', u'establishment']"
0,43.8800796,4.8673511,Nursery School Roquecoquille,ChIJRxytjkzutRIR-azaG9fdRWQ,"[u'school', u'point_of_interest', u'establishment']"
0,43.8846952,4.8642853,Pôle Emploi,ChIJF9kpfU7utRIRe33ZehcXdOk,"[u'point_of_interest', u'establishment']"
0,43.88506,4.865019,FIDUCIAL Expertise Chateaurenard,ChIJr3YBMS8Y3UcRvfMs2XNTBis,"[u'accounting', u'finance', u'point_of_interest', u'establishment']"
0,43.8854268,4.8678155,Pompes Funèbres & Chambre funéraire BOURELIER MAGALI,ChIJ6fZcKknutRIRoFOKOq8DacY,"[u'funeral_home', u'point_of_interest', u'establishment']"
0,43.8831771,4.8627517,Jean-Louis Aubert Traiteur,ChIJazCC_k3utRIRBC_Hp0pozHM,"[u'food', u'point_of_interest', u'establishment']"
0,43.8849068,4.86426,centre de relaxation b.Attitude,ChIJ5TXjRE7utRIRGvaCH4iCTFk,"[u'point_of_interest', u'establishment']"
0,43.8857093,4.8685779,ACPM,ChIJIRUE2EjutRIRIYBxuUwJedw,"[u'point_of_interest', u'establishment']"
0,43.8857093,4.8685778,le cam.co,ChIJkT1K2UjutRIRZtDEXMtn4Nk,"[u'insurance_agency', u'point_of_interest', u'establishment']"
0,43.8853994,4.8622776,MSA Provence Azur (Châteaurenard),ChIJkXYhLE7utRIRgmkaq6ElhHQ,"[u'local_government_office', u'point_of_interest', u'establishment']"
0,43.8843594,4.8600402,Les Archers de Chateau-renard,ChIJQb6CnlHutRIRv7mhjdG4-M8,"[u'point_of_interest', u'establishment']"
0,43.8833481,4.8578814,Didier Debout,ChIJv3UZ_VPutRIRtQaExalOYzs,"[u'plumber', u'point_of_interest', u'establishment']"
0,43.8846967,4.8587737,Acce,ChIJf140a1HutRIRRBLkhcVUqvg,"[u'point_of_interest', u'establishment']"
0,43.884211,4.858805,Meffre Olivier,ChIJC5nDaFHutRIRIyRVKaNZz1Y,"[u'point_of_interest', u'establishment']"
0,43.8849915,4.8585705,ECLIPSE ANIMATION,ChIJ08saB1HutRIRhwA-SJ9swBc,"[u'point_of_interest', u'establishment']"
0,43.8807879,4.808322,"Me, mysell and I",ChIJEY04ftXotRIRYBmU5tSe5H4,"[u'point_of_interest', u'establishment']"
0,43.8841137,4.8110119,Les Chalanquettes,ChIJE04-ydTutRIRJ8_rjdcopic,"[u'food', u'point_of_interest', u'establishment']"
0,43.8837438,4.8035678,Atelier du Métal,ChIJa17JCCnptRIRd4eSES_m8d4,"[u'point_of_interest', u'establishment']"
0,43.8837438,4.8035678,Bon Lancon Michel,ChIJHdiX_C7ptRIRY6BHHQMC1lQ,"[u'point_of_interest', u'establishment']"
0,43.8901537,4.8092039,Linsolas Gilles,ChIJbarThzLptRIRdLC0a9KyhJ0,"[u'food', u'point_of_interest', u'establishment']"
0,43.8877771,4.8032041,Spec-Pro,ChIJHdiX_C7ptRIRu-mtPvr2H5s,"[u'point_of_interest', u'establishment']"
0,43.8877771,4.8032041,Bigonet,ChIJHdiX_C7ptRIR3fpIKk69JFY,"[u'grocery_or_supermarket', u'food', u'store', u'point_of_interest', u'establishment']"
0,43.8786875,4.8017729,Earl fargier Eric,ChIJFVw_CtfotRIRLr24lxyrDAY,"[u'food', u'point_of_interest', u'establishment']"
0,43.860834,4.863767,Centre Equestre Pantaiado,ChIJIxWDFb3vtRIRycuLZ0JuFFs,"[u'point_of_interest', u'establishment']"
0,43.8565478,4.8550058,Les Jardins de John,ChIJbWIwRZ7vtRIRsEtpycheq20,"[u'general_contractor', u'point_of_interest', u'establishment']"
0,43.8680703,4.8608398,Gonzalez Jean-Charles,ChIJjaymbKXvtRIRgu8q5y0DB3A,"[u'point_of_interest', u'establishment']"
0,43.8642526,4.8643476,Bernard Roland,ChIJZVGPG6HvtRIRPLqh0tghLkk,"[u'electrician', u'point_of_interest', u'establishment']"
0,43.8715,4.859162,Poux Infirmiere-Geraldine,ChIJtyM3Ha_vtRIRYnxjzRFaXzI,"[u'point_of_interest', u'establishment']"
0,43.8722389,4.8570591,Moucadel Maconnerie,ChIJFdCELanvtRIRaGHD2oufbh4,"[u'point_of_interest', u'establishment']"
0,43.872207,4.860462,Granger Didier,ChIJu0zIWq7vtRIRAn57rxtMV7I,"[u'general_contractor', u'point_of_interest', u'establishment']"
0,43.8722501,4.8603768,Michel Patrice Sarl,ChIJu0zIWq7vtRIRxbAxhEKiuZw,"[u'plumber', u'point_of_interest', u'establishment']"
0,43.872529,4.855876,Gounod,ChIJM0s_FqnvtRIRlmA6nBH70XU,"[u'general_contractor', u'point_of_interest', u'establishment']"
0,43.872458,4.860485,Reparat Elec Montage Ascenseurs Automa,ChIJyRWtXK7vtRIRz7KJncv1K9w,"[u'point_of_interest', u'establishment']"
0,43.8725982,4.8558518,clos de la lyre,ChIJjdhzFqnvtRIRoai_AWbzKaI,"[u'lodging', u'point_of_interest', u'establishment']"
0,43.86527,4.812189,Mas des Calades,ChIJaWivlDTvtRIRSjcZFhXgqW4,"[u'point_of_interest', u'establishment']"
0,43.8660195,4.8131876,Ribeiro Edite,ChIJqXz1fTTvtRIR-8d9wafSvbo,"[u'food', u'point_of_interest', u'establishment']"
0,43.8627938,4.8130728,Chabaud Jean-Louis,ChIJMS0mCzXvtRIRd0fDYCcKmvU,"[u'food', u'point_of_interest', u'establishment']"
0,43.8651317,4.8118983,Mousset Jean Marie,ChIJ28KC6jTvtRIRaGRcbWugUow,"[u'food', u'point_of_interest', u'establishment']"
0,43.8577134,4.8155331,Delabre-Rasclas,ChIJU7oz50vvtRIR6mq0mKLuMIA,"[u'food', u'point_of_interest', u'establishment']"
0,43.8577134,4.8155331,Ginoux Chantal,ChIJU7oz50vvtRIRzrB5INgnCwo,"[u'food', u'point_of_interest', u'establishment']"
0,43.859131,4.8133383,Nicolas Jean-Luc,ChIJPezcBEvvtRIR_jVyvlvkuqQ,"[u'food', u'point_of_interest', u'establishment']"
0,43.857664,4.815529,Gaec Delabre -Rasclas,ChIJaW1e4UvvtRIRZV_VzKPzeJM,"[u'point_of_interest', u'establishment']"
0,43.8748254,4.8744015,Alpilles-solaires,ChIJN1z8Q8rvtRIRefIXdXOm2Lo,"[u'point_of_interest', u'establishment']"
0,43.875377,4.8678354,Ananiguian Yves,ChIJPbDHebTvtRIRey2a2nDHG1U,"[u'store', u'point_of_interest', u'establishment']"
0,43.872316,4.8673678,La Villa Ocre,ChIJk4vINbHvtRIRNC_nl-LXCa0,"[u'point_of_interest', u'establishment']"
0,43.8739493,4.8652658,Durand Jean Etienne,ChIJtRRr1LPvtRIRgcBg9lxX_e8,"[u'point_of_interest', u'establishment']"
0,43.8723036,4.8683162,Paquien Stephane Lucien,ChIJjRXDx7bvtRIRHIpxW66rQ_E,"[u'point_of_interest', u'establishment']"
0,43.8747334,4.8685511,Milhau Fortane Sylvie Pascale Anne,ChIJrVCjb7TvtRIR_rDJaXhfmwc,"[u'point_of_interest', u'establishment']"
0,43.8733376,4.8640545,Serrano Sylvain,ChIJuwAzMqXvtRIRaSdr7Krjd8U,"[u'general_contractor', u'point_of_interest', u'establishment']"
0,43.8739054,4.8637988,RV Façades,ChIJUxDKIbLvtRIRggppZbkyJpo,"[u'point_of_interest', u'establishment']"
0,43.8728774,4.8632212,Lopez Nicolas,ChIJC9_Q6LHvtRIRiWFkGtv1mOA,"[u'point_of_interest', u'establishment']"
0,43.8707969,4.8676768,Bernard Mirella,ChIJszT_LLfvtRIR78VfxfBul4w,"[u'food', u'point_of_interest', u'establishment']"
0,43.8731719,4.8629079,Zenotti Escudier Simone,ChIJfaTZ5LHvtRIR08vXrIZbW1A,"[u'point_of_interest', u'establishment']"
0,43.8752621,4.8701884,Fassi Sabri,ChIJ0-6bUrTvtRIR3zJk6GRrMjo,"[u'grocery_or_supermarket', u'food', u'store', u'point_of_interest', u'establishment']"
0,43.8752621,4.8701884,Fassi Benaissa,ChIJ0-6bUrTvtRIRgzwCOLSt5SQ,"[u'point_of_interest', u'establishment']"
0,43.8767923,4.8668754,Falcou Jean-Claude,ChIJw7o7ZLPvtRIR5Ym8Y_Pembw,"[u'point_of_interest', u'establishment']"
0,43.8757748,4.8634984,Association Docteur Giard Tixier,ChIJDZCQZrLvtRIRXWAdkdVUABc,"[u'point_of_interest', u'establishment']"
0,43.8768371,4.8665021,Propabat,ChIJWZExbLPvtRIRe9X9jKEBO3k,"[u'general_contractor', u'point_of_interest', u'establishment']"
0,43.8765413,4.8689421,Reynaud Robert,ChIJMRJ87bTvtRIRmZ7-LNOUFJE,"[u'point_of_interest', u'establishment']"
0,43.8763672,4.8695847,Inter Production Formation,ChIJ341s7rTvtRIRSe8rFbaGdb4,"[u'point_of_interest', u'establishment']"
0,43.8765,4.8695,Provence Nature Développement,ChIJI-bDzVHutRIRmmc27v5lDR4,"[u'finance', u'point_of_interest', u'establishment']"
0,43.8766952,4.8692209,Barrio-Solanas Rosa,ChIJ4c4u7LTvtRIRuPC3oxDa4P4,"[u'point_of_interest', u'establishment']"
0,43.8732464,4.8611304,Pinon Annie,ChIJswNNba7vtRIRWUzl7Xf7a0I,"[u'point_of_interest', u'establishment']"
0,43.8731395,4.8610676,Delpuech Robert,ChIJqRUSba7vtRIRSjRTrokBPbw,"[u'furniture_store', u'home_goods_store', u'store', u'point_of_interest', u'establishment']"
0,43.8741535,4.8608641,Halle Frédéric,ChIJkWSP9FXutRIRjtc0H5x1xcE,"[u'department_store', u'store', u'point_of_interest', u'establishment']"
0,43.8774638,4.8634919,F.m.s,ChIJ94hCvrLvtRIRjLRRjXKhOV8,"[u'point_of_interest', u'establishment']"
0,43.8735623,4.8600666,Clini Aldo,ChIJaVE_fK7vtRIRP2wjUbU4qtI,"[u'bar', u'point_of_interest', u'establishment']"
0,43.8752469,4.8602828,Ade'o Assainissement,ChIJW4toRVTutRIRMfiJjlKuMco,"[u'point_of_interest', u'establishment']"
0,43.8780087,4.8632181,Vasquez Richard,ChIJdcRksLLvtRIRRV340Yr8F6w,"[u'point_of_interest', u'establishment']"
0,43.8780058,4.8631127,Vasquez Gines,ChIJOSRlsLLvtRIRmfTIDrJu42E,"[u'point_of_interest', u'establishment']"
0,43.8788673,4.8666784,Moubarik Abdelaziz,ChIJlVzox0zutRIRFE0CSIxvSXQ,"[u'point_of_interest', u'establishment']"
0,43.8790356,4.8671449,Hida Yasine,ChIJYxydpUzutRIR-9trPFZkHyw,"[u'car_dealer', u'store', u'point_of_interest', u'establishment']"
0,43.87349,4.859052,Bounila Lilia,ChIJpVL3mq7vtRIRswLVlZbcH7Q,"[u'point_of_interest', u'establishment']"
0,43.87349,4.859052,Llorens Esther,ChIJpVL3mq7vtRIRBN_zIEYq7xA,"[u'grocery_or_supermarket', u'food', u'store', u'point_of_interest', u'establishment']"
0,43.8747992,4.8589551,Ouvertures La Demeter Isolante Dépôt,ChIJdQrAO6zvtRIRhSLAxMN7k0s,"[u'store', u'point_of_interest', u'establishment']"
0,43.8784102,4.8623692,Denante Ana S Sophie,ChIJM9akOVLutRIRuqUItV0goSQ,"[u'point_of_interest', u'establishment']"
0,43.8743783,4.8587242,Decise Marion,ChIJP1chIqzvtRIRm4Oe0tfbLy8,"[u'point_of_interest', u'establishment']"
0,43.8782274,4.8609965,Mariani Andre,ChIJZU7lSK3vtRIR3qzU6IApxZI,"[u'point_of_interest', u'establishment']"
0,43.8747696,4.8581302,ENERBAT,ChIJsWT7GazvtRIR5Jj6uqyDaIc,"[u'point_of_interest', u'establishment']"
0,43.8681767,4.8090663,Noguier Jean Claude,ChIJHVRy6czotRIRS4V1sGbNudI,"[u'point_of_interest', u'establishment']"
0,43.8684688,4.8081548,Gontier Noguier Marie Louise Noelle,ChIJHVRy6czotRIRTpJLKUlUqT4,"[u'food', u'point_of_interest', u'establishment']"
0,43.868281,4.8093998,Cardelin Noguier Renee Josette Louise,ChIJK1z7wszotRIRfay-zlAsefc,"[u'point_of_interest', u'establishment']"
0,43.8531509,4.769296,Graveson,ChIJkVZLW33otRIRwAKX_aUZCAQ,"[u'locality', u'political']"
0,43.8679474,4.8089614,Pecout Bruno Yves,ChIJw6IQ7MzotRIRiehh9goGg7I,"[u'food', u'point_of_interest', u'establishment']"
0,43.8717886,4.804202,Bianchi Jean-Marie,ChIJnZg64dHotRIRmLJ2JML_T0o,"[u'point_of_interest', u'establishment']"
0,43.8688456,4.8044797,Durand Sarrazin Christelle Pascale,ChIJtQkKjM7otRIRlO1_8T8bysI,"[u'food', u'point_of_interest', u'establishment']"
0,43.9162394,4.8514469,Mas Des Cigales,ChIJZ_n6DYDutRIRT6feuzCOG8g,"[u'lodging', u'point_of_interest', u'establishment']"
0,43.9000968,4.8640215,La Cie Du Soleil Investissement 2,ChIJLzzS9WjutRIRU8jwVwTk60I,"[u'point_of_interest', u'establishment']"
0,43.8917795,4.8595143,Lou Mas Di Lioun,ChIJf41zklvutRIR36TzBznR6YE,"[u'lodging', u'point_of_interest', u'establishment']"
0,43.8942494,4.8661935,Raymond Jean-Claude,ChIJuf3xuEPutRIRbbrKHNtU7-s,"[u'point_of_interest', u'establishment']"
0,43.8921616,4.8537112,Pauleau Robert,ChIJfZSNwVjutRIRSsOw0av2lgU,"[u'point_of_interest', u'establishment']"
0,43.8919169,4.8611388,Barbastro Manuel,ChIJOy_mQVvutRIRb4Vjp-FDboQ,"[u'store', u'point_of_interest', u'establishment']"
0,43.8920008,4.8615477,Earl Raymond Freres,ChIJcVfERlvutRIRo4lWmWikmTI,"[u'food', u'point_of_interest', u'establishment']"
0,43.8993936,4.8141579,Bigard,ChIJ3Z_Qe8rutRIRFtxs2GIztCc,"[u'food', u'point_of_interest', u'establishment']"
0,43.9054035,4.8195681,Julie Villiaume,ChIJPxYhwLDutRIRlK_Mv14PgVg,"[u'park', u'point_of_interest', u'establishment']"
0,43.9063314,4.8139577,Roomtec,ChIJlfPksLPutRIR4DKKJo79tR4,"[u'electronics_store', u'store', u'point_of_interest', u'establishment']"
0,43.9063314,4.8139577,EUROSTOCK,ChIJlfPksLPutRIRHLTcE-I8zvA,"[u'food', u'point_of_interest', u'establishment']"
0,43.899239,4.818227,IMEDIA LOCATION MAXLOC,ChIJbf2D1MnutRIRlwp06HwVNXA,"[u'car_rental', u'point_of_interest', u'establishment']"
0,43.9012207,4.817773,Bakkali Ahmed,ChIJW_qQT7butRIRh88IWieuY6Y,"[u'finance', u'point_of_interest', u'establishment']"
0,43.8991078,4.817329,GV Carrelages,ChIJda7hF8rutRIR7wykiuBA-bE,"[u'home_goods_store', u'store', u'point_of_interest', u'establishment']"
0,43.899226,4.8171026,Groupe Maeva Carrelage,ChIJqffw3cnutRIRb7_1DMEGu1Q,"[u'home_goods_store', u'store', u'point_of_interest', u'establishment']"
0,43.9008139,4.816117,13870,ChIJARVUc7butRIRLXTWYpjf7Dk,"[u'point_of_interest', u'establishment']"
0,43.8990366,4.8160887,Zone Artisanale de la Horsière,ChIJrR3QT8zutRIRslfdi3AMvb8,"[u'point_of_interest', u'establishment']"
0,43.89821,4.815853,unnamed,ChIJkcBqisnutRIR6KCAGn4bYnM,"[u'point_of_interest', u'establishment']"
0,43.8966844,4.8175176,Pack Vert,ChIJAVVFDsnutRIRMK0yxpmdKGU,"[u'point_of_interest', u'establishment']"
0,43.8971889,4.8163569,S.C.O.F.E.L (Sté de Commercialisation de Fruits et Légumes),ChIJrR3QT8zutRIR30CMCeagNFo,"[u'grocery_or_supermarket', u'food', u'store', u'point_of_interest', u'establishment']"
0,43.898472,4.815057,Brasil Import,ChIJO1bgF8rutRIRhxhURbKbNK4,"[u'point_of_interest', u'establishment']"
0,43.898472,4.815057,Technitherm,ChIJO1bgF8rutRIRuA0xYc5hSj4,"[u'point_of_interest', u'establishment']"
0,43.898364,4.815033,Daniel Moquet Signe Vos Allées - Ent FARANDA,ChIJz8IWPcrutRIRue2yuU2nDT4,"[u'general_contractor', u'point_of_interest', u'establishment']"
0,43.8980703,4.8152143,Faranda,ChIJT8sNG8r1tRIRPV3djkkSJ18,"[u'general_contractor', u'point_of_interest', u'establishment']"
0,43.9054838,4.8166508,Wouters France,ChIJn5qqljbutRIRE_UdfPpy52Y,"[u'grocery_or_supermarket', u'food', u'store', u'point_of_interest', u'establishment']"
0,43.8955196,4.8757733,Creno,ChIJiylxyT_utRIRZpvDKkZDWG0,"[u'food', u'point_of_interest', u'establishment']"
0,43.893258,4.865596,Auto Bilan France,ChIJLbMUhUPutRIRciPhOkWkk9A,"[u'point_of_interest', u'establishment']"
0,43.8893583,4.8721565,Pascalis Jean Francois,ChIJ66LgkkfutRIR7C7G8LrcYLA,"[u'point_of_interest', u'establishment']"
0,43.8960917,4.8750278,Traitagri,ChIJ0S_dyT_utRIRfZE8LaQ7uQw,"[u'home_goods_store', u'store', u'point_of_interest', u'establishment']"
0,43.8972807,4.8748139,Soprimex,ChIJTzaeexXutRIR2tq92CUbYac,"[u'point_of_interest', u'establishment']"
0,43.896971,4.875431,Provence Express Froid,ChIJBRjRKj7utRIRNqBhgaafmfA,"[u'car_wash', u'point_of_interest', u'establishment']"
0,43.896971,4.875431,Sci Du Mistral,ChIJBRjRKj7utRIRkXK6k1L-okg,"[u'point_of_interest', u'establishment']"
0,43.885352,4.882114,AUBERGE DE NOVES,ChIJvbbQfCjutRIRKOBWn5ql2JY,"[u'lodging', u'restaurant', u'food', u'point_of_interest', u'establishment']"
0,43.88778,4.880457,CATSOLARIS,ChIJYd2ufTrutRIRR2SGGWVSIh8,"[u'point_of_interest', u'establishment']"
0,43.8887772,4.8808982,Perrier Transports,ChIJDe8CpDvutRIR2yM_EU-JKqI,"[u'moving_company', u'point_of_interest', u'establishment']"
0,43.889368,4.8807847,ROC DE FRANCE,ChIJDe8CpDvutRIRxhYt-CkOxWs,"[u'park', u'general_contractor', u'home_goods_store', u'store', u'point_of_interest', u'establishment']"
0,43.885295,4.873927,Dubois Martin Sebastien,ChIJHxMmyzfutRIRj6QNInS43-Q,"[u'general_contractor', u'point_of_interest', u'establishment']"
0,43.8859992,4.8751988,Gamonet André,ChIJq4db9kjutRIRzQa_R1J5YwI,"[u'food', u'point_of_interest', u'establishment']"
0,43.8786307,4.8757549,Galtier Frederic Elie,ChIJDSZ52jTutRIRQm4fQ_oXVRs,"[u'car_repair', u'point_of_interest', u'establishment']"
0,43.8828916,4.8701673,Roux Gerald Jean Joseph,ChIJVYGp1UvutRIRvJw1O1uun-k,"[u'point_of_interest', u'establishment']"
0,43.8784363,4.8740083,Cayrou Cadars Patricia Sylvie,ChIJUX6nVTXutRIRqExUPyze5kU,"[u'hair_care', u'point_of_interest', u'establishment']"
0,43.8866453,4.8744019,Peaurroy Jerome,ChIJyQ-sPUjutRIR0Ysaeqyn9Xs,"[u'point_of_interest', u'establishment']"
0,43.8861688,4.8793762,Cioni Laurent Dominique Marc,ChIJTYnH6jDutRIRZb9MUP5sSjk,"[u'point_of_interest', u'establishment']"
0,43.8779569,4.8758668,Juarez Frederic,ChIJm0U2LcvvtRIRxeY4RdiimBI,"[u'plumber', u'point_of_interest', u'establishment']"
0,43.882858,4.869334,13160,ChIJpcoV2UvutRIR36PEF-4VZ1E,"[u'point_of_interest', u'establishment']"
0,43.8831052,4.8693174,Piscine municipale Chateau renard,ChIJi50SYknutRIR-ALvEUHEp4I,"[u'point_of_interest', u'establishment']"
0,43.8848994,4.8820181,ST Distribution,ChIJQYs_NTDutRIR7NSWDs0E10U,"[u'point_of_interest', u'establishment']"
0,43.8858365,4.8695114,Chatotel,ChIJZRXE5EjutRIRbAuRNZ8WVmE,"[u'point_of_interest', u'establishment']"
0,43.8882682,4.8743014,Pidoux-Vidal Hervé,ChIJEbnzPDjutRIREufZifqtnGU,"[u'plumber', u'general_contractor', u'point_of_interest', u'establishment']"
0,43.886349,4.8696801,Assoc Gym Detente la Palestre,ChIJx6Sb8UjutRIRquDu6dliAtE,"[u'point_of_interest', u'establishment']"
0,43.886349,4.8696801,Catillon Corinne,ChIJx6Sb8UjutRIRavOfnKO-Ais,"[u'point_of_interest', u'establishment']"
0,43.8831334,4.8676657,Assoc Omnisport Club Chateau Renardais,ChIJ-S5ml1butRIRP3YrU0jSVXk,"[u'point_of_interest', u'establishment']"
0,43.883828,4.8648675,Gérard Plilippe,ChIJpb3HSU7utRIROSsd37cTtd4,"[u'insurance_agency', u'point_of_interest', u'establishment']"
0,43.885713,4.8685957,AIST 84 - Centre de Châteaurenard,ChIJ093vYFbutRIRHk0XyhXj3Bw,"[u'health', u'point_of_interest', u'establishment']"
0,43.8857093,4.8685778,Association Pour L'Education Cognitive E,ChIJcfYe8LTvtRIRRUrx34_PV20,"[u'point_of_interest', u'establishment']"
0,43.882547,4.866391,13160,ChIJSz_sF0zutRIR0-7EckDx9xg,"[u'parking', u'point_of_interest', u'establishment']"
0,43.8693555,4.8740137,Rondia,ChIJAdQZE8jvtRIRgE14TSFJdHo,"[u'point_of_interest', u'establishment']"
0,43.863175,4.8771315,Ferretti Rudy,ChIJ5Qz_TsHvtRIRjz8kvwRCsqo,"[u'point_of_interest', u'establishment']"
0,43.8633423,4.806182,Locations de Provence SARL,ChIJhxNx98notRIRIu5fUi6FRJU,"[u'point_of_interest', u'establishment']"
0,43.8643023,4.8008994,La Trace du Passé,ChIJ6_7VfMjotRIRk4CfL6cUQ40,"[u'point_of_interest', u'establishment']"
0,43.8649074,4.8006684,Rossi Giraud Laura Marie Isabelle,ChIJ9wdHhMjotRIR7zdEIUwbQ54,"[u'hair_care', u'point_of_interest', u'establishment']"
0,43.8703502,4.8813636,Siniat,ChIJfxIoss_vtRIR8GARtRE0jtk,"[u'point_of_interest', u'establishment']"
0,43.8730233,4.8820308,Klemm Dominique,ChIJN0aR9s3vtRIRe53aOrfflrk,"[u'food', u'point_of_interest', u'establishment']"
0,43.8767362,4.8849062,Christophe Tiberghien,ChIJmdOLw9LvtRIRlV19AcswX0U,"[u'point_of_interest', u'establishment']"
0,43.8662688,4.879779,Baud Régis,ChIJ5y0278XvtRIRiYJtULtCV-I,"[u'general_contractor', u'point_of_interest', u'establishment']"
0,43.8659226,4.880979,Rainero Alain,ChIJzb-p8MTvtRIR7ZDDdwZ7gOc,"[u'point_of_interest', u'establishment']"
0,43.869741,4.799566,Sous Les Platanes B&B,ChIJiYGccMXotRIRmLU_fVr8Hso,"[u'lodging', u'point_of_interest', u'establishment']"
0,43.8797175,4.7987171,Bonnin Jean-Pierre,ChIJadwxR9jotRIREcRzBOtEWic,"[u'point_of_interest', u'establishment']"
0,43.8660585,4.7987572,Earl Des Deux Sources,ChIJL6mca8botRIRVmMo_gkGu00,"[u'food', u'point_of_interest', u'establishment']"
0,43.9183287,4.8563988,Mouzac Jean-Michel,ChIJa1Olw9XttRIRlZtiH05Z3Kg,"[u'lodging', u'point_of_interest', u'establishment']"
0,43.9158188,4.8583451,Aymard Briand Monique,ChIJZ7kZtHjutRIRmiINjyvHdk4,"[u'point_of_interest', u'establishment']"
0,43.915764,4.8613216,Briand Robert,ChIJ7XhzFHjutRIR62sQmL674aA,"[u'food', u'point_of_interest', u'establishment']"
0,43.9170652,4.8560527,Garcin Bruno,ChIJ7XhzFHjutRIR7QiafY17Qzk,"[u'point_of_interest', u'establishment']"
0,43.9179667,4.8577879,Geoffroy Jean-Luc,ChIJqULlI9bttRIR5n413vq6QyQ,"[u'car_repair', u'point_of_interest', u'establishment']"
0,43.9061913,4.8106487,Philippe Garcia Sarl,ChIJkda4W7PutRIRjnEz3QRdCS0,"[u'general_contractor', u'point_of_interest', u'establishment']"
0,43.9084657,4.811521,Mille-Dupuy Elie,ChIJ0Wrlu7LutRIR1-IhQciYrPU,"[u'food', u'point_of_interest', u'establishment']"
0,43.8998565,4.8749577,Le Fer Et Le Feu,ChIJDxJC-xTutRIRYGcF-6a0kDQ,"[u'point_of_interest', u'establishment']"
0,43.8998565,4.8749577,Cecchi Eco,ChIJDxJC-xTutRIRuGpoStpMajw,"[u'general_contractor', u'point_of_interest', u'establishment']"
0,43.9001339,4.8778056,Comptoir V.I Chateaurenard,ChIJ23Qr-hXutRIRzISea0OylR8,"[u'car_repair', u'point_of_interest', u'establishment']"
0,43.896917,4.8769376,Alligator,ChIJqxg9Hj7utRIRqYfB_2-vR8A,"[u'point_of_interest', u'establishment']"
0,43.8971032,4.8776452,Société Développement Réalisation Travaux Publics,ChIJ90er-BXutRIRSkVa2a7Gjtw,"[u'general_contractor', u'point_of_interest', u'establishment']"
0,43.8971032,4.8776452,Matière,ChIJ90er-BXutRIRPQoUIzTDw5g,"[u'general_contractor', u'point_of_interest', u'establishment']"
0,43.8971032,4.8776452,Gel Route,ChIJ90er-BXutRIRGKvYgnbUMAc,"[u'moving_company', u'point_of_interest', u'establishment']"
0,43.902322,4.871567,Sotreco,ChIJDxJC-xTutRIRBIpGyd8KVH8,"[u'point_of_interest', u'establishment']"
0,43.902476,4.871837,CLEEF SYSTEM,ChIJS_6BpGzutRIRp5SSEuCCvH4,"[u'point_of_interest', u'establishment']"
0,43.8998565,4.8749577,Torre Daniel,ChIJDxJC-xTutRIR6HY5sfhG9QM,"[u'general_contractor', u'point_of_interest', u'establishment']"
0,43.901553,4.875282,unnamed,ChIJ3woyhxTutRIRPMbsYjeFyHk,"[u'point_of_interest', u'establishment']"
0,43.8996225,4.8760125,Société Provençale des Bitumes S.P.B.,ChIJ77ibOxTutRIRFJCq-bcR5D0,"[u'general_contractor', u'point_of_interest', u'establishment']"
0,43.8969494,4.8749639,A.c. & g Elisabeth,ChIJDTP31j_utRIR_y2Qn4TvBuA,"[u'point_of_interest', u'establishment']"
0,43.897216,4.8751809,Thys (Techniques Hydrauliques Service),ChIJgcPfKBbutRIRZ8jvtNf0E-I,"[u'point_of_interest', u'establishment']"
0,43.897216,4.8751809,Pecout Stephanie Muriel,ChIJ53XgKBbutRIRHeYuUCHYMbg,"[u'point_of_interest', u'establishment']"
0,43.897216,4.8751809,Etude Réalisation Arrosage,ChIJgcPfKBbutRIRYf-Fiy8RnQ4,"[u'point_of_interest', u'establishment']"
0,43.89694,4.8749635,Magiron Sarl,ChIJh42jyT_utRIR5AjEv47DOg0,"[u'point_of_interest', u'establishment']"
0,43.8967343,4.8749805,Blachere Redon Nicole Alberte,ChIJN8Puzj_utRIRr--_81RQjfI,"[u'furniture_store', u'home_goods_store', u'store', u'point_of_interest', u'establishment']"
0,43.896088,4.8749031,Sci les Vergers de Marcerolles,ChIJiylxyT_utRIRTUmnPtMabJA,"[u'real_estate_agency', u'point_of_interest', u'establishment']"
0,43.893258,4.865596,restaurant le Diners 66,ChIJLbMUhUPutRIRbU3eHlaxQmg,"[u'restaurant', u'food', u'point_of_interest', u'establishment']"
0,43.8960917,4.8750278,Express Frais,ChIJiylxyT_utRIRjb-Db6Kdh_g,"[u'point_of_interest', u'establishment']"
0,43.8989037,4.8775102,2 G Primeurs,ChIJPycl0BXutRIRfz5nmOaXXKg,"[u'grocery_or_supermarket', u'food', u'store', u'point_of_interest', u'establishment']"
0,43.8927137,4.8647237,Aprin Adèle,ChIJScAeeUTutRIRX1JaSS1fmuA,"[u'point_of_interest', u'establishment']"
0,43.8969126,4.8767501,Stdc,ChIJ2XPuHz7utRIRC0m4fOA1PGQ,"[u'moving_company', u'point_of_interest', u'establishment']"
0,43.8969934,4.8769342,Loca Service - la location de vitrines réfrigérées - Agence d'Avignon,ChIJ1Sg9Hj7utRIRsNY3JzQON7Q,"[u'point_of_interest', u'establishment']"
0,43.896236,4.876915,REGICOM,ChIJx4_uFj7utRIR04avoWItsWc,"[u'point_of_interest', u'establishment']"
0,43.8967862,4.8773853,Etienne Yohan,ChIJr-oLAz7utRIRt76zBuM-ffI,"[u'point_of_interest', u'establishment']"
0,43.8966847,4.8773924,Déco Laurent,ChIJBZNEAj7utRIRxi1FCPHFufE,"[u'point_of_interest', u'establishment']"
0,43.897015,4.8776699,Mic Prim,ChIJ90er-BXutRIRpGZIuv48UVg,"[u'food', u'point_of_interest', u'establishment']"
0,43.8919265,4.8652156,R.s.f,ChIJ31HwY0TutRIReCygCK7dWBE,"[u'point_of_interest', u'establishment']"
0,43.896928,4.878784,Picard,ChIJmSf38z3utRIRU33UqE66fIY,"[u'electronics_store', u'home_goods_store', u'store', u'point_of_interest', u'establishment']"
0,43.894781,4.880236,La Maison du Bon Café - Siège social,ChIJCVEnpj3utRIRUbBvKCOB9qw,"[u'food', u'store', u'point_of_interest', u'establishment']"
0,43.8928802,4.8796564,Electro-Maintenance SA,ChIJpUEVZTzutRIR7TBxNoXiiKY,"[u'point_of_interest', u'establishment']"
0,43.896655,4.878745,Lorraine d'Argent,ChIJb1rL8D3utRIRWYSZZTYjKh4,"[u'point_of_interest', u'establishment']"
0,43.895701,4.878981,Barthélémy Manutention,ChIJT4f2wT3utRIR3MqaPgnY6TQ,"[u'point_of_interest', u'establishment']"
0,43.897206,4.8790356,Vert Frais,ChIJz0FqZzzutRIREA3Y5E9S-Pw,"[u'food', u'point_of_interest', u'establishment']"
0,43.8947723,4.8774827,France Primeurs,ChIJDU0PAz7utRIRI3GU61N0qdg,"[u'grocery_or_supermarket', u'food', u'store', u'point_of_interest', u'establishment']"
0,43.8914395,4.8811143,S.A.S Riquier,ChIJDe8CpDvutRIRX1kazyH1qQE,"[u'food', u'point_of_interest', u'establishment']"
0,43.8932504,4.8803042,Cantillana,ChIJz0FqZzzutRIRLR7SxCJkKj0,"[u'point_of_interest', u'establishment']"
0,43.893261,4.8801803,ECD,ChIJZVzYlBbutRIRroXpnquEEVc,"[u'general_contractor', u'point_of_interest', u'establishment']"
0,43.8906519,4.8818991,S.A.B Etanchéité,ChIJue_57NLxtRIRpBD5ek3mMwc,"[u'general_contractor', u'point_of_interest', u'establishment']"
0,43.8928559,4.8788251,Amiad Water Systems Europe,ChIJmxDKETzutRIRx0A89WgxWD4,"[u'point_of_interest', u'establishment']"
0,43.8928802,4.8796564,CEG,ChIJlah8bjzutRIRTsbkzkNAY5k,"[u'point_of_interest', u'establishment']"
0,43.8932504,4.8803042,Benet Bruno Pierre,ChIJz0FqZzzutRIRORT7kizcC5Y,"[u'car_repair', u'point_of_interest', u'establishment']"
0,43.8906519,4.8818991,Novaprim,ChIJue_57NLxtRIRzHWhDMVxhu0,"[u'grocery_or_supermarket', u'food', u'store', u'point_of_interest', u'establishment']"
0,43.894973,4.878948,E.H.T.P (Entreprise Hydraulique de Travaux Publics),ChIJLwTOzj3utRIR-1KDcNNVGjE,"[u'general_contractor', u'point_of_interest', u'establishment']"
0,43.8906519,4.8818991,Fortis,ChIJ6aP_PTvutRIRJhemfjRtG5Q,"[u'point_of_interest', u'establishment']"
0,43.896015,4.878995,Alpha Cloture,ChIJgTX76z3utRIRg1XEXHRJgMw,"[u'general_contractor', u'point_of_interest', u'establishment']"
0,43.890565,4.883894,Alpilles Aménagements Véhicules Utilitaires ( 2AVU),ChIJp5oeSSTutRIRAaVcGkHooVA,"[u'point_of_interest', u'establishment']"
0,43.8928559,4.8788251,Tech Hydrauliques Services,ChIJmxDKETzutRIRKjsfkn--v4c,"[u'point_of_interest', u'establishment']"
0,43.8928802,4.8796564,Perrenot Fourchet,ChIJDUq2gjzutRIRXGvvDiuKemQ,"[u'point_of_interest', u'establishment']"
0,43.8918215,4.8803222,Stef'distribu,ChIJLxQXhDvutRIR-Z3XyCAiXl8,"[u'grocery_or_supermarket', u'food', u'store', u'point_of_interest', u'establishment']"
0,43.8930329,4.8798551,SAB Fruits,ChIJnwPnZDzutRIR8Vtqjj4nLT8,"[u'point_of_interest', u'establishment']"
0,43.8653908,4.8846273,HOM'FORMS,ChIJz2nZGNvvtRIRysAK6QFFYcw,"[u'health', u'point_of_interest', u'establishment']"
0,43.8619784,4.8793638,Galvani Fabien,ChIJD9_iIrjvtRIRiI99NHlgY44,"[u'electrician', u'point_of_interest', u'establishment']"
0,43.861814,4.879807,Maccari Thierry,ChIJBWSPusPvtRIRZ0G9UY7Y9fc,"[u'point_of_interest', u'establishment']"
0,43.860625,4.882875,Notre-Dame de Vaquières,ChIJk5TW08LvtRIR8eHbjp5DhMY,"[u'church', u'place_of_worship', u'point_of_interest', u'establishment']"
0,43.8653908,4.8846273,Chasson Alexandra,ChIJz2nZGNvvtRIRbbvq8qptBNM,"[u'point_of_interest', u'establishment']"
0,43.8653908,4.8846273,Service Bien Etre,ChIJz2nZGNvvtRIR9XdwE95sBV8,"[u'point_of_interest', u'establishment']"
0,43.858361,4.8790999,Teyssier-colin Perez Michele,ChIJndNQ5unvtRIR7DZv1UK5aPg,"[u'point_of_interest', u'establishment']"
0,43.8660392,4.88468,Sci la Figuiere,ChIJs2TS5trvtRIRZD6dUkzzO8M,"[u'point_of_interest', u'establishment']"
0,43.8635754,4.8849975,Roggi Yves,ChIJ6T80Y9vvtRIRoASwIbxq6V0,"[u'point_of_interest', u'establishment']"
0,43.859381,4.882429,Cte reg halter musc forc athl,ChIJEfLuusLvtRIRzsXThDMdKkM,"[u'point_of_interest', u'establishment']"
0,43.85938,4.88243,Reynaud Lionnel Tulio Marcel,ChIJz-zuusLvtRIRFwaxDks3wXw,"[u'point_of_interest', u'establishment']"
0,43.85938,4.88243,Divinia,ChIJnYUnxNvvtRIRtI9LdSCXdxk,"[u'food', u'point_of_interest', u'establishment']"
0,43.8670442,4.8851883,Ricard Serge,ChIJVdBiktrvtRIRZi2620sep0A,"[u'point_of_interest', u'establishment']"
0,43.8647425,4.8874137,Leclercq Nicolas,ChIJnYUnxNvvtRIRJq0DCsppgQE,"[u'painter', u'point_of_interest', u'establishment']"
0,43.8613911,4.8011541,Bougies de Provence - Artisan Cirier,ChIJd_gm77fotRIRCvHSscs4Zlg,"[u'art_gallery', u'point_of_interest', u'establishment']"
0,43.8593488,4.7955738,Mas d'Estrebello,ChIJmb0vMLnotRIRbru7NXtFN4U,"[u'lodging', u'point_of_interest', u'establishment']"
