,Latitude,Longitude,Name,Place_id,Type
0,43.76015,4.950151,Eygalières,ChIJwyqUSYv7tRIRcAOX_aUZCAQ,"[u'locality', u'political']"
0,43.759366,4.959183,Mas Notre Dame,ChIJR6Lhbwr8tRIRnEA-lm3aTjw,"[u'lodging', u'point_of_interest', u'establishment']"
0,43.760695,4.951829,La Petite Table,ChIJvcSVqIn7tRIRDinB2M3RgVM,"[u'restaurant', u'bar', u'food', u'point_of_interest', u'establishment']"
0,43.7613817,4.9497114,Chez Emily,ChIJUbGzpq3AyRIRHCvp1_c_AV8,"[u'grocery_or_supermarket', u'food', u'store', u'point_of_interest', u'establishment']"
0,43.7608189,4.9498402,Valancogne Immobilier,ChIJTWVFGYn7tRIRvB3fh_AgUB8,"[u'real_estate_agency', u'point_of_interest', u'establishment']"
0,43.7594629,4.951341,Les Oliviers,ChIJL3FZ73X8tRIRfxk2DIjDlS8,"[u'campground', u'park', u'lodging', u'point_of_interest', u'establishment']"
0,43.7601429,4.9501455,Mairie,ChIJad5G-4n7tRIRm9XTXKD2N_A,"[u'city_hall', u'local_government_office', u'point_of_interest', u'establishment']"
0,43.762192,4.94777,Alpilles Luberon Immobilier,ChIJszrhTYj7tRIR6Hvmf17_P5c,"[u'real_estate_agency', u'point_of_interest', u'establishment']"
0,43.7612973,4.9497477,ACCENT IMMOBILIER,ChIJ6Waw7on7tRIRzd8GMAbIBac,"[u'real_estate_agency', u'travel_agency', u'point_of_interest', u'establishment']"
0,43.760993,4.949372,Le Jardin de Tim,ChIJibSqwon7tRIRJgNHQ-eUDWI,"[u'lodging', u'point_of_interest', u'establishment']"
0,43.7619609,4.9488849,MAJORDAMES IMMOBILIER,ChIJMfdNeAz8tRIRzwYi5ylO8Nc,"[u'real_estate_agency', u'travel_agency', u'point_of_interest', u'establishment']"
0,43.7570339,4.9517093,La Farandole,ChIJa4MJPHT8tRIRqtogewYLLP4,"[u'real_estate_agency', u'point_of_interest', u'establishment']"
0,43.7586453,4.9507797,Yvetodis,ChIJFbCt2XX8tRIRzYtEVQ-5jhY,"[u'book_store', u'grocery_or_supermarket', u'food', u'store', u'point_of_interest', u'establishment']"
0,43.7622756,4.9478183,AEC Immobilier,ChIJszrhTYj7tRIRa9TW7mCFNtU,"[u'real_estate_agency', u'point_of_interest', u'establishment']"
0,43.7605263,4.9516405,Vu Dinh Van,ChIJ43ipDor7tRIR_qXL_WWuQfc,"[u'grocery_or_supermarket', u'food', u'store', u'point_of_interest', u'establishment']"
0,43.7584785,4.9482918,aleth peyrot,ChIJy8r6Unb8tRIRkhnDimfMsHE,"[u'health', u'point_of_interest', u'establishment']"
0,43.7605263,4.9516405,Villard,ChIJ43ipDor7tRIRJYXMZfrFH-o,"[u'furniture_store', u'home_goods_store', u'store', u'point_of_interest', u'establishment']"
0,43.761435,4.951315,Bouteiller Pascale,ChIJtd4hGIr7tRIR5e9TrbrMgAw,"[u'health', u'point_of_interest', u'establishment']"
0,43.761261,4.949648,Crèche Attitude Li Petouset,ChIJBX1Z6Yn7tRIRX2ApDeXZ5Uc,"[u'school', u'point_of_interest', u'establishment']"
0,43.763888,4.9551,Mas de Chabaud,ChIJN4JNRov7tRIR9XG7STtf80k,"[u'sublocality_level_1', u'sublocality', u'political']"
0,43.754316,4.961122,Hotel La Bastide d'Eygalières,ChIJq9TsHQz8tRIRa_vxM77hwfU,"[u'lodging', u'restaurant', u'food', u'point_of_interest', u'establishment']"
0,43.755829,4.947699,Mas de la Machotte,ChIJ2xCJLHf8tRIRLioc2MNu_Ys,"[u'lodging', u'point_of_interest', u'establishment']"
0,43.757008,4.95159,ADMR d'Eygalières,ChIJa4MJPHT8tRIRUi8kz_hRGJY,"[u'point_of_interest', u'establishment']"
0,43.757008,4.95159,Quiedom,ChIJa4MJPHT8tRIRK993tLf66hQ,"[u'health', u'point_of_interest', u'establishment']"
0,43.755566,4.961545,Mas de Val Ample,ChIJEUzJ4Qv8tRIRfRnPLiBQApU,"[u'lodging', u'point_of_interest', u'establishment']"
0,43.757712,4.950179,Sarl Maison Bru,ChIJQ9Nihnb8tRIRiGsZy7ifqyM,"[u'point_of_interest', u'establishment']"
0,43.758411,4.953236,Acosta,ChIJuSB-qHX8tRIRv14xyu7Dw4c,"[u'electrician', u'point_of_interest', u'establishment']"
0,43.7579747,4.9591265,Soumille Alain,ChIJvc-WUQr8tRIR4MnTtxLmMRE,"[u'lodging', u'point_of_interest', u'establishment']"
0,43.76015,4.950151,Menuiserie Nicaise,ChIJN5cNA3b8tRIRX9Wq0Vjb6F4,"[u'point_of_interest', u'establishment']"
0,43.7601501,4.9501511,Mas des Cordeliers,ChIJO5cNA3b8tRIRqwlwhCR9WEU,"[u'travel_agency', u'real_estate_agency', u'point_of_interest', u'establishment']"
0,43.758414,4.949029,Les Molassis,ChIJ7wKMW3b8tRIRhfsyo3b_QtM,"[u'sublocality_level_1', u'sublocality', u'political']"
0,43.776098,4.95023,Mas des Poulains,ChIJEQQg3pb7tRIR8xVOWZEPXZQ,"[u'lodging', u'point_of_interest', u'establishment']"
0,43.772053,4.945146,Jardin de l'alchimiste,ChIJrZ-BhJr7tRIR8lbv3wN1WyE,"[u'park', u'point_of_interest', u'establishment']"
0,43.7709263,4.943912,Chambre d'hote CARLEO Colette,ChIJN5cNA3b8tRIRyb-kUaOefhs,"[u'lodging', u'point_of_interest', u'establishment']"
0,43.775968,4.948443,Les Cinq Terres,ChIJEQQg3pb7tRIR4nCw8XtWJiw,"[u'point_of_interest', u'establishment']"
0,43.768833,4.945635,"Mas d'Olivane, Eygalières",ChIJuVNpi4_7tRIRvZgTVy8HewQ,"[u'lodging', u'point_of_interest', u'establishment']"
0,43.767642,4.962512,Le mas Meynier,ChIJkzQhvfH7tRIREvDYb2t4eDY,"[u'point_of_interest', u'establishment']"
0,43.7625428,4.9485626,KP 2,ChIJvcSVqIn7tRIR91jb81nQLRg,"[u'general_contractor', u'point_of_interest', u'establishment']"
0,43.774002,4.950825,Maillere Investissements,ChIJ-dDe4pP7tRIR8umjL4WztWk,"[u'point_of_interest', u'establishment']"
0,43.77206,4.9447,Pauleau Denis,ChIJ3wOvj5r7tRIRzrDbZAqcVeM,"[u'food', u'point_of_interest', u'establishment']"
0,43.775968,4.948443,Hardel Patrice Alain Jean,ChIJEQQg3pb7tRIRsy9ef-D_0No,"[u'car_repair', u'point_of_interest', u'establishment']"
0,43.775968,4.948443,Montfort Martial,ChIJEQQg3pb7tRIRwdoI1qs7fU4,"[u'food', u'point_of_interest', u'establishment']"
0,43.775968,4.948443,Pecoult Thierry,ChIJEQQg3pb7tRIRLxJW3JLlY0o,"[u'food', u'point_of_interest', u'establishment']"
0,43.775968,4.948443,Chabas Freres,ChIJEQQg3pb7tRIRV8ihV7ICKSc,"[u'point_of_interest', u'establishment']"
0,43.767613,4.960336,unnamed,ChIJ9y4VMPL7tRIR8nE9AsyW8xg,"[u'point_of_interest', u'establishment']"
0,43.7639706,4.9550455,Brun Jocelyn,ChIJN4JNRov7tRIRjOT-vV4Gpyo,"[u'food', u'point_of_interest', u'establishment']"
0,43.763867,4.948786,13810,ChIJCyKcF4n7tRIRlVZMahmchFE,"[u'church', u'place_of_worship', u'point_of_interest', u'establishment']"
0,43.763675,4.949317,13810,ChIJ1c5YE4n7tRIR8ALi5Aln2R4,"[u'church', u'place_of_worship', u'point_of_interest', u'establishment']"
0,43.7636735,4.9484601,Topsy,ChIJTWVFGYn7tRIRVWH8BrRyx3s,"[u'real_estate_agency', u'point_of_interest', u'establishment']"
0,43.763717,4.968309,Le Mas du Pastre,ChIJDRmlu4n7tRIRBuvwZWUHgGs,"[u'lodging', u'point_of_interest', u'establishment']"
0,43.762228,4.966863,Chapelle Saint-Sixte,ChIJad5G-4n7tRIRcp9fXvCi9bQ,"[u'church', u'place_of_worship', u'point_of_interest', u'establishment']"
0,43.7665149,4.965359,Mas Saint-Claude,ChIJL9y4jvD7tRIRTZjlFg-EGDo,"[u'lodging', u'point_of_interest', u'establishment']"
0,43.761795,4.960815,La Jasse,ChIJ8-Uj1_X7tRIRzNvjo4EUL3k,"[u'restaurant', u'food', u'point_of_interest', u'establishment']"
0,43.7605263,4.9516405,Camping les Oliviers,ChIJ43ipDor7tRIR_p8gjPF6NmU,"[u'campground', u'park', u'lodging', u'point_of_interest', u'establishment']"
0,43.7639285,4.9706552,Roumanille Maurice,ChIJB4gsWvn7tRIRnSNKtgomkg4,"[u'point_of_interest', u'establishment']"
0,43.7609845,4.9507417,L Epicurien Pierre,ChIJCepGHYr7tRIRMIx62uqG2l8,"[u'point_of_interest', u'establishment']"
0,43.7606313,4.9507018,Bistrot l'Aubergine,ChIJ-ez4AYr7tRIRW_2iuAY2xxU,"[u'restaurant', u'food', u'point_of_interest', u'establishment']"
0,43.7607497,4.9502023,Post Office,ChIJad5G-4n7tRIRXjiwlji4qK0,"[u'post_office', u'finance', u'point_of_interest', u'establishment']"
0,43.7613067,4.949755,Duparcq Ludivine,ChIJBX1Z6Yn7tRIRh7E5n75vDrY,"[u'beauty_salon', u'point_of_interest', u'establishment']"
0,43.7613067,4.949755,Aqualéria,ChIJBX1Z6Yn7tRIRxgE3i1BdiN0,"[u'convenience_store', u'food', u'store', u'point_of_interest', u'establishment']"
0,43.7611621,4.9495842,MISS LOUISE,ChIJ_wMa6Yn7tRIRQ-chtS7YuGs,"[u'clothing_store', u'store', u'point_of_interest', u'establishment']"
0,43.762023,4.948935,Belle En Provence,ChIJlT-lu4n7tRIR5tgQs-KPz7I,"[u'hair_care', u'point_of_interest', u'establishment']"
0,43.762023,4.948935,Dolce Vita Assurances,ChIJlT-lu4n7tRIRD752LVZJgQM,"[u'insurance_agency', u'point_of_interest', u'establishment']"
0,43.755721,4.936294,L'auberge de l'aubergine,ChIJM0Oh5338tRIRP2Dd1z4KnRY,"[u'lodging', u'point_of_interest', u'establishment']"
0,43.76147,4.941508,Web Alpilles,ChIJKyOLQof7tRIRM9GpJkFp218,"[u'point_of_interest', u'establishment']"
0,43.754055,4.960294,La Garrigue des Alpilles,ChIJU7taFgz8tRIRFQsuM9RDZGU,"[u'lodging', u'point_of_interest', u'establishment']"
0,43.754423,4.9612981,Le Lézard gourmand,ChIJmf9Apg78tRIRMVbvdMv779Q,"[u'restaurant', u'food', u'point_of_interest', u'establishment']"
0,43.7561173,4.9572504,Starck Jean-François,ChIJX-lwQgv8tRIRX7EhEx15FGw,"[u'real_estate_agency', u'point_of_interest', u'establishment']"
0,43.7561173,4.9572504,Messier Gilles,ChIJX-lwQgv8tRIRUOoIUTuGf0I,"[u'real_estate_agency', u'point_of_interest', u'establishment']"
0,43.756073,4.957142,Blanc Murielle,ChIJX-lwQgv8tRIRgLzg5eT9ABM,"[u'point_of_interest', u'establishment']"
0,43.7556538,4.9670052,SCI La Garrigue,ChIJl2nsEAb8tRIRNHESaubVSLk,"[u'point_of_interest', u'establishment']"
0,43.7579747,4.9591265,Leclercq Bernard,ChIJvc-WUQr8tRIRseUh_dfi87g,"[u'point_of_interest', u'establishment']"
0,43.7579747,4.9591265,SCI Mas de Pestelade,ChIJvc-WUQr8tRIRbOOrDnm3-jo,"[u'real_estate_agency', u'point_of_interest', u'establishment']"
0,43.759366,4.959183,Grange Arnaud,ChIJR6Lhbwr8tRIRctmfEbjUjfY,"[u'general_contractor', u'point_of_interest', u'establishment']"
0,43.759454,4.9591576,Souvestre Jean Luc,ChIJR6Lhbwr8tRIRPdUlFdpYs_g,"[u'electrician', u'point_of_interest', u'establishment']"
0,43.759454,4.9591576,Lorent Christian,ChIJR6Lhbwr8tRIRpVtfRC6JESs,"[u'point_of_interest', u'establishment']"
0,43.757953,4.9500075,Les Roures,ChIJd5GJh3b8tRIRrFhOIqNFfU4,"[u'point_of_interest', u'establishment']"
0,43.757008,4.95159,Résidence Lalèque,ChIJa4MJPHT8tRIREFYBAXjGTzQ,"[u'point_of_interest', u'establishment']"
0,43.757008,4.95159,Maison de Retraite La Sousto,ChIJa4MJPHT8tRIRpKC0_hWnSC8,"[u'health', u'point_of_interest', u'establishment']"
0,43.7570339,4.9517093,Pelissier Daniel Raymond,ChIJa4MJPHT8tRIRSNr9VnG9o_8,"[u'point_of_interest', u'establishment']"
0,43.7570339,4.9517093,Villard Renaud,ChIJa4MJPHT8tRIRTlz3G3jDxNs,"[u'point_of_interest', u'establishment']"
0,43.7586453,4.9507797,Pulh N Diaye Monique Madeleine Ma,ChIJDXPTiX_7tRIRd17REituGFU,"[u'food', u'point_of_interest', u'establishment']"
0,43.758658,4.950853,Imbert Marthe,ChIJBcGt2XX8tRIRyiM2nACwISg,"[u'point_of_interest', u'establishment']"
0,43.7606066,4.9473241,Bertoni Bruno Jean Victor,ChIJldBDJoj7tRIR7Qa213wUq6E,"[u'real_estate_agency', u'point_of_interest', u'establishment']"
0,43.7606066,4.9473241,Leclercq Bernard,ChIJldBDJoj7tRIRBxei_fp6v1g,"[u'point_of_interest', u'establishment']"
0,43.7815132,4.9458459,Monique Marcellin la Sarriette,ChIJI6AjEL37tRIRVULhmVa5qn0,"[u'lodging', u'point_of_interest', u'establishment']"
0,43.781458,4.945864,"La Sarriette, Promenades et Randonnées a cheval Alpilles",ChIJz2NOBb37tRIRMcwTMgB-drM,"[u'travel_agency', u'point_of_interest', u'establishment']"
0,43.783124,4.956089,Provence Jardin Pépinieres,ChIJPXaxisH7tRIRIvlwGvUy3zw,"[u'food', u'point_of_interest', u'establishment']"
0,43.783712,4.950778,Ecole Européenne d'Hippocoaching,ChIJl0uNFbn7tRIR3A7rFtq4lJs,"[u'point_of_interest', u'establishment']"
0,43.786997,4.950478,M CREATION Ebenisterie Ferronnerie d 'Art,ChIJLXQOKbr7tRIR_0D3GhBRTrg,"[u'furniture_store', u'home_goods_store', u'store', u'point_of_interest', u'establishment']"
0,43.786859,4.951763,Casadisagne,ChIJI7Mzmbn7tRIREb5Gn5cuztY,"[u'home_goods_store', u'store', u'point_of_interest', u'establishment']"
0,43.786859,4.951763,Villard Christian,ChIJI7Mzmbn7tRIRhzUZLnLpZuE,"[u'point_of_interest', u'establishment']"
0,43.78704,4.95138,Centre contrôle technique Norisko Auto,ChIJp3-6psD7tRIR2YWoXkX6AU4,"[u'car_repair', u'point_of_interest', u'establishment']"
0,43.7869158,4.951615,Rancou Christian,ChIJI7Mzmbn7tRIRwXNZL_DKKsI,"[u'point_of_interest', u'establishment']"
0,43.786859,4.951763,Ebenisterie M Creation,ChIJu1oymbn7tRIRfDh2He_JUKk,"[u'point_of_interest', u'establishment']"
0,43.7825453,4.9626873,pernix maurice,ChIJVaRJzMP7tRIRUaOZjbd6aB8,"[u'food', u'point_of_interest', u'establishment']"
0,43.7882107,4.9530238,Provence Dépôt vente,ChIJDXPTiX_7tRIRFokuMIma2ao,"[u'store', u'point_of_interest', u'establishment']"
0,43.7882132,4.9557013,Richel Groupe,ChIJA9S0VI_7tRIRdPOhJ_PLHrA,"[u'point_of_interest', u'establishment']"
0,43.7877203,4.9570592,Richel Serres De France,ChIJT4VG6sf7tRIRAG1rKN7H6aw,"[u'store', u'point_of_interest', u'establishment']"
0,43.7833334,4.951036,Centre Equestre d'Eygalières,ChIJo0YFpL77tRIR8qY9BgXHm1Y,"[u'point_of_interest', u'establishment']"
0,43.7830839,4.9560265,Hernandez Gérard,ChIJp3-6psD7tRIR-p2ZUX15quE,"[u'furniture_store', u'general_contractor', u'home_goods_store', u'store', u'point_of_interest', u'establishment']"
0,43.806056,4.948633,Mollégès,ChIJN06iYEn6tRIRjeqLE_6wYEU,"[u'locality', u'political']"
0,43.777786,4.966013,Le Mas du Bout',ChIJ37IIDOj7tRIRq05E-9KTiwk,"[u'lodging', u'point_of_interest', u'establishment']"
0,43.7702695,4.9626514,Communaute des Soeurs du Monastere Epiphanie,ChIJ08omvfH7tRIRAVTv7PPutxI,"[u'point_of_interest', u'establishment']"
0,43.767642,4.962512,Dijol Patrice,ChIJ08omvfH7tRIR8zyQlT3g3wY,"[u'food', u'point_of_interest', u'establishment']"
0,43.7676416,4.9625115,De Poix Gilles,ChIJ08omvfH7tRIR8r7YWJSzr3o,"[u'point_of_interest', u'establishment']"
0,43.764551,4.961331,13810,ChIJa4Zuq_b7tRIRA0spbhJY-gc,"[u'church', u'place_of_worship', u'point_of_interest', u'establishment']"
0,43.763505,4.960079,unnamed,ChIJNakBPvT7tRIRuyZ9pc9fm-4,"[u'point_of_interest', u'establishment']"
0,43.7752484,4.9359952,Camping Le Pesquié,ChIJd1NK4p37tRIRd6mzX-7aiAM,"[u'campground', u'rv_park', u'park', u'lodging', u'point_of_interest', u'establishment']"
0,43.770586,4.939006,Lionel Isouard,ChIJDc-ItZz7tRIRV_aYaL1UNGY,"[u'point_of_interest', u'establishment']"
0,43.77227,4.937936,Isouard Lionel,ChIJSzq4_Jz7tRIRtRco_jdZnek,"[u'point_of_interest', u'establishment']"
0,43.7662233,4.9429382,Pelissier Monique Marcelle,ChIJBXyQzIX7tRIRhPnpNMn8aLc,"[u'point_of_interest', u'establishment']"
0,43.776616,4.942355,Tessier Patrice,ChIJCxdFDpn7tRIRnx8QOVtjaAE,"[u'car_repair', u'point_of_interest', u'establishment']"
0,43.7751252,4.9369402,La Picholine,ChIJJ_xL2J37tRIR2sSthUEZOGk,"[u'point_of_interest', u'establishment']"
0,43.7751596,4.9359759,Armand Kerwich Arlette Marie,ChIJd1NK4p37tRIR7rodcmZqMdA,"[u'amusement_park', u'point_of_interest', u'establishment']"
0,43.7752484,4.9359952,Berguet Philippe,ChIJszrhTYj7tRIR9m1sqSZJt-A,"[u'painter', u'real_estate_agency', u'point_of_interest', u'establishment']"
0,43.7639285,4.9706552,Mas de la Chapelle Saint Sixte SCI,ChIJB4gsWvn7tRIRRXuVO39R4dQ,"[u'point_of_interest', u'establishment']"
0,43.7639285,4.9706552,Roche Marc Alain Marcel Marie,ChIJB4gsWvn7tRIRZ0JdpsG3oGA,"[u'point_of_interest', u'establishment']"
0,43.7639285,4.9706552,Sci Mousses Et Joncs,ChIJB4gsWvn7tRIREsGVT_zeyFk,"[u'point_of_interest', u'establishment']"
0,43.7639285,4.9706552,Hiero,ChIJB4gsWvn7tRIRS9-6Zpco_gA,"[u'point_of_interest', u'establishment']"
0,43.763929,4.970655,Sarl Marlene,ChIJB4gsWvn7tRIRMSmqbZtBnuI,"[u'restaurant', u'food', u'point_of_interest', u'establishment']"
0,43.7561746,4.9709214,MacDid - Didier GARNIER,ChIJZyPNyAb8tRIR6d0afFmxL-w,"[u'point_of_interest', u'establishment']"
0,43.7597118,4.9594581,Mas Blanc holiday villa,ChIJh3yIeQr8tRIRJFacf-08VQQ,"[u'travel_agency', u'real_estate_agency', u'point_of_interest', u'establishment']"
0,43.788652,4.831343,Saint-Rémy-de-Provence,ChIJ80hgrDHktRIR3XcOUlvR8rU,"[u'locality', u'political']"
0,43.7592965,4.9343419,Mas des Cordeliers,ChIJ94qRb4D8tRIRexDDDdaw-Qk,"[u'travel_agency', u'real_estate_agency', u'point_of_interest', u'establishment']"
0,43.7627349,4.9350948,Fradier Laurent,ChIJDXPTiX_7tRIRwtMm-5bkVFY,"[u'general_contractor', u'point_of_interest', u'establishment']"
0,43.7626471,4.935068,Sci Mas de la Vallongue,ChIJDXPTiX_7tRIRTQqOmC1qeb4,"[u'point_of_interest', u'establishment']"
0,43.7626471,4.935068,Brustel,ChIJDXPTiX_7tRIRw8ol-HsGPbo,"[u'point_of_interest', u'establishment']"
0,43.7627349,4.9350948,Pitras Julien,ChIJDXPTiX_7tRIRd_zdV4Lk1s8,"[u'general_contractor', u'point_of_interest', u'establishment']"
0,43.7627349,4.9350948,Wageley Satow Jane Elizabeth,ChIJDXPTiX_7tRIRINTxib0RP7A,"[u'real_estate_agency', u'point_of_interest', u'establishment']"
0,43.7627349,4.9350948,Ecole Mixte,ChIJDXPTiX_7tRIRBOJAaQBn46g,"[u'point_of_interest', u'establishment']"
0,43.7627349,4.9350948,Earl Charrade,ChIJDXPTiX_7tRIR4j0ID1C76n4,"[u'food', u'point_of_interest', u'establishment']"
0,43.7627349,4.9350948,SCF Agathe Delage,ChIJDXPTiX_7tRIRwlS-xtaFL08,"[u'real_estate_agency', u'point_of_interest', u'establishment']"
0,43.7627349,4.9350948,Acosta Antonio,ChIJDXPTiX_7tRIRG02Cdupj-To,"[u'general_contractor', u'point_of_interest', u'establishment']"
0,43.766425,4.93434,Yago Frédérique,ChIJG9Kdunj7tRIRXCRO5JAsT4o,"[u'point_of_interest', u'establishment']"
0,43.7624556,4.9419531,Breton David,ChIJUxO6EIf7tRIRNhxscnLkx5Q,"[u'general_contractor', u'point_of_interest', u'establishment']"
0,43.7624556,4.9419531,Desgranges Anne-Marie,ChIJUxO6EIf7tRIRGuxRKimESFA,"[u'point_of_interest', u'establishment']"
0,43.7624556,4.9419531,Cousquer Friederike,ChIJUxO6EIf7tRIRxSySNbDIrUM,"[u'point_of_interest', u'establishment']"
0,43.7625452,4.9419425,Sci Du Mistral Gagnant,ChIJUxO6EIf7tRIRfsjh4BESX_A,"[u'point_of_interest', u'establishment']"
0,43.7662374,4.9281149,Miels Joubert,ChIJjRB4j3v7tRIRceZn3MPkrAg,"[u'food', u'point_of_interest', u'establishment']"
0,43.695299,5.02967,Eyguières,ChIJ89CkAEr-tRIRYAOX_aUZCAQ,"[u'locality', u'political']"
0,43.752722,4.922686,Domaine de la Vallongue,ChIJDXPTiX_7tRIROmIXq1BoWSw,"[u'food', u'point_of_interest', u'establishment']"
0,43.754215,4.925746,Fort d'Ancise,ChIJo0ujIIX8tRIRFLS1PH4r4jA,"[u'premise', u'point_of_interest', u'establishment']"
0,43.786906,4.9603512,Le Mas du Plan,ChIJ--lBP1NStRIRVmS7VJ2V1kk,"[u'lodging', u'point_of_interest', u'establishment']"
0,43.7814918,4.9619953,Vallayer Michael,ChIJVaRJzMP7tRIRHF1jaiL1wRA,"[u'general_contractor', u'point_of_interest', u'establishment']"
0,43.784373,4.962722,Roumieux Pascal,ChIJj0dybsT7tRIR5PF_Bvhh6Lk,"[u'point_of_interest', u'establishment']"
0,43.784373,4.962722,Daidai Hamid,ChIJ61NybsT7tRIRYyVjG6is_bg,"[u'food', u'point_of_interest', u'establishment']"
0,43.784373,4.962722,Giarratano Pecout Josephine Angele,ChIJ61NybsT7tRIRRwKi_Md1rHk,"[u'point_of_interest', u'establishment']"
0,43.7831159,4.9561429,Transports Boudon Sebastien,ChIJp3-6psD7tRIR5QAc5qh6PUU,"[u'point_of_interest', u'establishment']"
0,43.7830839,4.9560265,J.m.r Earl,ChIJp3-6psD7tRIRcJFJpS8z5po,"[u'food', u'point_of_interest', u'establishment']"
0,43.7830839,4.9560265,Pacchiodo Barriol Therese Dominique,ChIJp3-6psD7tRIRipR9hZrIODI,"[u'food', u'point_of_interest', u'establishment']"
0,43.7830839,4.9560265,Blanc Michel,ChIJp3-6psD7tRIRWdPaRN-jtSI,"[u'food', u'point_of_interest', u'establishment']"
0,43.7830839,4.9560265,Grimaud Chantal,ChIJp3-6psD7tRIR6Igf85fBmBI,"[u'health', u'point_of_interest', u'establishment']"
0,43.784588,4.9522435,Mas du Magnan,ChIJ35vYNrn7tRIRw34B1o6CKVw,"[u'point_of_interest', u'establishment']"
0,43.785756,4.956827,Mas de Maureau,ChIJz0P5ccf7tRIRS6z8z4MCWVQ,"[u'sublocality_level_1', u'sublocality', u'political']"
0,43.781404,4.945739,"Marcellin René, la sarriette",ChIJnel0T737tRIR1wQ3ANt8Jgo,"[u'travel_agency', u'point_of_interest', u'establishment']"
0,43.78424,4.939116,Gautier Marie-France,ChIJV5FRSKH7tRIRGofnAUvTknw,"[u'point_of_interest', u'establishment']"
0,43.777003,4.930357,Les Jardins d'Eygalières,ChIJ17jRc3T7tRIR5IUj7f5DaP8,"[u'general_contractor', u'point_of_interest', u'establishment']"
0,43.7752484,4.9359952,Le Mas de Cousté,ChIJd1NK4p37tRIRz6lMorhKaoY,"[u'point_of_interest', u'establishment']"
0,43.7752484,4.9359952,Uffren Michel,ChIJd1NK4p37tRIRLiPyI1abn2Q,"[u'general_contractor', u'point_of_interest', u'establishment']"
0,43.776345,4.926506,L'Olivette,ChIJM9D6MnL7tRIRKRGjbDgejns,"[u'food', u'point_of_interest', u'establishment']"
0,43.791223,5.038677,Orgon,ChIJO0Dmi-_4tRIRYAGX_aUZCAQ,"[u'locality', u'political']"
0,43.707188,4.947103,Aureille,ChIJZeXNfpj9tRIRXhxghP8hHEU,"[u'locality', u'political']"
0,43.788685,4.954035,CAVE DU MAS DE LONGCHAMP,ChIJMTPcqU76tRIRkq3byMEpaso,"[u'food', u'point_of_interest', u'establishment']"
0,43.789957,4.964089,cape d'allaitement Lily et Lulu,ChIJ-dVrpM_7tRIRP_CcuwRrU8A,"[u'clothing_store', u'store', u'point_of_interest', u'establishment']"
0,43.7925484,4.9599401,Les poulettes de bazaine,ChIJvWa0Q8n7tRIRSHNiRfu2mZE,"[u'food', u'point_of_interest', u'establishment']"
0,43.788001,4.955106,CMR Piscines & Loisirs,ChIJ4--6Ebj7tRIRw3fw9v5CTSg,"[u'general_contractor', u'point_of_interest', u'establishment']"
0,43.80871,4.99713,Plan-d'Orgon,ChIJHx2jIpj5tRIRW3LNOMf1Oek,"[u'locality', u'political']"
0,43.7860367,4.9318153,Mas Grimaud,ChIJ2dcScQn7tRIRTXG7QIHGwSU,"[u'lodging', u'point_of_interest', u'establishment']"
0,43.7889712,4.9333853,MAS PAPABIOU,ChIJW2szbAj7tRIRmRFF1FkzEPc,"[u'point_of_interest', u'establishment']"
0,43.786859,4.951763,Baud Stéphane,ChIJI7Mzmbn7tRIREddiFiaB0OU,"[u'point_of_interest', u'establishment']"
0,43.786859,4.951763,C2A Batiment,ChIJu1oymbn7tRIRjZqvLiYTwdE,"[u'general_contractor', u'point_of_interest', u'establishment']"
0,43.786859,4.951763,Exode,ChIJI7Mzmbn7tRIR3lVoSloA1cE,"[u'point_of_interest', u'establishment']"
0,43.786859,4.951763,Richard Caprice Rose,ChIJu1oymbn7tRIRAt6KP7Z76rU,"[u'point_of_interest', u'establishment']"
0,43.7831057,4.9339835,Augier Claire,ChIJk_wGZgr7tRIR0-38i91lwMo,"[u'food', u'point_of_interest', u'establishment']"
0,43.7831057,4.9339835,Lascombe Armand,ChIJk_wGZgr7tRIRHqPUEhVSM3g,"[u'food', u'point_of_interest', u'establishment']"
0,43.7831057,4.9339835,Roumanille Clement,ChIJk_wGZgr7tRIRl5sQb99mBDc,"[u'point_of_interest', u'establishment']"
0,43.7831096,4.934108,Jardins Paysager D Autrefois,ChIJk_wGZgr7tRIRKdvNoCau3IA,"[u'food', u'point_of_interest', u'establishment']"
0,43.7831096,4.934108,Lascombe Laurent,ChIJk_wGZgr7tRIRHXv0A0zU83s,"[u'food', u'point_of_interest', u'establishment']"
0,43.7858257,4.9321844,Hôtel Mas de la Brune,ChIJ2dcScQn7tRIRMOQ3RqvpPMc,"[u'lodging', u'point_of_interest', u'establishment']"
0,43.7858257,4.9321844,Pramparo Jean Louis,ChIJ2dcScQn7tRIRxMmI53ADuk8,"[u'point_of_interest', u'establishment']"
0,43.771093,4.918699,Domaine d'Eole,ChIJO-rTi2X7tRIResqh0JUaQ2U,"[u'food', u'point_of_interest', u'establishment']"
0,43.737684,4.919339,Mas de Verger,ChIJ3RapVen8tRIR2d4gHZIAK1g,"[u'premise', u'point_of_interest', u'establishment']"
0,43.688994,4.871352,Mouriès,ChIJLy9sIpzitRIRzxFeOr1Taus,"[u'locality', u'political']"
0,43.7897828,4.9739417,Barillon Pierre,ChIJe0KMB9f7tRIRaYR1Vbnfz74,"[u'car_dealer', u'car_repair', u'store', u'point_of_interest', u'establishment']"
0,43.789783,4.973942,Resto Grill,ChIJe0KMB9f7tRIRSF0IbpjDcAI,"[u'restaurant', u'food', u'point_of_interest', u'establishment']"
0,43.789846,4.97403,Garage HALLEUR Restauration Véhicules Anciens,ChIJhUKMB9f7tRIRsVg0WdkCS-M,"[u'car_repair', u'point_of_interest', u'establishment']"
0,43.7897828,4.9739417,Agi Services,ChIJe0KMB9f7tRIRp4DRgXNavEA,"[u'electronics_store', u'store', u'point_of_interest', u'establishment']"
0,43.7897828,4.9739417,Energy Fun Music,ChIJe0KMB9f7tRIRUO-n2P_SBCY,"[u'point_of_interest', u'establishment']"
0,43.7899392,4.9740944,L'Aïchat M'alain,ChIJe0KMB9f7tRIRIbd2I8ZFP4g,"[u'store', u'point_of_interest', u'establishment']"
0,43.7944397,4.9744038,Comasud,ChIJPY_Ts9X7tRIRvtbJUxZIcDY,"[u'store', u'point_of_interest', u'establishment']"
0,43.7943559,4.9743585,Point P Provence,ChIJPY_Ts9X7tRIRF7sWQ9DtcSs,"[u'point_of_interest', u'establishment']"
0,43.7897828,4.9739417,Rn 7 Autos Saint Andiol,ChIJe0KMB9f7tRIRY6rhz6qH6-w,"[u'car_dealer', u'car_repair', u'store', u'point_of_interest', u'establishment']"
0,43.7897828,4.9739417,Dourgnon Fabrice,ChIJe0KMB9f7tRIR2kFxQmSEjtY,"[u'car_repair', u'point_of_interest', u'establishment']"
0,43.7897828,4.9739417,Demichelis Laurent,ChIJe0KMB9f7tRIRTxCKYt-3X8Q,"[u'food', u'point_of_interest', u'establishment']"
0,43.7897828,4.9739417,Transfert Logistics Transfert Logistics,ChIJe0KMB9f7tRIRN5ln8tPOOoc,"[u'moving_company', u'point_of_interest', u'establishment']"
0,43.7897828,4.9739417,Lopez Stephane,ChIJe0KMB9f7tRIRoD7WQivfRH8,"[u'clothing_store', u'store', u'point_of_interest', u'establishment']"
0,43.7897828,4.9739417,Campus Provence,ChIJe0KMB9f7tRIRpw--5ebaglA,"[u'gas_station', u'point_of_interest', u'establishment']"
0,43.7897828,4.9739417,Chiarugi Rémi,ChIJe0KMB9f7tRIRpqvVpVjOh0c,"[u'electrician', u'point_of_interest', u'establishment']"
0,43.7881757,4.925182,Nencioni Michel,ChIJEUQo0Q_7tRIRTRnYNjo0VKk,"[u'food', u'point_of_interest', u'establishment']"
0,43.790326,4.923836,Earl Gibaudan,ChIJLUkNKRv7tRIRjet-lJVOBQU,"[u'food', u'point_of_interest', u'establishment']"
0,43.79269,4.9243,Bagarre Yves,ChIJqdWflZXktRIRhCxxhH2sXmI,"[u'food', u'point_of_interest', u'establishment']"
0,43.7830643,4.9211518,Bracciotti Pascal,ChIJe_OwoBP7tRIR4hBaTX8W3to,"[u'food', u'point_of_interest', u'establishment']"
0,43.7650694,4.9076841,Eglise De Saint Baudile,ChIJQaFNGFn7tRIRPuUWLajbVAA,"[u'church', u'place_of_worship', u'point_of_interest', u'establishment']"
0,43.778337,4.909825,Mas des Pilons,ChIJVyhA_UD7tRIRMNah0qWI_b0,"[u'real_estate_agency', u'point_of_interest', u'establishment']"
