,Latitude,Longitude,Name,Place_id,Type
0,43.725522,4.70941,Fontvieille,ChIJV35J3rXftRIRzjh6N8YM9x4,"[u'locality', u'political']"
0,43.7288724,4.7179116,Hôtel La Leiriero,ChIJ0cAZjM3ftRIRWByoZtvxwDY,"[u'lodging', u'restaurant', u'food', u'point_of_interest', u'establishment']"
0,43.724736,4.723615,Paintball Evasion,ChIJsyzXpV52thIRQIOU1yRt-do,"[u'point_of_interest', u'establishment']"
0,43.7270248,4.718654,Centre Aéré,ChIJV7Hwuc7ftRIRi5eetoRDaN8,"[u'point_of_interest', u'establishment']"
0,43.7292826,4.7196314,La Belle Arlesienne,ChIJ4zNiVtLftRIRFytzclDtLOE,"[u'restaurant', u'bar', u'food', u'point_of_interest', u'establishment']"
0,43.723825,4.718369,Camping Les Pins,ChIJy6Q0PNDftRIRqsMMmxTvCX0,"[u'campground', u'park', u'lodging', u'point_of_interest', u'establishment']"
0,43.7261614,4.7139716,Le Château de Montauban,ChIJ3alS7c7ftRIR3A7cAxpMZCc,"[u'point_of_interest', u'establishment']"
0,43.7243317,4.7138858,Moulin Tissot,ChIJ70CvEM_ftRIRIvCX4wT_ye0,"[u'premise', u'point_of_interest', u'establishment']"
0,43.724755,4.719184,Mairie,ChIJ9-Ips9HftRIRs_kSK2Zwj1o,"[u'point_of_interest', u'establishment']"
0,43.7271789,4.7168413,Delbon,ChIJ4ZNphNHftRIRfJaGx7Zc5sY,"[u'food', u'point_of_interest', u'establishment']"
0,43.723293,4.712287,Moulin Ramet,ChIJExBHTc_ftRIRcBDa-Hubd94,"[u'premise', u'point_of_interest', u'establishment']"
0,43.728107,4.713483,Le Bel Oustau,ChIJC8kcI8zftRIRsfilZe-bIgQ,"[u'restaurant', u'bar', u'food', u'point_of_interest', u'establishment']"
0,43.7277452,4.7134117,Restaurant Lou Clavèu,ChIJCXmPGMzftRIRbJP5G7cLvZ4,"[u'restaurant', u'bar', u'food', u'point_of_interest', u'establishment']"
0,43.7274788,4.7164075,ugolini,ChIJvx82hNHftRIRwHPa_f0oTqI,"[u'point_of_interest', u'establishment']"
0,43.7266495,4.7195206,Gfa Jullien Deleuze,ChIJB2tBhNHftRIRafRQ89WnecA,"[u'point_of_interest', u'establishment']"
0,43.7224168,4.7174062,Agriva Fontvieille (Fontvieille),ChIJ_____8_ftRIRDmjw801tJ1E,"[u'point_of_interest', u'establishment']"
0,43.7268888,4.7199803,Tosoh Bioscience LLC,ChIJQSPZgdHftRIRnoK2APEfPEQ,"[u'health', u'point_of_interest', u'establishment']"
0,43.7271424,4.7183896,Abeilles Institut Médico Pédagogique,ChIJQ3gVHtLftRIRX196m96TTeI,"[u'point_of_interest', u'establishment']"
0,43.7271424,4.7183896,Trujas Madeleine,ChIJQ3gVHtLftRIRGD0Og5qsySE,"[u'food', u'point_of_interest', u'establishment']"
0,43.7294911,4.7214735,Moulin de la Coquille,ChIJM5iYddPftRIRonqBp4vIhs0,"[u'point_of_interest', u'establishment']"
0,43.7039124,4.7214072,Aqueduc de Barbegal,ChIJ5fdwleTftRIRT-jrcFBanFY,"[u'premise', u'point_of_interest', u'establishment']"
0,43.806044,4.65752,Tarascon,ChIJ49cp50zctRIR0P6W_aUZCAQ,"[u'locality', u'political']"
0,43.733832,4.725891,Chambre d'hotes en Provence le Mas d'Emilie,ChIJp7By9yretRIR_kPmbe_S5ZQ,"[u'lodging', u'point_of_interest', u'establishment']"
0,43.7337707,4.725945,Le mas d'Emilie,ChIJGdBn9iretRIRx8K26bsxa78,"[u'lodging', u'point_of_interest', u'establishment']"
0,43.7346443,4.7267165,Les Minotaures,ChIJN44BZS3etRIR7A1g-3QeF2s,"[u'lodging', u'point_of_interest', u'establishment']"
0,43.733119,4.721031,"Festival des Alpilles, chants du sol",ChIJbYcs8TLetRIRb-ZE621kYMs,"[u'point_of_interest', u'establishment']"
0,43.73298,4.721535,Festival des Alpilles,ChIJ384YvizetRIR6rEJpY2fRj8,"[u'point_of_interest', u'establishment']"
0,43.7361761,4.7159317,13990 FONTVIEILLE,ChIJDXtqPTLetRIR2L16uH-kNik,"[u'point_of_interest', u'establishment']"
0,43.7327577,4.7141971,Le Mas d'Emilie B&B de charme en Provence,ChIJPbxOJTPetRIRBR8PgSD6v7o,"[u'point_of_interest', u'establishment']"
0,43.727869,4.712341,Le Patio,ChIJPZGmB8zftRIRCht3E5nKUkg,"[u'restaurant', u'food', u'point_of_interest', u'establishment']"
0,43.7408423,4.7196365,Moulin à Huile du Mas St Jean,ChIJPZS_FTLetRIR04nMaNxguOw,"[u'point_of_interest', u'establishment']"
0,43.7273372,4.7088717,VILLA REGALIDO,ChIJn0I8gcnftRIRsZM2Mq3h020,"[u'lodging', u'point_of_interest', u'establishment']"
0,43.7223751,4.7026288,BEST WESTERN Hotel Le Val Majour,ChIJbcrZ-LnftRIRSOjVnfw8zp4,"[u'lodging', u'point_of_interest', u'establishment']"
0,43.73,4.71,Logis Auberge des Balastres,ChIJyVm9skretRIRaGZobKIy-g4,"[u'lodging', u'point_of_interest', u'establishment']"
0,43.726434,4.7073383,La Cuisine au Planet,ChIJb4zamcnftRIRkW5SpjAQ-BE,"[u'restaurant', u'food', u'point_of_interest', u'establishment']"
0,43.7260034,4.7089894,Silence Ca Pousse,ChIJOcOmt8nftRIR2OaUqsVzMVI,"[u'florist', u'store', u'point_of_interest', u'establishment']"
0,43.7258729,4.7095916,Immobilière des Alpilles,ChIJ2evt3rvftRIRPUBw33Y8Oc8,"[u'real_estate_agency', u'point_of_interest', u'establishment']"
0,43.726576,4.71013,L'Agence De Fontvieille,ChIJYzfTc8nftRIRGenjYUnIDW4,"[u'real_estate_agency', u'point_of_interest', u'establishment']"
0,43.7269413,4.7108242,Cave la Farandole,ChIJeWznZ8nftRIRnQNL84X0RYk,"[u'storage', u'point_of_interest', u'establishment']"
0,43.726393,4.708858,Eden Cinéma,ChIJT9RLlsnftRIRop71r9L8EWA,"[u'movie_theater', u'point_of_interest', u'establishment']"
0,43.7260051,4.7093224,Mairie,ChIJSURes8nftRIRgyQ3_j5Yqm4,"[u'city_hall', u'local_government_office', u'point_of_interest', u'establishment']"
0,43.72764,4.7096785,La table d'Adam,ChIJD_Iq-8vftRIRABRiq2eL4l4,"[u'restaurant', u'bar', u'food', u'point_of_interest', u'establishment']"
0,43.7270779,4.7098195,Webtv-tools,ChIJ0yJqeMnftRIRzCvz360mOn4,"[u'point_of_interest', u'establishment']"
0,43.676647,4.6277769,Arles,ChIJzRRIXQdythIRUAWX_aUZCAQ,"[u'locality', u'political']"
0,43.7035895,4.7213673,La meunerie hydraulique et les aqueducs romains de Barbegal,ChIJ10yEt-TftRIRmO_JiBL5Ev8,"[u'point_of_interest', u'establishment']"
0,43.7032192,4.7257734,Les Jardins de Cidamos,ChIJQRZ6bsnftRIRnLkqyBjkunw,"[u'food', u'point_of_interest', u'establishment']"
0,43.7042416,4.7219497,Aqueduc Romain de Barbegal,ChIJ2RC0ouTftRIRwzSypzn2hes,"[u'point_of_interest', u'establishment']"
0,43.7053061,4.7194013,Borelli Jean-Michel,ChIJIcIJBuXftRIRmvZ__dE-y7Q,"[u'point_of_interest', u'establishment']"
0,43.7053061,4.7194013,Raphael Jean,ChIJIcIJBuXftRIRdJUjxW6RH6w,"[u'point_of_interest', u'establishment']"
0,43.7053061,4.7194013,Deesign Entertainment,ChIJIcIJBuXftRIRQDZDMC90eI8,"[u'point_of_interest', u'establishment']"
0,43.7027626,4.7212051,Meunerie Romaine de Barbegal,ChIJd5-cN_vftRIRDOPkmzBgZBI,"[u'premise', u'point_of_interest', u'establishment']"
0,43.7226551,4.709779,ADMR de Fontvieille,ChIJE5MSKsbftRIRxOWj_oAaBDM,"[u'health', u'point_of_interest', u'establishment']"
0,43.7226844,4.7098967,Office du Tourisme,ChIJE5MSKsbftRIRkQ_U6LeDDtg,"[u'travel_agency', u'point_of_interest', u'establishment']"
0,43.7210427,4.712767,Le Moulin d'Alphonse Daudet,ChIJkSRt28XftRIRyn5skJSu3h8,"[u'premise', u'point_of_interest', u'establishment']"
0,43.741393,4.720143,Chapelle Saint-Jean,ChIJgavTfy_etRIRBxvR8glzQc8,"[u'church', u'place_of_worship', u'point_of_interest', u'establishment']"
0,43.7453499,4.7235353,Mas Saint-Joseph,ChIJIXXDmSbetRIRGPTtkQWdlhU,"[u'lodging', u'point_of_interest', u'establishment']"
0,43.741336,4.723091,location,ChIJ44mFAibetRIReCIlX3iAZKA,"[u'lodging', u'point_of_interest', u'establishment']"
0,43.7444463,4.7214011,Fleur Bleue au Coeur de mon Pere,ChIJ59hoOCTetRIRDBuhfjCJBe4,"[u'point_of_interest', u'establishment']"
0,43.742002,4.723355,unnamed,ChIJQV1QECbetRIRXuBwnmX8aj4,"[u'point_of_interest', u'establishment']"
0,43.7434041,4.7242837,Mas de l'Ange,ChIJn1G-FTLetRIRnPp5W9FVb7U,"[u'grocery_or_supermarket', u'food', u'store', u'point_of_interest', u'establishment']"
0,43.7444463,4.7214011,Berton Sophie,ChIJ59hoOCTetRIRNj2nul4p-VQ,"[u'point_of_interest', u'establishment']"
0,43.74446,4.721351,Lafforgue Bruno,ChIJq99oOCTetRIRbhYk-4TULKc,"[u'point_of_interest', u'establishment']"
0,43.74446,4.721351,Piettre,ChIJq99oOCTetRIR_gZsnwdKOY8,"[u'point_of_interest', u'establishment']"
0,43.7385091,4.7319371,Pépinière Fontvieille,ChIJFeXJTYLgtRIRTl4UzcUSIos,"[u'general_contractor', u'food', u'point_of_interest', u'establishment']"
0,43.7361371,4.7160439,Eurorepar Garage Du Moulin,ChIJl61LPDLetRIR9MVFx3Vz0VU,"[u'car_repair', u'point_of_interest', u'establishment']"
0,43.7358328,4.7422636,Bistrot Mogador,ChIJN8hA56XhtRIRjPOENRYwzoc,"[u'food', u'point_of_interest', u'establishment']"
0,43.733998,4.726395,Poulet Pascal,ChIJq-71XyretRIR0LN1ToNiPlo,"[u'food', u'point_of_interest', u'establishment']"
0,43.735808,4.74191,Château d'Estoublon,ChIJqam_yo7gtRIRxDrvFzSYQCk,"[u'food', u'point_of_interest', u'establishment']"
0,43.7295793,4.7214489,Maneville Girard Gisele,ChIJM5iYddPftRIRrXENY3rDysA,"[u'point_of_interest', u'establishment']"
0,43.7295793,4.7214489,S.a.p.m,ChIJM5iYddPftRIRdJj1iss2Oro,"[u'point_of_interest', u'establishment']"
0,43.7295793,4.7214489,Soler Alain,ChIJM5iYddPftRIREbvS5j93SXU,"[u'point_of_interest', u'establishment']"
0,43.7294911,4.7214735,Sirvent Amandine,ChIJM5iYddPftRIR_1pVzCY1k24,"[u'point_of_interest', u'establishment']"
0,43.733208,4.7203435,Ardem,ChIJ2ZXO5izetRIRHSURIs8OPHI,"[u'point_of_interest', u'establishment']"
0,43.733208,4.7203435,Vignaud Aurelien Gerard Henri,ChIJ2ZXO5izetRIRdOUbKniDhRU,"[u'food', u'point_of_interest', u'establishment']"
0,43.733259,4.720337,Masson Jean-Jacques,ChIJ6V7J5izetRIRel-AnDJbzV4,"[u'point_of_interest', u'establishment']"
0,43.735722,4.742367,Château d'Estoublon,ChIJJ6q0TIngtRIRHBFi5WAwV6U,"[u'sublocality_level_1', u'sublocality', u'political']"
0,43.7281066,4.7101359,L'Oustau Gourmand,ChIJ68bUz8vftRIRJkkvI8zRgS0,"[u'restaurant', u'food', u'point_of_interest', u'establishment']"
0,43.728987,4.744623,SARL J.B.V. Constructions,ChIJb5q9omHgtRIRMlFrw-oZn4k,"[u'general_contractor', u'point_of_interest', u'establishment']"
0,43.728117,4.745919,unnamed,ChIJg6EJ_mDgtRIR9kmQDrcBvV8,"[u'point_of_interest', u'establishment']"
0,43.718275,4.783751,Paradou,ChIJ41NuM6XhtRIRBkFuS7o7Zp8,"[u'locality', u'political']"
0,43.73,4.7,Logis Hostellerie de la Tour,ChIJ3W5N3bbftRIRVexDBYlfur4,"[u'lodging', u'point_of_interest', u'establishment']"
0,43.727285,4.7055364,Mas d'Ebene,ChIJ4fVdcbbftRIRJV_neoVCQCs,"[u'furniture_store', u'home_goods_store', u'store', u'point_of_interest', u'establishment']"
0,43.72478,4.710618,En ville à Fontvieille,ChIJAYOq5sjftRIRL1x_kOjxYlE,"[u'point_of_interest', u'establishment']"
0,43.724596,4.7088954,Lou Major Photo,ChIJW22FT8jftRIRtgGQ0lg_ei4,"[u'electronics_store', u'home_goods_store', u'store', u'point_of_interest', u'establishment']"
0,43.7261005,4.7091969,Caisse d'Epargne Provence Alpes Corse,ChIJy6MKpMnftRIR4Q-LKbbts1w,"[u'bank', u'atm', u'finance', u'point_of_interest', u'establishment']"
0,43.705486,4.743669,Cafe-Distridose,ChIJJ_m0zhbgtRIROBAumdkYPjo,"[u'food', u'store', u'point_of_interest', u'establishment']"
0,43.696461,4.714856,Château de Barbegal - Mariage Provence Château Chambres d'hôtes Séminaire Arles,ChIJXZT7H_fftRIRpAJZjo14LbY,"[u'lodging', u'point_of_interest', u'establishment']"
0,43.715304,4.697337,Residence Le Saint Victor,ChIJ_8Sz8KLYtRIRXsR2-AjbQuM,"[u'lodging', u'point_of_interest', u'establishment']"
0,43.719443,4.7017864,Atelier d'un Siège à l'Autre,ChIJ2evt3rvftRIRgDRIDkPkR0w,"[u'furniture_store', u'home_goods_store', u'store', u'point_of_interest', u'establishment']"
0,43.718142,4.698718,PILGERREISEN PROVENCE,ChIJn68xEJ_itRIRbX4AYe_F2bA,"[u'point_of_interest', u'establishment']"
0,43.718893,4.698757,Louis Chabran Taxi,ChIJE1TvervftRIRf6XWkGlSyPE,"[u'point_of_interest', u'establishment']"
0,43.719527,4.6989394,Atelier Florence B,ChIJT-wtc7vftRIRMAxAYs161OM,"[u'furniture_store', u'home_goods_store', u'store', u'point_of_interest', u'establishment']"
0,43.7196332,4.6991243,Atelier Florence B tapisserie d'ameublement,ChIJWzoSC7vftRIRw5STspeRoWs,"[u'point_of_interest', u'establishment']"
0,43.7083422,4.6973319,Sarl Les Jardins des Arcades,ChIJCd0hsJDftRIRBpeb6EherM4,"[u'general_contractor', u'point_of_interest', u'establishment']"
0,43.7080317,4.6975244,Domaine de Laforest,ChIJpbTSbprftRIRL9Asr7wlw_0,"[u'lodging', u'point_of_interest', u'establishment']"
0,43.7186951,4.6950563,Town De Fontvieille,ChIJLafNnaTftRIRxRyzEwxfhCY,"[u'school', u'point_of_interest', u'establishment']"
0,43.719472,4.701484,Mr Florent Federighi,ChIJD6Ng57vftRIRqmLlbQ_wZtg,"[u'point_of_interest', u'establishment']"
0,43.719472,4.701484,Sourdon Derbez Nicole Rose Juliette,ChIJIclg57vftRIRqSXnwDOLvYY,"[u'point_of_interest', u'establishment']"
0,43.718954,4.700099,Zatorski Cipriani Maryline,ChIJO2YqkLvftRIRn2nVOkiciLg,"[u'point_of_interest', u'establishment']"
0,43.7179024,4.6985478,Cardinaud Philippe,ChIJcT8sVbrftRIRVysljtxOjTs,"[u'health', u'point_of_interest', u'establishment']"
0,43.718893,4.698757,Noaro Chantal,ChIJ_8Sz8KLYtRIRJwIsTN243VA,"[u'health', u'point_of_interest', u'establishment']"
0,43.7208599,4.7049295,Buffard Laurent,ChIJV-xsUbjftRIRJ1au0jm41NM,"[u'point_of_interest', u'establishment']"
0,43.721081,4.7053459,Trinh Fabrice,ChIJp_A5W7jftRIRbjGHOmfLyEo,"[u'point_of_interest', u'establishment']"
0,43.721111,4.7051052,Scifo Anton Sylvette,ChIJa2WZWrjftRIR6pFCk1txdT0,"[u'health', u'point_of_interest', u'establishment']"
0,43.7197217,4.6993078,Assoc Tennis Club de Fontvieille,ChIJj3BpCrvftRIRDul1jq5LSdk,"[u'point_of_interest', u'establishment']"
0,43.72668,4.743747,Autel de la Coquille,ChIJqe2GUGHgtRIRaJcTblPmZ1Q,"[u'premise', u'point_of_interest', u'establishment']"
0,43.7302623,4.706083,Olives Arnaud,ChIJ5RfdbrXftRIR4keFSS6WB9o,"[u'point_of_interest', u'establishment']"
0,43.7310718,4.7069385,Cooperative Agricole d'Approvisionnement,ChIJ5Z-tnbXftRIRXUgbbt032cM,"[u'point_of_interest', u'establishment']"
0,43.729395,4.704202,Cioni Claude,ChIJr7jgTLTftRIRL6yf1ySyg0s,"[u'electrician', u'point_of_interest', u'establishment']"
0,43.732751,4.701959,Guisti S et L,ChIJo9zsVUvetRIRIkQsXlK8fkY,"[u'restaurant', u'food', u'point_of_interest', u'establishment']"
0,43.7281501,4.758625,La Ripaille,ChIJM5iYddPftRIRkrXg9vklSKs,"[u'lodging', u'restaurant', u'food', u'point_of_interest', u'establishment']"
0,43.7267809,4.7005877,Verquin Eric,ChIJf4PmarHftRIRBoy-Db8Exfc,"[u'point_of_interest', u'establishment']"
0,43.7267809,4.7005877,Arbriss'eau,ChIJf4PmarHftRIRCO6cZRGm3DQ,"[u'store', u'point_of_interest', u'establishment']"
0,43.7237917,4.6987266,Electricité Générale Didier Rangon,ChIJO4Une7DftRIRwrxQPhrU7Ss,"[u'electrician', u'point_of_interest', u'establishment']"
0,43.7232527,4.6995641,Bruno Panteix,ChIJu9mWgbDftRIRC-AjDJWEjQA,"[u'electrician', u'point_of_interest', u'establishment']"
0,43.7268173,4.7035014,M.A.B Construction S.A.S.,ChIJ8a_uDtd3thIRFKt9fgFmM8s,"[u'plumber', u'general_contractor', u'electrician', u'point_of_interest', u'establishment']"
0,43.7266146,4.7047982,La Regalido,ChIJravMYLbftRIRyy2xy4oxTvI,"[u'lodging', u'point_of_interest', u'establishment']"
0,43.7245085,4.7063043,Ray Moon Photo,ChIJiZTixLfftRIRL49t_v638K4,"[u'point_of_interest', u'establishment']"
0,43.7238817,4.706218,Intermarché Contact,ChIJcb8a6bfftRIRbY8UQyMFiDA,"[u'grocery_or_supermarket', u'food', u'store', u'point_of_interest', u'establishment']"
0,43.7244854,4.7062574,Deye Alain,ChIJYVQoxLfftRIRhCopE4sTy3k,"[u'point_of_interest', u'establishment']"
0,43.7082256,4.6974814,Les Jardins des ARCADES,ChIJr7mzvp_ftRIRJm86bK8uy9Q,"[u'general_contractor', u'point_of_interest', u'establishment']"
0,43.706094,4.753935,Domaine La Plantade,ChIJR7eG-TvgtRIRrbhjbEM1syw,"[u'lodging', u'point_of_interest', u'establishment']"
0,43.70598,4.754161,Gîte Lou Pastre - Gîtes de France,ChIJeRKb-jvgtRIRSiOMb9OobdI,"[u'lodging', u'point_of_interest', u'establishment']"
0,43.706041,4.754033,Oleiculture et santé,ChIJ7XRA-jvgtRIRkQozHW0jO2w,"[u'grocery_or_supermarket', u'health', u'food', u'store', u'point_of_interest', u'establishment']"
0,43.706054,4.7537032,Villa Lou Pastre,ChIJQcBq-DvgtRIRxh5_mKkVTVQ,"[u'point_of_interest', u'establishment']"
0,43.713163,4.683977,Vieillevigne Thierry,ChIJd7-uIXXftRIRwH_hkPvZ3es,"[u'point_of_interest', u'establishment']"
0,43.715335,4.694554,Pacavicaur,ChIJVdlo8aLftRIR9xD1mS_oOq8,"[u'point_of_interest', u'establishment']"
0,43.715335,4.694554,Agence Julien Trinh Agence,ChIJVdlo8aLftRIRDn1d_x8PSAw,"[u'point_of_interest', u'establishment']"
0,43.7153134,4.6944332,Mogier Jean-Claude,ChIJVdlo8aLftRIRb1sIGHbS1ZI,"[u'general_contractor', u'point_of_interest', u'establishment']"
0,43.7153134,4.6944332,Sanchez Fabrice,ChIJVdlo8aLftRIRSFOSOczEXG4,"[u'point_of_interest', u'establishment']"
0,43.7124427,4.6922346,Promenades à Cheval Les Enganes,ChIJga6uIXXftRIRbECF_dKuKqw,"[u'point_of_interest', u'establishment']"
0,43.7186951,4.6950563,Espigol René,ChIJLafNnaTftRIRCDNUKhS_CJ4,"[u'general_contractor', u'point_of_interest', u'establishment']"
0,43.7571643,4.7363787,Cabane de la Lèque,ChIJhSwSSKDgtRIRFa_ZVxEbcz4,"[u'lodging', u'point_of_interest', u'establishment']"
0,43.7567763,4.7378183,Chapelle Saint-Peïre,ChIJrbT5zaTgtRIRtemgDH8TRuI,"[u'premise', u'point_of_interest', u'establishment']"
0,43.7567329,4.737782,Saint-Peire,ChIJC5nfzaTgtRIR15kO01qZUV4,"[u'premise', u'point_of_interest', u'establishment']"
0,43.730003,4.707675,Bellon Thérèse,ChIJWdv5h8rftRIRfCpswBZz5C0,"[u'point_of_interest', u'establishment']"
0,43.730713,4.7010433,Capitani Celine,ChIJpXOocbPftRIRP3jBdHO46d0,"[u'point_of_interest', u'establishment']"
0,43.7307236,4.7011514,Federighi Chantal Christiane,ChIJH2uvcbPftRIRwpp11cDbeLc,"[u'food', u'point_of_interest', u'establishment']"
0,43.7307051,4.7011487,Aubert Capitani Celine Florence,ChIJTYq4drPftRIR7GrcQHQYpEw,"[u'point_of_interest', u'establishment']"
0,43.7328399,4.7019428,Thieuloy Rémy,ChIJo9zsVUvetRIRmwbEoISBAIM,"[u'point_of_interest', u'establishment']"
0,43.729395,4.704202,Pires Mario-Xavier,ChIJr7jgTLTftRIR2lWx707dsf4,"[u'general_contractor', u'point_of_interest', u'establishment']"
0,43.729395,4.704202,Sci Berard,ChIJr7jgTLTftRIR6HQKjSZhSvQ,"[u'real_estate_agency', u'point_of_interest', u'establishment']"
0,43.72388,4.691812,unnamed,ChIJw1XPU6_ftRIRfdobfK9cepc,"[u'point_of_interest', u'establishment']"
0,43.7245943,4.6926933,Au Chien Élégant,ChIJY8F8QK_ftRIRwQifP3ADwZ0,"[u'school', u'point_of_interest', u'establishment']"
0,43.7245442,4.6927832,Allo Elec Menager,ChIJ38I9QK_ftRIRU6_ZKOOOyfY,"[u'electronics_store', u'store', u'point_of_interest', u'establishment']"
0,43.7252175,4.6927527,FOUSSON MIROITERIE,ChIJSeNoGK_ftRIRNdTkKk5Pv8o,"[u'store', u'point_of_interest', u'establishment']"
0,43.7246845,4.6932972,Garage Du Moulin,ChIJPZYVqcnftRIR6NMM3vThhGA,"[u'car_repair', u'point_of_interest', u'establishment']"
0,43.7245368,4.6969456,Cornille Sylvie,ChIJJWsBIbDftRIRi7L_U32vpM4,"[u'food', u'point_of_interest', u'establishment']"
0,43.7245368,4.6969456,Blachier Roger,ChIJJWsBIbDftRIR2YIleFQhJkU,"[u'general_contractor', u'point_of_interest', u'establishment']"
0,43.720298,4.697438,Oratoire Saint-Victor,ChIJXQZHJbvftRIRd2iVwoDyI8w,"[u'church', u'place_of_worship', u'point_of_interest', u'establishment']"
0,43.7237917,4.6987266,Federighi Alain Marcel,ChIJO4Une7DftRIRf3WruXfUyqw,"[u'point_of_interest', u'establishment']"
0,43.7125839,4.6879647,"O2POOL, piscine naturelle, piscine bois et piscine biologique",ChIJI0ysvp_ftRIRnsyZFSZYilw,"[u'general_contractor', u'point_of_interest', u'establishment']"
0,43.713163,4.683977,Bert Frédéric,ChIJd7-uIXXftRIRfR7I1cy1D9c,"[u'point_of_interest', u'establishment']"
0,43.713163,4.683977,Association Bouto-Sello,ChIJd7-uIXXftRIRJoWaRC8pV1s,"[u'point_of_interest', u'establishment']"
0,43.710665,4.682869,Le Parc Descordes,ChIJ0eqlOHTftRIRIn8xJpjM7Pw,"[u'point_of_interest', u'establishment']"
0,43.743887,4.795495,Les Baux-de-Provence,ChIJIbJq2F3htRIR4ASX_aUZCAQ,"[u'locality', u'political']"
0,43.723535,4.667934,unnamed,ChIJf-BWmRfftRIRE7J_QBrLAdM,"[u'point_of_interest', u'establishment']"
0,43.726225,4.672932,Pont de Darboussille,ChIJ00mlURrftRIR7tOth_MYQ-Q,"[u'premise', u'point_of_interest', u'establishment']"
0,43.709286,4.676131,Hypogée du Castelet,ChIJNZwN_XHftRIRuKIEGI96Bo8,"[u'premise', u'point_of_interest', u'establishment']"
0,43.7487039,4.759922,Penel Olivier,ChIJn6GD7efgtRIR2YifaTMkMlQ,"[u'food', u'point_of_interest', u'establishment']"
0,43.748503,4.760461,Société Agricole du Domaine d'Estoublon,ChIJDxpmkefgtRIR7r2-R3wIj6o,"[u'food', u'point_of_interest', u'establishment']"
0,43.748503,4.760461,Fage Nathalie,ChIJNwdmkefgtRIRgpnubzuExis,"[u'point_of_interest', u'establishment']"
0,43.7487039,4.759922,De Lavareille Blanche,ChIJn6GD7efgtRIRm738uzkQGj4,"[u'doctor', u'health', u'point_of_interest', u'establishment']"
0,43.748503,4.760461,Le Bureau Viticole,ChIJNwdmkefgtRIRZKq72DLT88I,"[u'real_estate_agency', u'point_of_interest', u'establishment']"
0,43.780147,4.72617,Saint-Étienne-du-Grès,ChIJfYiNo13ntRIRsP-W_aUZCAQ,"[u'locality', u'political']"
0,43.700024,4.674671,13990,ChIJs0e_YGPftRIRX0cRR5xGo5o,"[u'point_of_interest', u'establishment']"
0,43.706063,4.66742,13200,ChIJL4RbbmjftRIRwWtx6dwel4Y,"[u'church', u'place_of_worship', u'point_of_interest', u'establishment']"
0,43.706184,4.666892,De Sambucy de Sorgue Claude Marc,ChIJBVETE2jftRIR94sVWjxObys,"[u'point_of_interest', u'establishment']"
0,43.706483,4.666819,Domaine de Montmajour Nicolas Et Claude,ChIJl8ChFWjftRIRrunDDUJdHJE,"[u'point_of_interest', u'establishment']"
0,43.706806,4.669348,Pont Sainte-Croix,ChIJGQRp6WjftRIRRvs5pKUWbEA,"[u'premise', u'point_of_interest', u'establishment']"
0,43.7066267,4.6645781,Auberge de l'Abbaye Sarl,ChIJDRS6y0LftRIR92qf0Mc9dW0,"[u'restaurant', u'bar', u'food', u'point_of_interest', u'establishment']"
0,43.717962,4.659464,Pont de Sylvestre,ChIJC5zEIznftRIRJsVzg8E5sPI,"[u'premise', u'point_of_interest', u'establishment']"
0,43.750079,4.771156,Le Mas de Joseph,ChIJb20uNiDhtRIR_1VBPIIjALo,"[u'lodging', u'point_of_interest', u'establishment']"
0,43.748932,4.770984,Gite rural du Mas de Joseph,ChIJscAbSCDhtRIRJgglKrOeCTw,"[u'lodging', u'point_of_interest', u'establishment']"
0,43.7055556,4.6638889,Abbaye de Montmajour,ChIJDRS6y0LftRIR64ZmzUzQivI,"[u'place_of_worship', u'point_of_interest', u'establishment']"
0,43.7055722,4.6637432,V.o.p,ChIJDRS6y0LftRIR-EQlon9RbfU,"[u'restaurant', u'bar', u'food', u'point_of_interest', u'establishment']"
0,43.702537,4.657485,Le Bon Là,ChIJ87DgTlrftRIRo0Tjk71l9YI,"[u'premise', u'point_of_interest', u'establishment']"
0,43.720428,4.657693,Colson Anne Lise,ChIJb8sTLDrftRIR--L31wGWfnw,"[u'point_of_interest', u'establishment']"
0,43.788652,4.831343,Saint-Rémy-de-Provence,ChIJ80hgrDHktRIR3XcOUlvR8rU,"[u'locality', u'political']"
