,Latitude,Longitude,Name,Place_id,Type
0,43.607073,5.063777,Grans,ChIJ473VbOwBthIR0AKX_aUZCAQ,"[u'locality', u'political']"
0,43.616371,5.038789,Le Moulin de Picaud,ChIJMwMAN5MBthIRcW7DnqGF5jo,"[u'lodging', u'point_of_interest', u'establishment']"
0,43.612807,5.03663,chateau de couloubriers,ChIJAb4reY0BthIRT6vBgrd-p5c,"[u'point_of_interest', u'establishment']"
0,43.6125538,5.0494602,la grange mecanique,ChIJAQAAAPABthIRaWTeJBz_8xY,"[u'car_repair', u'point_of_interest', u'establishment']"
0,43.615993,5.037689,Bonfilhon,ChIJuf-WKQb-yRIRbpsczS86J-k,"[u'point_of_interest', u'establishment']"
0,43.620486,5.043396,VALEMOI,ChIJ3xLlMOoBthIRzxlMTujGr9Y,"[u'health', u'point_of_interest', u'establishment']"
0,43.620277,5.038261,Polyfroid Energies,ChIJ1X-bJ5UBthIRfSyr70RcY2w,"[u'general_contractor', u'point_of_interest', u'establishment']"
0,43.6222321,5.0436362,Earl Pepinieres Dauphin,ChIJH_1F5wP-yRIRXH7Nl8KcmMI,"[u'food', u'point_of_interest', u'establishment']"
0,43.6211301,5.0521516,B.m.c,ChIJB2L7necBthIRIo1iv9n6n9Q,"[u'general_contractor', u'point_of_interest', u'establishment']"
0,43.61451,5.049835,unnamed,ChIJ4QObe-UBthIRoe_4xKcb5J4,"[u'point_of_interest', u'establishment']"
0,43.6179696,5.049232,Stade Mary-Rose,ChIJs18hpugBthIR3nQqI2E05Lw,"[u'school', u'point_of_interest', u'establishment']"
0,43.6119868,5.0519729,Leydier En Provence,ChIJdZOsKfsBthIRtCUouwQ1xUY,"[u'point_of_interest', u'establishment']"
0,43.612053,5.052095,Bono Canavese Marguerite Dominique,ChIJdZOsKfsBthIRhyzP-ieWrms,"[u'point_of_interest', u'establishment']"
0,43.612053,5.052095,Laurens Barneoud Rousset Jeannine,ChIJdZOsKfsBthIRMZt0abeR2C0,"[u'food', u'point_of_interest', u'establishment']"
0,43.612053,5.052095,Gaec Bernard,ChIJdZOsKfsBthIR4a73NexzwCA,"[u'point_of_interest', u'establishment']"
0,43.612053,5.052095,Olhagaray Bari Daniele Karine,ChIJdZOsKfsBthIRJ9ledS14VRk,"[u'food', u'point_of_interest', u'establishment']"
0,43.612053,5.052095,Sun Energie Construction Provence,ChIJvfzcKfsBthIR2sc9WIpWWQE,"[u'general_contractor', u'point_of_interest', u'establishment']"
0,43.6160173,5.0528139,Martino Jean Josef,ChIJAwLjR-QBthIRzCQWIWExP8Y,"[u'food', u'point_of_interest', u'establishment']"
0,43.6205723,5.0465682,Parc Fontaine Marie-Rose,ChIJmWklsukBthIRYe5q9Zk2Cio,"[u'park', u'point_of_interest', u'establishment']"
0,43.620346,5.04776,13450,ChIJDfdAW-gBthIRtdLO4QY_fpE,"[u'parking', u'point_of_interest', u'establishment']"
0,43.605211,5.051993,Le Domaine d'Alèzen,ChIJh5CDEBkDthIRR3XHy6cC0dw,"[u'lodging', u'point_of_interest', u'establishment']"
0,43.601738,5.0475795,Auberge des Eyssauts,ChIJbelF5wP-yRIRNewmqINEr1g,"[u'lodging', u'point_of_interest', u'establishment']"
0,43.604398,5.048549,Miellerie Des Eyssauts,ChIJdeSZk_cBthIRnL2VZ0weB-c,"[u'point_of_interest', u'establishment']"
0,43.601028,5.045927,13450,ChIJicTisx0CthIRKcV6UwXZryM,"[u'parking', u'point_of_interest', u'establishment']"
0,43.60737,5.050561,Simonpietri Frederic,ChIJT4ia8_kBthIRCz_F2IfH_vw,"[u'point_of_interest', u'establishment']"
0,43.60737,5.050561,Viaud Flaud Agnes Mireille,ChIJo4ea8_kBthIRVFZ1dkukF48,"[u'moving_company', u'point_of_interest', u'establishment']"
0,43.60737,5.050561,Ganga Elliott,ChIJo4ea8_kBthIRPsIpnZVxNIc,"[u'point_of_interest', u'establishment']"
0,43.60737,5.050561,Pedrotti Thierry,ChIJo4ea8_kBthIRv3z9JIsB71A,"[u'food', u'point_of_interest', u'establishment']"
0,43.608065,5.041818,Pont de Fumet,ChIJywB4f_QBthIRlAIsLlqalZA,"[u'premise', u'point_of_interest', u'establishment']"
0,43.640199,5.097022,Salon-de-Provence,ChIJofoBqDMAthIRIP-W_aUZCAQ,"[u'locality', u'political']"
0,43.628118,5.043363,Les Ecuries du Patys,ChIJoctyvMYBthIRvBDmPuYMXhM,"[u'point_of_interest', u'establishment']"
0,43.6211301,5.0521516,Devienne Brigitte,ChIJB2L7necBthIRty071_gNo4g,"[u'health', u'point_of_interest', u'establishment']"
0,43.6211301,5.0521516,Perard Eric Frederic,ChIJB2L7necBthIR8kl_TbcNlog,"[u'point_of_interest', u'establishment']"
0,43.6127777,5.0596455,ACTIVE CONFORT SARL,ChIJC6X_puIBthIRxRWYqwvZh20,"[u'general_contractor', u'point_of_interest', u'establishment']"
0,43.6129957,5.0600844,Sarl la Maison Du Travail,ChIJGwx7WB3-yRIR9u8KAmpgXK8,"[u'general_contractor', u'point_of_interest', u'establishment']"
0,43.6135223,5.0588727,Carrasco TP,ChIJraoolOIBthIRF14lXaX9hdw,"[u'point_of_interest', u'establishment']"
0,43.6119471,5.0619632,Délices Epicuriens,ChIJMwZWSwL-yRIRNsVz_lalNA4,"[u'point_of_interest', u'establishment']"
0,43.6155283,5.0621856,Alyzarines,ChIJ9Z8Wth3-yRIRgJTiLb5EA04,"[u'point_of_interest', u'establishment']"
0,43.6121715,5.0621574,Jenhanda,ChIJ78EsmAf-yRIRbfSjY4u8Z8M,"[u'point_of_interest', u'establishment']"
0,43.614562,5.062863,Tam Tam Marketing,ChIJi5N-Ax3-yRIR2FzdrjhYpiM,"[u'point_of_interest', u'establishment']"
0,43.614934,5.063586,Harmon'hy,ChIJz2UsQxz-yRIRrTjEBvsfXww,"[u'general_contractor', u'point_of_interest', u'establishment']"
0,43.6089896,5.0617817,LA SALAMANDRE BLEUE,ChIJqVCr7av_yRIRWjGyTGaGnus,"[u'furniture_store', u'home_goods_store', u'store', u'point_of_interest', u'establishment']"
0,43.6099678,5.0631839,La Magnanerie de Grans,ChIJB9-aDwP-yRIRNo78Mn-M8uI,"[u'lodging', u'point_of_interest', u'establishment']"
0,43.6097419,5.063405,Dameron Caroline,ChIJZf9mEgP-yRIRufIjcNl6QTA,"[u'lodging', u'point_of_interest', u'establishment']"
0,43.6087955,5.0625871,mon moulin,ChIJ3--8swP-yRIR0k2jQR8WQUQ,"[u'lodging', u'point_of_interest', u'establishment']"
0,43.6096492,5.0634618,Groupe Pierre Le Goff Méditerranée,ChIJqaoTCgP-yRIRXSFrR3UxFMA,"[u'point_of_interest', u'establishment']"
0,43.610698,5.0607414,Sekely Jean-Claude,ChIJ4yd8VwL-yRIRoNKGzTbtZvQ,"[u'point_of_interest', u'establishment']"
0,43.6081282,5.0621591,David Olsen Formation,ChIJ2aUDNAL-yRIR-x3nm2HTfaU,"[u'point_of_interest', u'establishment']"
0,43.6079044,5.0619944,Mairie,ChIJo4OzMQL-yRIRwmYMhY3S5Zs,"[u'local_government_office', u'point_of_interest', u'establishment']"
0,43.6088074,5.0634809,La Petite Marchande D Anniversaires,ChIJzW-GvAP-yRIRV2gOKjzK1io,"[u'point_of_interest', u'establishment']"
0,43.588896,5.002136,Miramas,ChIJza-aYrADthIRQFNhmV8_0cw,"[u'locality', u'political']"
0,43.595715,5.04487,Centre Equestre Beaumecoupier,ChIJoTj7LRoCthIRaUp9HBmYqmk,"[u'point_of_interest', u'establishment']"
0,43.6053477,5.0621501,Residence Saint Antoine,ChIJo760qAH-yRIRZf2c2toSOqo,"[u'lodging', u'point_of_interest', u'establishment']"
0,43.6073492,5.0631379,Pelimmo,ChIJ1RlJ2AP-yRIREgVzRMdiHL0,"[u'real_estate_agency', u'point_of_interest', u'establishment']"
0,43.605567,5.0606371,Mousset Logistique,ChIJvTpqeK3_yRIRtxOJjCE8enc,"[u'moving_company', u'point_of_interest', u'establishment']"
0,43.607651,5.062833,Restaurant Le Planet,ChIJz0FTKwL-yRIR1rXriEA18wI,"[u'restaurant', u'bar', u'food', u'point_of_interest', u'establishment']"
0,43.6053477,5.0621501,Maissena,ChIJo760qAH-yRIRP7CXDRnT8mA,"[u'health', u'point_of_interest', u'establishment']"
0,43.607632,5.062797,Le Vanille,ChIJobxf0QP-yRIR02WEvUWsSGw,"[u'restaurant', u'food', u'point_of_interest', u'establishment']"
0,43.6068132,5.0625892,Le Paradis Blanc,ChIJa7zCeAH-yRIRZ7IN2HTCKVo,"[u'point_of_interest', u'establishment']"
0,43.607338,5.06312,Le National,ChIJsQRL2AP-yRIRTZBCLJ8Epdc,"[u'bar', u'restaurant', u'food', u'point_of_interest', u'establishment']"
0,43.6077875,5.0630193,S.a.r.l. Co.je.ni Construction,ChIJR4vbzwP-yRIRm5aMcZHluq8,"[u'point_of_interest', u'establishment']"
0,43.6079255,5.063144,Kalou Studio Photography,ChIJz4IBBfoBthIRuFZ4HkzgOHk,"[u'point_of_interest', u'establishment']"
0,43.6081314,5.0628993,Le Salon,ChIJayY8yQP-yRIRFjRZWoz2tg8,"[u'point_of_interest', u'establishment']"
0,43.6073591,5.0635638,Torrente Philippe,ChIJ5xLt3gP-yRIRwi5ivxHTH6g,"[u'point_of_interest', u'establishment']"
0,43.60747,5.06383,Collectif Prouvenco Jean Pierre,ChIJbelF5wP-yRIReXFqda3je7I,"[u'point_of_interest', u'establishment']"
0,43.6400526,5.0481669,Residence Acadien,ChIJTVxzw80BthIRdT1R3xlQ-D0,"[u'lodging', u'point_of_interest', u'establishment']"
0,43.6375019,5.0439453,T'nb,ChIJxY4198sBthIRqhSSM7p4kZg,"[u'electronics_store', u'store', u'point_of_interest', u'establishment']"
0,43.635242,5.049357,ATR,ChIJf9nDt9EBthIRZ0SLhEcSRyI,"[u'moving_company', u'point_of_interest', u'establishment']"
0,43.6334569,5.0491416,Centre de Détention,ChIJl2dhvir8yRIR03v9Mhmrli0,"[u'plumber', u'general_contractor', u'point_of_interest', u'establishment']"
0,43.6370769,5.0488347,Société de Transports et d'Affrêtement du Trégor,ChIJV8mv4M0BthIRSLRy798-kjg,"[u'moving_company', u'point_of_interest', u'establishment']"
0,43.63729,5.047911,Le Nautilus,ChIJTVxzw80BthIRaGbmpOgR0is,"[u'restaurant', u'bar', u'food', u'point_of_interest', u'establishment']"
0,43.637285,5.047787,Ottofond Provence,ChIJTVxzw80BthIRYnSHK7ki7Vw,"[u'store', u'point_of_interest', u'establishment']"
0,43.637412,5.043945,Metro Cash et Carry France,ChIJxY4198sBthIRaODMPNp4T80,"[u'point_of_interest', u'establishment']"
0,43.637412,5.0439451,Staci,ChIJxY4198sBthIRmEdqVYI_4Jo,"[u'point_of_interest', u'establishment']"
0,43.637412,5.043945,Kuehne Nagel Road,ChIJxY4198sBthIRF4__Gzomi3U,"[u'point_of_interest', u'establishment']"
0,43.637018,5.0477874,Cristal Distribution,ChIJn953280BthIRsQF1Lq9H5r4,"[u'point_of_interest', u'establishment']"
0,43.637018,5.0477877,Imerys Structure,ChIJgd53280BthIRMGZMv_8cVG4,"[u'point_of_interest', u'establishment']"
0,43.639553,5.038905,GEODIS Logistics,ChIJHRRZfrUBthIR8MuSBtc5fw4,"[u'point_of_interest', u'establishment']"
0,43.6377,5.053359,Concepteur De Drones -Drone Consult- Realisation De Drones,ChIJMzkovtMBthIR1BlV5r_MGEk,"[u'electronics_store', u'home_goods_store', u'store', u'point_of_interest', u'establishment']"
0,43.6402215,5.0487489,Total,ChIJl2dhvir8yRIRe27U7aSqjjI,"[u'gas_station', u'point_of_interest', u'establishment']"
0,43.6359229,5.0555831,Société d'Expertise Comptable Bel Air,ChIJ6wa4ptYBthIRjq5mpmwWRRE,"[u'accounting', u'finance', u'point_of_interest', u'establishment']"
0,43.639109,5.0525589,Crédit Agricole Alpes Provence,ChIJu2IO_r4DthIRl3KIlJCDrjE,"[u'bank', u'atm', u'finance', u'point_of_interest', u'establishment']"
0,43.629466,5.0626175,Gagneraud Construction,ChIJ5wP4vVUAthIRxGK9XxYPIAo,"[u'general_contractor', u'point_of_interest', u'establishment']"
0,43.628653,5.058964,Louli Di Mafhoum Khalfi Latifa,ChIJMXE2O1gAthIRSgIkp05AtOA,"[u'food', u'point_of_interest', u'establishment']"
0,43.628653,5.058964,Dossetto Jean-Claude,ChIJMXE2O1gAthIRHWR99GHM8tw,"[u'food', u'point_of_interest', u'establishment']"
0,43.628653,5.058964,Faudon Pascal Roger,ChIJMXE2O1gAthIR7Gq8ndqgy7E,"[u'food', u'point_of_interest', u'establishment']"
0,43.628653,5.058964,Fouque Andre Jean Anselme,ChIJMXE2O1gAthIRbskJXKTypas,"[u'food', u'point_of_interest', u'establishment']"
0,43.628653,5.058964,SCEA la Campagne Martino,ChIJMXE2O1gAthIR6bcVohl8-RQ,"[u'food', u'point_of_interest', u'establishment']"
0,43.6167787,5.0556509,Appartement Dans Mas Provencal,ChIJX_5U4eMBthIRLAIEfoIejKA,"[u'point_of_interest', u'establishment']"
0,43.61647,5.05474,L'eden Sci,ChIJsW2S9-MBthIRKHJedp9RfDE,"[u'real_estate_agency', u'point_of_interest', u'establishment']"
0,43.614003,5.068842,Le Hameau,ChIJAYhLbiH8yRIRf0-1eUZV-SE,"[u'restaurant', u'bar', u'lodging', u'food', u'point_of_interest', u'establishment']"
0,43.608662,5.0646639,Espace Robert Hossein,ChIJDV4g6QP-yRIRghOL89wTSEI,"[u'point_of_interest', u'establishment']"
0,43.6109391,5.0670325,Crédit Agricole Alpes Provence,ChIJlWLN3Br-yRIR5DSSQ3Q-9G8,"[u'bank', u'atm', u'finance', u'point_of_interest', u'establishment']"
0,43.612755,5.0683335,ATC Systems,ChIJNxcrwxr-yRIRlRRrwzzMYMU,"[u'point_of_interest', u'establishment']"
0,43.6095169,5.0685363,Tiquet Sebastien,ChIJeaWjCQX-yRIRVUeKSgXnWMM,"[u'point_of_interest', u'establishment']"
0,43.617043,5.022946,Centre Mas-Felipe Delavouet,ChIJK_8scpwBthIR6CD6jUxlpA8,"[u'point_of_interest', u'establishment']"
0,43.610913,5.023895,Bono Fusello Denise,ChIJF1-9e4QBthIRkdmjr5VY3cs,"[u'food', u'point_of_interest', u'establishment']"
0,43.610913,5.023895,Fouque Marie Therese,ChIJF1-9e4QBthIRYb2iUocP_h0,"[u'point_of_interest', u'establishment']"
0,43.617043,5.022946,Rei Alfred,ChIJK_8scpwBthIRxWICNxaRu6k,"[u'point_of_interest', u'establishment']"
0,43.5900995,5.0578866,Michel Martini,ChIJgXjnrwkCthIRhbtweZ01xM0,"[u'point_of_interest', u'establishment']"
0,43.5900995,5.0578866,Retome,ChIJgXjnrwkCthIRy6I0iDF7LEU,"[u'point_of_interest', u'establishment']"
0,43.5900995,5.0578866,Mazoyer Philip,ChIJgXjnrwkCthIRyGye1b8SZB0,"[u'point_of_interest', u'establishment']"
0,43.5951525,5.0304224,Warocquier Jacques,ChIJqTzwPCUCthIRRJk_X-DXdWQ,"[u'food', u'point_of_interest', u'establishment']"
0,43.6065199,5.067586,ETIK,ChIJ7f5mhwb-yRIRFr34iGwnQlU,"[u'laundry', u'point_of_interest', u'establishment']"
0,43.6075867,5.0677443,Salle Omnisports Paul Sias,ChIJG8L45xj-yRIRWyhO7tinMsc,"[u'gym', u'health', u'point_of_interest', u'establishment']"
0,43.6047234,5.069791,Moulin Saint Joseph,ChIJuf-WKQb-yRIRuNBytsxMVh0,"[u'food', u'point_of_interest', u'establishment']"
0,43.599816,5.0197868,Golf Club de Miramas,ChIJvbiv8rsDthIRZAdbICaDAgg,"[u'health', u'point_of_interest', u'establishment']"
0,43.6025837,5.0166321,Rule Equestrian Du Mas De Combe,ChIJvbiv8rsDthIRiXx3RFE_XQ8,"[u'point_of_interest', u'establishment']"
0,43.6011776,5.0185606,Golf Club de Miramas,ChIJ3UzUMysCthIRZ4dwR5jm05U,"[u'point_of_interest', u'establishment']"
0,43.600618,5.018563,regie personnalisee du golf de miramas,ChIJ2a0pSisCthIRM1BgW2J8gdo,"[u'point_of_interest', u'establishment']"
0,43.606672,5.019872,unnamed,ChIJS1RVs4EBthIRsRllzqMpMBM,"[u'point_of_interest', u'establishment']"
0,43.601791,5.017094,Le Tiger's House,ChIJvbiv8rsDthIRATN09Y20jRY,"[u'restaurant', u'food', u'point_of_interest', u'establishment']"
0,43.6390629,5.0319001,Hippodrome de la Crau,ChIJVZfBvLMBthIRjz_cRqjxUK8,"[u'point_of_interest', u'establishment']"
0,43.636738,5.0345278,Rampal Latour,ChIJrVqHn7YBthIRwRYmQi8LdkE,"[u'store', u'point_of_interest', u'establishment']"
0,43.639231,5.032482,13300,ChIJw-9oorMBthIRQnDN2rEWqDg,"[u'point_of_interest', u'establishment']"
0,43.63792,5.042508,unnamed,ChIJrVkNx8sBthIRyew5vPVzLZA,"[u'point_of_interest', u'establishment']"
0,43.637412,5.043945,zac de la crau,ChIJxY4198sBthIREK6AoStvVGY,"[u'store', u'point_of_interest', u'establishment']"
0,43.6400111,5.0407332,Michelin,ChIJd51iiswBthIRWLk8Yd-RPAg,"[u'car_repair', u'point_of_interest', u'establishment']"
0,43.641129,5.0359299,13300,ChIJa54C27QBthIRbIbHeVXsfJQ,"[u'parking', u'point_of_interest', u'establishment']"
0,43.6274705,5.0684014,Seb Power Karting,ChIJbelF5wP-yRIRtcodCgOeoxw,"[u'store', u'point_of_interest', u'establishment']"
0,43.6192,5.070038,"Rotary Club de Miramas, Saint-Chamas en provence",ChIJ5bFqKRj-yRIRT9SW6ixzUzY,"[u'point_of_interest', u'establishment']"
0,43.6245901,5.067766,Jas Des Vaches,ChIJ-_KMCSP-yRIRD6NjZTcNL8E,"[u'lodging', u'point_of_interest', u'establishment']"
0,43.6182594,5.0661692,Reverter et Fils SCEA,ChIJyUS9PBn-yRIRRJNUiOxouxI,"[u'point_of_interest', u'establishment']"
0,43.6159732,5.0627711,Chabriere Laurent,ChIJe5XQMxz-yRIRoglVaKLidH0,"[u'electrician', u'point_of_interest', u'establishment']"
0,43.6155283,5.0621856,Tricaud Marti Christine,ChIJ9Z8Wth3-yRIR6qGkSNIxnVE,"[u'point_of_interest', u'establishment']"
0,43.6153556,5.0625771,Vaudo Michel,ChIJaf0arh3-yRIRljTZVZD7NcE,"[u'general_contractor', u'point_of_interest', u'establishment']"
0,43.6123809,5.0680617,Crédit Agricole,ChIJK2ER2hr-yRIRlatA5JqYh9E,"[u'point_of_interest', u'establishment']"
0,43.6106363,5.0666603,Sarl Jardi Salon,ChIJFx3wwQT-yRIR0aSPP_lKGuY,"[u'store', u'point_of_interest', u'establishment']"
0,43.6099568,5.0646087,Mairie,ChIJf6gGewP-yRIREhMYahkdvgU,"[u'local_government_office', u'point_of_interest', u'establishment']"
0,43.61583,5.00792,Lurit International,ChIJNVm4IHABthIR_8I4-WjNzmM,"[u'point_of_interest', u'establishment']"
0,43.615759,5.00556,LTC Logistique,ChIJdSCLoW8BthIRn6oRHSiCdvE,"[u'point_of_interest', u'establishment']"
0,43.6152584,5.0087351,ITM Logistique Alimentaire Int,ChIJJxrKFnABthIRR7fSYEhw5TI,"[u'point_of_interest', u'establishment']"
0,43.61583,5.00792,Géodis Logistics Rhône-Alpes,ChIJNVm4IHABthIRQmkK8JNu4m4,"[u'point_of_interest', u'establishment']"
0,43.6115386,5.007496,Matias Da Silva Mario,ChIJk7rH02QBthIR1FceNOuxNAI,"[u'painter', u'point_of_interest', u'establishment']"
0,43.613833,5.0060015,Samada,ChIJH2qOb2UBthIRdC1JHfEuCeY,"[u'storage', u'point_of_interest', u'establishment']"
0,43.6109916,5.0064339,Prie Jean Jacques,ChIJ2x-96mQBthIRo7rvkn1iD54,"[u'electrician', u'point_of_interest', u'establishment']"
0,43.5984311,5.067941,Chambres d'hôtes La bastide des Oliviers,ChIJsdRVivz9yRIRevB13WMFzCQ,"[u'lodging', u'point_of_interest', u'establishment']"
0,43.59991,5.070858,Flysurf,ChIJ0b4qKZ__yRIR6DfzWcHXazY,"[u'point_of_interest', u'establishment']"
0,43.6010367,5.068972,Transports Ramero,ChIJsdRVivz9yRIRRh6G9AQ8Lhk,"[u'moving_company', u'point_of_interest', u'establishment']"
0,43.599967,5.070816,Nautigames.com,ChIJ0b4qKZ__yRIRhp9NhAnm7bQ,"[u'store', u'point_of_interest', u'establishment']"
0,43.598725,5.074205,Collectif Provence,ChIJsy15x-P9yRIRQT69siyLbow,"[u'point_of_interest', u'establishment']"
0,43.602583,5.071284,Sa Transports Fasciale Freres,ChIJs8Ww5OH9yRIR-Ob9XEauV4k,"[u'moving_company', u'point_of_interest', u'establishment']"
0,43.5984311,5.067941,Dalverny Frédérique,ChIJsdRVivz9yRIRjhftHylw24Q,"[u'movie_theater', u'point_of_interest', u'establishment']"
0,43.599343,5.071798,Palette Du Sud,ChIJJULEHuP9yRIRDc1w_EjeQbU,"[u'point_of_interest', u'establishment']"
0,43.60063,5.0708318,MPA Service,ChIJWRbsyOL9yRIRTyUziseQTuE,"[u'point_of_interest', u'establishment']"
0,43.60156,5.06971,Preci Mecanic,ChIJCyBAUP39yRIRj4GaovlkAB8,"[u'point_of_interest', u'establishment']"
0,43.6027104,5.0684793,Clermont Pierre,ChIJuZ3Tjwf-yRIRw0pAuGR44kE,"[u'point_of_interest', u'establishment']"
0,43.60476,5.062569,13450,ChIJ5Y3c_wD-yRIRv5sShaIVqbI,"[u'church', u'place_of_worship', u'point_of_interest', u'establishment']"
0,43.605006,5.063739,13450,ChIJc0NQHwH-yRIRAc7e33SKJXA,"[u'parking', u'point_of_interest', u'establishment']"
0,43.56219,5.0722569,Cornillon-Confoux,ChIJzRaqCXj9yRIR_yAzkDXzIo0,"[u'locality', u'political']"
0,43.600874,5.074825,Sofymetal,ChIJq19gF-L9yRIRr7wzu2ABGDs,"[u'store', u'point_of_interest', u'establishment']"
0,43.6037839,5.0703224,Alonso Bruno Charpente,ChIJ44Xodwj-yRIRMdYKyLIKGnc,"[u'roofing_contractor', u'point_of_interest', u'establishment']"
0,43.6049226,5.0682231,Lambert Francois,ChIJddK9UQb-yRIRMIvSCmcWsMk,"[u'point_of_interest', u'establishment']"
0,43.6025448,5.0754842,MPI,ChIJTynW9wn-yRIRCfv1-xv7NmY,"[u'department_store', u'store', u'point_of_interest', u'establishment']"
0,43.6063281,5.0667131,Mairie,ChIJB3jKkAb-yRIRh6NifRh3VSU,"[u'local_government_office', u'point_of_interest', u'establishment']"
0,43.6072967,5.0762448,Chambres d'hôtes Domaine du Bois Vert,ChIJgYTuCwz-yRIRATWTs8x4PmM,"[u'lodging', u'point_of_interest', u'establishment']"
0,43.603472,5.007101,Meubles Pourrat,ChIJvbiv8rsDthIRhg3GBOxhCy4,"[u'furniture_store', u'home_goods_store', u'store', u'point_of_interest', u'establishment']"
0,43.603255,5.007457,SPEEDY Miramas,ChIJEZI_R9oDthIR7TaoiGOViRY,"[u'car_repair', u'point_of_interest', u'establishment']"
0,43.6035993,5.0071028,Midi Cuisine,ChIJvbiv8rsDthIRjrDT6b-RiyM,"[u'furniture_store', u'home_goods_store', u'store', u'point_of_interest', u'establishment']"
0,43.602729,5.007517,Point Compte-Nickel (au TABAC LOTO PRESSE AU ROND POINT),ChIJ39qqLtgDthIRAkjMAK0MmO8,"[u'bank', u'finance', u'store', u'point_of_interest', u'establishment']"
0,43.6035445,5.0068861,Vita Liberté - Salle de Sport - Miramas,ChIJpXhusLgDthIR-ly1M2jpcic,"[u'gym', u'health', u'point_of_interest', u'establishment']"
0,43.601812,5.007154,Delko Miramas,ChIJza-aYrADthIRoNyWK_YMK0Y,"[u'car_repair', u'store', u'point_of_interest', u'establishment']"
0,43.6020796,5.0068791,LA BOUTIQUE PROSHOP MIRAMAS,ChIJJbRs18QDthIRrMe5AIXj-kQ,"[u'store', u'point_of_interest', u'establishment']"
0,43.6020975,5.0067574,DBD,ChIJBXS1ztkDthIRJqmwJ8fXPJU,"[u'store', u'point_of_interest', u'establishment']"
0,43.6020796,5.0068791,Leprince,ChIJBXS1ztkDthIRyaxDQAbAwP0,"[u'hair_care', u'point_of_interest', u'establishment']"
0,43.6020975,5.0067574,Centre de Secours,ChIJBXS1ztkDthIRUwkGRWTvoA8,"[u'point_of_interest', u'establishment']"
0,43.6020975,5.0067574,Sarl Alain Bonan,ChIJBXS1ztkDthIRut1v-2XAiqM,"[u'hair_care', u'point_of_interest', u'establishment']"
0,43.636302,5.022811,13450,ChIJrSB8N6kBthIRPUMeTSwuSC8,"[u'point_of_interest', u'establishment']"
0,43.636323,5.022794,13450,ChIJl7EqOKkBthIR21U7i6rPPXU,"[u'point_of_interest', u'establishment']"
0,43.6263834,5.0761945,Armstrong Colin,ChIJbelF5wP-yRIRDKau1NmYQHg,"[u'health', u'point_of_interest', u'establishment']"
0,43.6263693,5.0758418,Cabinet d'ostéopathie,ChIJhX8GWjn-yRIRVrniYK0ZxfE,"[u'health', u'point_of_interest', u'establishment']"
0,43.6180452,5.0739257,Belmond Daniel Jean Louis,ChIJ3c_E7Rb-yRIRQsbi_BeXBHE,"[u'point_of_interest', u'establishment']"
0,43.61755,5.07126,Earl Garcin,ChIJAYhLbiH8yRIRXaL3ioir5ps,"[u'point_of_interest', u'establishment']"
0,43.61755,5.07126,Belmond Andre,ChIJAYhLbiH8yRIRe8IJiyBH6EY,"[u'food', u'point_of_interest', u'establishment']"
0,43.61755,5.07126,Serrès Michel,ChIJAYhLbiH8yRIRuqo5vrbgfQc,"[u'point_of_interest', u'establishment']"
0,43.6310111,5.0708618,Ttpr Ricard,ChIJszFL4CX-yRIRJPHGaonSaEA,"[u'general_contractor', u'point_of_interest', u'establishment']"
0,43.622936,5.083785,13450,ChIJXzY1qEH-yRIRecySV_V-2wE,"[u'point_of_interest', u'establishment']"
0,43.622936,5.083881,13450,ChIJ52EUqEH-yRIR0Kam0ZhFxGs,"[u'point_of_interest', u'establishment']"
0,43.632088,5.0732489,Mediapost,ChIJ2Y2gxDb-yRIRCxoz-qPUZyg,"[u'point_of_interest', u'establishment']"
0,43.61908,5.08695,Racer,ChIJY4_vMkT-yRIRqYgGdjvLcJ0,"[u'point_of_interest', u'establishment']"
0,43.611179,5.085533,Domaine Des Machottes,ChIJRX_cZXL-yRIRzDoTlPAFip4,"[u'lodging', u'point_of_interest', u'establishment']"
0,43.6135333,5.0783422,Castel Paul,ChIJydGY_hL-yRIRoW_1UMahC3s,"[u'food', u'point_of_interest', u'establishment']"
0,43.6135333,5.0783422,Kervajan Loic,ChIJydGY_hL-yRIRUaVs5NpNzjs,"[u'point_of_interest', u'establishment']"
0,43.612006,5.0757391,Portolano Jean-Louis,ChIJhz4s8RH-yRIRAwqH_64hHoM,"[u'lawyer', u'finance', u'point_of_interest', u'establishment']"
0,43.6121903,5.0751428,Portolano & associés,ChIJiTws8RH-yRIRT_-qe5I7cpw,"[u'lawyer', u'point_of_interest', u'establishment']"
0,43.615647,5.0873648,Olivier Patrick,ChIJzwUqy27-yRIR8SmoyG_CXbc,"[u'electrician', u'point_of_interest', u'establishment']"
0,43.6106903,5.0738358,Planel Chantal,ChIJN_iFOw7-yRIRihSTJjQdG0s,"[u'point_of_interest', u'establishment']"
0,43.621357,5.086117,Crep,ChIJ2xgBHEL-yRIRBUXTXLN9PNA,"[u'hardware_store', u'store', u'point_of_interest', u'establishment']"
0,43.6104848,5.0703268,Vecchiato Philippe,ChIJ4RJ69Q_-yRIRX89d6YxbvdQ,"[u'general_contractor', u'point_of_interest', u'establishment']"
0,43.612374,5.0688949,Garcin Frédéric,ChIJbelF5wP-yRIRDIP6nTQOadg,"[u'point_of_interest', u'establishment']"
0,43.6126895,5.0687225,CJR Jose Luis,ChIJcWRgwBr-yRIRy5w4wFSk-jo,"[u'plumber', u'point_of_interest', u'establishment']"
0,43.6105288,5.0047942,ID Logistics France,ChIJvbiv8rsDthIRnPlPNyyRB8c,"[u'storage', u'point_of_interest', u'establishment']"
0,43.617654,5.005431,GEODIS Logistics,ChIJ-xIEWW4BthIR_sQEdNAxO9Q,"[u'point_of_interest', u'establishment']"
0,43.6113547,5.0023096,Comasud Plateforme Logistique,ChIJ4dpomWYBthIRm9Mymtuv4iM,"[u'store', u'point_of_interest', u'establishment']"
0,43.611565,5.001845,Adéquat,ChIJg6VLkGYBthIRlj-4qe4NC1Q,"[u'point_of_interest', u'establishment']"
0,43.6081035,5.0037032,SMED 13,ChIJR4xdxmMBthIR4i0d4pPsZXo,"[u'point_of_interest', u'establishment']"
0,43.6083457,5.002454,SME,ChIJvbiv8rsDthIR-68RudvN5bU,"[u'point_of_interest', u'establishment']"
0,43.612086,4.996832,Nd Logistics,ChIJA0fIhF0BthIRlo74b8fxql0,"[u'point_of_interest', u'establishment']"
0,43.612086,4.996832,Métro Cash et Carry France,ChIJA0fIhF0BthIRQeB7eC5R4xM,"[u'point_of_interest', u'establishment']"
0,43.612086,4.996832,Carrefour Hypermarchés,ChIJA0fIhF0BthIRyZ19d1esfKM,"[u'grocery_or_supermarket', u'food', u'store', u'point_of_interest', u'establishment']"
0,43.6166664,5.0054154,ID LOGISTICS G7 Intermarche Miramas,ChIJMQW1q28BthIRyC6AyKE-RDw,"[u'store', u'point_of_interest', u'establishment']"
0,43.612042,5.003005,unnamed,ChIJPxl9LGQBthIRw4X66TLpx7M,"[u'point_of_interest', u'establishment']"
0,43.60003,5.075429,Raynaud-Brémond Gisèle,ChIJbelF5wP-yRIR5tNNjG1S9rQ,"[u'lawyer', u'point_of_interest', u'establishment']"
0,43.6010128,5.076864,T.C.M.Tuyauterie Chaudronnerie Maintenance,ChIJaREl5uH9yRIRw_Dh6slml6E,"[u'point_of_interest', u'establishment']"
0,43.6028465,5.0791916,T.C Grans,ChIJvXEjtQv-yRIRgf82RcDVqB4,"[u'point_of_interest', u'establishment']"
0,43.5998919,5.075095,unnamed,ChIJU0PfLuL9yRIR9gtEXW2KJ9M,"[u'point_of_interest', u'establishment']"
0,43.598419,5.087699,Domaine de Campreoux,ChIJHdb-Gtn9yRIRCOwF-I6Lq_g,"[u'lodging', u'point_of_interest', u'establishment']"
0,43.6027332,5.0756858,Campos Bernard,ChIJN7sXHAr-yRIRU_ELH3Ywsp0,"[u'clothing_store', u'store', u'point_of_interest', u'establishment']"
0,43.6044035,5.0805915,Errera Nicolas Baptiste,ChIJH8yqKgv-yRIRODI44Jc5SWE,"[u'point_of_interest', u'establishment']"
0,43.6053264,5.0761134,Joffroy Christophe,ChIJ22dJ3Qv-yRIR3OZiR69eA28,"[u'point_of_interest', u'establishment']"
0,43.601476,5.076009,Almageste,ChIJ9xV7--H9yRIRyQ8YhXbAeMU,"[u'point_of_interest', u'establishment']"
0,43.6394209,5.0170667,Vecchiato Rocchia Rosalie,ChIJbelF5wP-yRIRlS2HnSa5E_o,"[u'point_of_interest', u'establishment']"
0,43.6301843,5.0073929,Centre d’essais Michelin de Fontange,ChIJdxVd3BEBthIR8jSi4kTIvQc,"[u'point_of_interest', u'establishment']"
0,43.629291,5.007206,unnamed,ChIJsQGf-hEBthIROPUAQgIkktE,"[u'point_of_interest', u'establishment']"
0,43.6261098,5.0849008,Le Clos de la Martelière,ChIJKaPVM0L-yRIRhTmL2D1Hn80,"[u'point_of_interest', u'establishment']"
0,43.6220658,5.0873728,O'PALINES PISCINES,ChIJl2dhvir8yRIRjroSZqSzKt8,"[u'general_contractor', u'store', u'point_of_interest', u'establishment']"
0,43.6262801,5.0849818,Tontic,ChIJY4_vMkT-yRIRnmN5172D4ak,"[u'restaurant', u'food', u'point_of_interest', u'establishment']"
0,43.6225001,5.0866596,Jardipassion Grans,ChIJ81D_wEP-yRIRF55lTRMclLQ,"[u'park', u'florist', u'food', u'store', u'point_of_interest', u'establishment']"
0,43.622314,5.087957,Centre contrôle technique Autocontrol,ChIJVfFDUEL-yRIR_XDrykqskCY,"[u'car_repair', u'point_of_interest', u'establishment']"
0,43.6289704,5.0830468,Chapman Industrie Chapman Jean,ChIJMbzstUf-yRIRY9F9ykhDDmg,"[u'point_of_interest', u'establishment']"
0,43.6286981,5.0878394,"AMIGON, Imprimerie Rimbaud",ChIJCXgyvUX-yRIRfvK9vR2WnSA,"[u'point_of_interest', u'establishment']"
0,43.6295142,5.0842099,Cristini Florence - Maigrir 2000,ChIJ46pGO0b-yRIRD4mLLnNVkC0,"[u'health', u'point_of_interest', u'establishment']"
0,43.6223101,5.0901019,Llotrans,ChIJZ2963EL-yRIRYI2qTmeNWTc,"[u'point_of_interest', u'establishment']"
0,43.6286758,5.0881693,ALLOFREDDY,ChIJiXMookX-yRIRxGMAHVqgRTM,"[u'point_of_interest', u'establishment']"
0,43.6204638,5.0909812,Garage API,ChIJubkEq0L-yRIRQ-Qa8SEzPkw,"[u'car_repair', u'point_of_interest', u'establishment']"
0,43.6205302,5.0910638,MCC Automobiles,ChIJubkEq0L-yRIR-uXkaEDNLmA,"[u'car_dealer', u'car_repair', u'store', u'point_of_interest', u'establishment']"
0,43.628129,5.0893263,Polybatic,ChIJlXEJEEX-yRIRGfJ54Zf9HeE,"[u'point_of_interest', u'establishment']"
0,43.6285071,5.0893787,Roger Rimbaud,ChIJFSnBE0X-yRIR7lJgbKVgJWo,"[u'store', u'point_of_interest', u'establishment']"
0,43.6287551,5.0895417,Idéal Travaux,ChIJs1FJa0X-yRIRhVADFhBPqz0,"[u'general_contractor', u'point_of_interest', u'establishment']"
0,43.6061342,4.9995997,Id Logistics,ChIJA3Uhm98DthIRi3HxxcC5cVk,"[u'point_of_interest', u'establishment']"
0,43.6127226,4.9995668,logidis/groupe carrefour LCM,ChIJW_4Z-GYBthIRAlQ81KEa-wg,"[u'point_of_interest', u'establishment']"
0,43.612086,4.996832,Perrenot,ChIJE2DIhF0BthIRA6n5FxoTMys,"[u'point_of_interest', u'establishment']"
0,43.6132948,4.994537,Novatrans Miramas,ChIJYRV841wBthIRMKhwqm42eFU,"[u'point_of_interest', u'establishment']"
