,Latitude,Longitude,Name,Place_id,Type
0,43.369174,5.631363,Auriol,ChIJnwChvsiYyRIRhBJ00_v5MCo,"[u'locality', u'political']"
0,43.4005799,5.6168844,Association 13 à cheval,ChIJiUYcqbqZyRIRs8U-ELD5MDo,"[u'travel_agency', u'point_of_interest', u'establishment']"
0,43.392689,5.622677,L'ESSENTIEL HOTEL CONSEIL,ChIJxy4ORhiZyRIRRAJhTi0njWY,"[u'point_of_interest', u'establishment']"
0,43.3947044,5.6272474,Sebeflo Elagage,ChIJLz__ID2ZyRIRckl14V3vqS4,"[u'point_of_interest', u'establishment']"
0,43.389498,5.615512,PHAYPRO,ChIJjevpXxuZyRIRgoAPe_3p0DE,"[u'point_of_interest', u'establishment']"
0,43.3960711,5.6078951,Mediazur,ChIJ8UlzxwiZyRIRSWSlAexCwAs,"[u'hospital', u'point_of_interest', u'establishment']"
0,43.398808,5.607876,Passion Beauté,ChIJzY0sQwmZyRIR_cjWo6Q09B0,"[u'clothing_store', u'store', u'point_of_interest', u'establishment']"
0,43.3978864,5.6205264,Castellani Frederic,ChIJeyA2uRaZyRIRuskLyQr9EVI,"[u'point_of_interest', u'establishment']"
0,43.3987613,5.6197384,Oustry Grégoire,ChIJOdFRVRGZyRIRtPixfuIZNs8,"[u'point_of_interest', u'establishment']"
0,43.395119,5.616709,Mlle Gronchi Christelle,ChIJ1593YRCZyRIR9_eVEy0MV7Q,"[u'beauty_salon', u'point_of_interest', u'establishment']"
0,43.3976979,5.615342,Savi Amandine,ChIJ5_Q8wRGZyRIRUpUjwNGUT8k,"[u'point_of_interest', u'establishment']"
0,43.39295,5.62236,Le Fournil Des Gourmets Marc,ChIJGWBuNBiZyRIR8riI1KPldL4,"[u'point_of_interest', u'establishment']"
0,43.3989807,5.6133532,ENTREPRISE CHEVALIER,ChIJywRbCQ6ZyRIRow5qfPkyNhI,"[u'general_contractor', u'point_of_interest', u'establishment']"
0,43.391439,5.6156945,Lafond Veronique Josiane,ChIJsZxAGRuZyRIROGaGHomDVzQ,"[u'lawyer', u'finance', u'point_of_interest', u'establishment']"
0,43.390887,5.622215,Louesdon Franck,ChIJIb-14hiZyRIRwt4JsGtKGyM,"[u'point_of_interest', u'establishment']"
0,43.4026931,5.6111756,Aillaud Jean-François,ChIJLR4JkQ2ZyRIRo85HiqzECOE,"[u'point_of_interest', u'establishment']"
0,43.4040434,5.6127137,Rouxel Elise,ChIJuRUHy3KZyRIRvrAweCKVXfg,"[u'point_of_interest', u'establishment']"
0,43.3958123,5.6081509,Huynh Quoc Tan,ChIJE52vzSefyRIRuE0Oi58CyfI,"[u'point_of_interest', u'establishment']"
0,43.4023116,5.610213,Thebaut Antoine,ChIJYXSekgyZyRIRZElNy3g7E2M,"[u'electrician', u'point_of_interest', u'establishment']"
0,43.394132,5.593219,La Bouilladisse,ChIJn9q3Nz2ZyRIRkASX_aUZCAQ,"[u'locality', u'political']"
0,43.402849,5.610428,13720,ChIJUaqR6gyZyRIReLlcHKTgK4U,"[u'point_of_interest', u'establishment']"
0,43.4029809,5.610562,13720,ChIJ2_aVwQyZyRIRjCwqOMajlKs,"[u'point_of_interest', u'establishment']"
0,43.3894707,5.6088028,Easy Up 13,ChIJhcQoVAGZyRIRz68CygP2eQs,"[u'point_of_interest', u'establishment']"
0,43.3795158,5.6186852,Chenil des Fontaines,ChIJKVf63uaYyRIRAz96nwRRc_M,"[u'point_of_interest', u'establishment']"
0,43.3863647,5.6198508,Marchal Didier Georges,ChIJ2ePUex6ZyRIRmeL1Xeey3EQ,"[u'point_of_interest', u'establishment']"
0,43.38882,5.61518,Fassy Christian,ChIJEf-zpByZyRIR2srf0ypXF7I,"[u'point_of_interest', u'establishment']"
0,43.387211,5.6152,Lavenir Charles,ChIJhfUl2RyZyRIRYQHARdGZi-U,"[u'point_of_interest', u'establishment']"
0,43.3872675,5.6151037,Santos Transports Sarl,ChIJhfUl2RyZyRIRPeAPUWAMMMg,"[u'moving_company', u'point_of_interest', u'establishment']"
0,43.3872675,5.6151037,Labat Isabelle,ChIJhfUl2RyZyRIR0_gn6HmuUzg,"[u'point_of_interest', u'establishment']"
0,43.3845209,5.6149668,Kalliste Sci,ChIJReXOp-KYyRIRLrvRdfQxRnA,"[u'point_of_interest', u'establishment']"
0,43.387357,5.611869,Granzotto-Bianciotto Stella,ChIJEXLaGMSYyRIRR-QXhf8K8OQ,"[u'health', u'point_of_interest', u'establishment']"
0,43.3859573,5.6111043,Fourmillier Eliane,ChIJmd7ZZwKZyRIRKP5CuPK8DYQ,"[u'point_of_interest', u'establishment']"
0,43.385931,5.6109859,Monetta Gianelli Sandrine Patricia,ChIJmd7ZZwKZyRIRbmAfNg3t4UA,"[u'finance', u'point_of_interest', u'establishment']"
0,43.389002,5.6102213,Petro Marc,ChIJ4bJU7AOZyRIRmfu5Ta17Gnw,"[u'point_of_interest', u'establishment']"
0,43.389002,5.6102213,Pellan Philippe Henri Marie,ChIJ4bJU7AOZyRIRHKUDCOIqYUM,"[u'general_contractor', u'point_of_interest', u'establishment']"
0,43.389002,5.6102213,Enard Monique,ChIJafVcCQOZyRIRhA3LlpsVBjY,"[u'point_of_interest', u'establishment']"
0,43.3891612,5.6092702,Rodulfo Jean-Claude Roger,ChIJU9ew_AOZyRIROWL9qF05ayM,"[u'point_of_interest', u'establishment']"
0,43.3795158,5.6186852,Chatterie du Vallon,ChIJ5SditPuYyRIRLR8D4ZIrLzw,"[u'point_of_interest', u'establishment']"
0,43.405304,5.614218,L'atelier de Virginie,ChIJqZJn3a-ZyRIRS0e7jH1cclo,"[u'spa', u'health', u'point_of_interest', u'establishment']"
0,43.4051382,5.6093246,SARL Groupe MR,ChIJA8YIXHOZyRIR0_NoWTNQg3Q,"[u'point_of_interest', u'establishment']"
0,43.4040154,5.6088872,Perez Pastor Jean Philippe,ChIJG8QXVQuZyRIR1H0PNnna_V4,"[u'painter', u'point_of_interest', u'establishment']"
0,43.4040844,5.6088011,L'Oréal Produits de Luxe France,ChIJ8QykVAuZyRIRAH1MleN-5Ro,"[u'point_of_interest', u'establishment']"
0,43.4053281,5.6141424,NEEDEO,ChIJt3VDnnKZyRIRjD8cXKUrwZw,"[u'point_of_interest', u'establishment']"
0,43.4050707,5.6093743,Lozano Claire,ChIJh0sPXHOZyRIRlNWqtnlEwDI,"[u'point_of_interest', u'establishment']"
0,43.4051382,5.6093246,Pétin Maryse,ChIJ-8gIXHOZyRIRp3SDdM63K8Q,"[u'health', u'point_of_interest', u'establishment']"
0,43.4040844,5.6088011,David Gilbert,ChIJ3e4VVQuZyRIRDxYjUV-uwvc,"[u'point_of_interest', u'establishment']"
0,43.4040844,5.6088011,Leroux Bruno,ChIJiQukVAuZyRIRrnhLebQpjIE,"[u'point_of_interest', u'establishment']"
0,43.404125,5.6086957,Casagrande Giovanni,ChIJcfCjVAuZyRIRjO4xNrQB2hE,"[u'point_of_interest', u'establishment']"
0,43.4478278,5.6413021,Peynier,ChIJOxAZ-I2byRIRXk2CvVZxiU0,"[u'locality', u'political']"
0,43.3976994,5.6071791,Business Center Sainte Victoire,ChIJhYkYEAmZyRIRxV_wa9P-3Y8,"[u'point_of_interest', u'establishment']"
0,43.3936321,5.6023832,Gymnase et stade Municipal,ChIJj9u8D6-ZyRIRVTgT845S-SI,"[u'local_government_office', u'point_of_interest', u'establishment']"
0,43.403087,5.604218,Eole Aéraulique,ChIJMQL6mAqZyRIRn036dUylM_I,"[u'general_contractor', u'point_of_interest', u'establishment']"
0,43.394281,5.6004084,Restaurant scolaire,ChIJH9cIkKiZyRIRUE0K3DbeV5A,"[u'restaurant', u'food', u'point_of_interest', u'establishment']"
0,43.389866,5.604696,Carnivor Boucherie LA BOUILLADISSE (13720),ChIJZbCGygCZyRIRALFrlmKBZ2U,"[u'food', u'store', u'point_of_interest', u'establishment']"
0,43.3901317,5.603474,Mairie,ChIJj9u8D6-ZyRIRwiwtyNiGZdA,"[u'point_of_interest', u'establishment']"
0,43.3974606,5.6012295,Caserne des Pompiers,ChIJj9u8D6-ZyRIR-5RPh2iZUWg,"[u'fire_station', u'point_of_interest', u'establishment']"
0,43.402655,5.611133,Le Pigeonnier,ChIJe01f5gyZyRIRj7RrdVlI5Fs,"[u'sublocality_level_1', u'sublocality', u'political']"
0,43.4023805,5.6075305,Antoniadis Michel,ChIJudX3oQuZyRIRXxSzMUwT3vk,"[u'point_of_interest', u'establishment']"
0,43.4023293,5.6072932,Ibanez Sebastien Antonin Manuel,ChIJX5zcDQuZyRIRjPWaqNBlYHY,"[u'general_contractor', u'point_of_interest', u'establishment']"
0,43.3910303,5.6074966,Budanic Joel,ChIJN0jc7gaZyRIROwy9LierEU4,"[u'point_of_interest', u'establishment']"
0,43.3952963,5.6020034,Laudun Gerard,ChIJb3O826eZyRIRvkKUFSmUKEc,"[u'point_of_interest', u'establishment']"
0,43.3961769,5.6014652,Jouglet Jouglet Barc Tiphaine,ChIJnftGyqeZyRIRTWuaNum9LB4,"[u'doctor', u'health', u'point_of_interest', u'establishment']"
0,43.397556,5.601198,13720,ChIJC2LAAaeZyRIRvwHKefn1ZoM,"[u'fire_station', u'point_of_interest', u'establishment']"
0,43.4025069,5.6028832,Anita Marie,ChIJvZcWZKCZyRIRtgYn_epo0KU,"[u'real_estate_agency', u'point_of_interest', u'establishment']"
0,43.3954843,5.6001019,Di Gangi Louis,ChIJ-ZSUJKaZyRIRK2BRycEKTaY,"[u'general_contractor', u'point_of_interest', u'establishment']"
0,43.3926819,5.6013107,Montmasson Peyre Stephanie,ChIJpTaiVaiZyRIRd1S5dixP_bY,"[u'point_of_interest', u'establishment']"
0,43.4026555,5.6022147,Grimaldi Benoit Joseph,ChIJvZcWZKCZyRIRRWVQ18Fl4Wc,"[u'point_of_interest', u'establishment']"
0,43.3898142,5.6052064,Dailly Danielle,ChIJO7OFygCZyRIR7toGHBBBeMA,"[u'point_of_interest', u'establishment']"
0,43.3897159,5.6050573,SCP Cauvin Tailhandier,ChIJZbCGygCZyRIRqs7p6Kw5-mo,"[u'health', u'point_of_interest', u'establishment']"
0,43.396642,5.5987648,Russo Sylvie,ChIJwR_HdqaZyRIRbNkSQFj7AJI,"[u'local_government_office', u'point_of_interest', u'establishment']"
0,43.390107,5.603593,Cuordifede Guiseppe,ChIJu9em_6mZyRIRx1mtC_1wg_k,"[u'point_of_interest', u'establishment']"
0,43.387585,5.6015901,Hotel La Bouilladisse,ChIJKUB2VaqZyRIRqkEGJtGQsUw,"[u'lodging', u'point_of_interest', u'establishment']"
0,43.388031,5.601499,Delko La Bouilladisse,ChIJg-48V6qZyRIRRwqe3H9t5UE,"[u'car_repair', u'store', u'point_of_interest', u'establishment']"
0,43.3884969,5.5990531,La Destrousse,ChIJ2eg-B6yZyRIRrRZeloRI8uk,"[u'restaurant', u'food', u'point_of_interest', u'establishment']"
0,43.3874924,5.6004179,Agence du Sud La Destrousse,ChIJPfk2QKuZyRIReMKDnGboXkg,"[u'real_estate_agency', u'point_of_interest', u'establishment']"
0,43.3877549,5.6015394,Soloform,ChIJg-48V6qZyRIRmcidKPM3oX4,"[u'health', u'point_of_interest', u'establishment']"
0,43.3878617,5.6015897,Solo Medical,ChIJ5c74VqqZyRIR2keC8DEpzI0,"[u'health', u'point_of_interest', u'establishment']"
0,43.3878617,5.6015897,Laura Vannieri - Diététicienne nutritionniste,ChIJ5c74VqqZyRIRgysVEdX0wAg,"[u'health', u'point_of_interest', u'establishment']"
0,43.388434,5.601364,JA.G Consulting,ChIJb86xALCZyRIRSHEcQ1Vhb9c,"[u'point_of_interest', u'establishment']"
0,43.381496,5.606582,Etoile Gestion,ChIJUzCQ4P6YyRIRvFsMw4bNb_c,"[u'real_estate_agency', u'point_of_interest', u'establishment']"
0,43.3877369,5.6008131,Pompes Funèbres du Bassin Minier,ChIJg-48V6qZyRIR0rw6LNpA83Q,"[u'funeral_home', u'point_of_interest', u'establishment']"
0,43.3878311,5.6002468,stephan Infantino,ChIJLxxcBauZyRIRBad1E5fNaxI,"[u'hair_care', u'point_of_interest', u'establishment']"
0,43.3831672,5.6024537,Cave Coopérative des Vignerons du Garlaban,ChIJ77Nkc1WYyRIROjJUyTYm3lQ,"[u'food', u'point_of_interest', u'establishment']"
0,43.3875709,5.6004039,Fleurs Services,ChIJe7YDdayZyRIRtMlcso7oXvk,"[u'florist', u'store', u'point_of_interest', u'establishment']"
0,43.3884182,5.5996503,BNP Paribas - La Destrousse,ChIJe7YDdayZyRIRGxISABnwJnw,"[u'bank', u'atm', u'finance', u'point_of_interest', u'establishment']"
0,43.383486,5.602064,Boucherie de la sainte baume,ChIJGxtlhVWYyRIRmQDXYCz1Yvs,"[u'food', u'store', u'point_of_interest', u'establishment']"
0,43.3822799,5.6033203,Sebatech,ChIJGxtlhVWYyRIRsk-3YpdEOn4,"[u'point_of_interest', u'establishment']"
0,43.3876002,5.5997786,Laboratoire de Biologie Médicale La Destrousse,ChIJpf3nnauZyRIR5PK0i5tgRys,"[u'health', u'point_of_interest', u'establishment']"
0,43.3863233,5.5998343,Auto Bilan France,ChIJ0fpBP6uZyRIR8c40QeqV7PM,"[u'car_repair', u'point_of_interest', u'establishment']"
0,43.3883608,5.5996391,Picard Surgelés,ChIJHfIlQfiYyRIRQOcziydM21c,"[u'food', u'store', u'point_of_interest', u'establishment']"
0,43.386531,5.599671,Centre contrôle technique Dekra,ChIJrU-HLquZyRIRIz_AqcqUHCg,"[u'car_repair', u'point_of_interest', u'establishment']"
0,43.3811239,5.6048934,Provence Botanic'art Services,ChIJr6LiRv-YyRIR9NYyy2-r6N0,"[u'general_contractor', u'point_of_interest', u'establishment']"
0,43.3879028,5.5990793,Netto,ChIJHfIlQfiYyRIRONXvNtdSMKI,"[u'grocery_or_supermarket', u'food', u'store', u'point_of_interest', u'establishment']"
0,43.3884969,5.5990531,L'automobile,ChIJibOVj6uZyRIRH3c1msjL93M,"[u'car_dealer', u'store', u'point_of_interest', u'establishment']"
0,43.383049,5.601086,BATIPOSE,ChIJ-5nR_1SYyRIRnfcBiwVckOk,"[u'general_contractor', u'point_of_interest', u'establishment']"
0,43.3893732,5.5986365,WELDOM LA DESTROUSSE,ChIJX8u-j6uZyRIRIa_ywL0nNlQ,"[u'home_goods_store', u'store', u'point_of_interest', u'establishment']"
0,43.3810452,5.6049532,Electron,ChIJwez0svCYyRIRhi88QMZgCwo,"[u'electrician', u'point_of_interest', u'establishment']"
0,43.387965,5.6020009,unnamed,ChIJnQNkWaqZyRIRM3vfcybd73I,"[u'point_of_interest', u'establishment']"
0,43.3878637,5.6016333,Bleu Midi,ChIJe9QGV6qZyRIRovoLQQ5jO7A,"[u'point_of_interest', u'establishment']"
0,43.3878637,5.6016333,Fresse Romain,ChIJe9QGV6qZyRIRHQaPKbQHs54,"[u'point_of_interest', u'establishment']"
0,43.386293,5.601967,13112,ChIJFZSlw6qZyRIR9TypT11qEtg,"[u'point_of_interest', u'establishment']"
0,43.3878617,5.6015897,Acupuncture Nicole Mercier,ChIJ5c74VqqZyRIRNxndqtwntkY,"[u'health', u'point_of_interest', u'establishment']"
0,43.386346,5.6018739,13112,ChIJG5jhwqqZyRIRMpZJwO-wmAE,"[u'point_of_interest', u'establishment']"
0,43.387034,5.601547,13112,ChIJHe_B5KqZyRIRXUgJazzq7zk,"[u'parking', u'point_of_interest', u'establishment']"
0,43.387914,5.6013912,Alte Taxi 13,ChIJg-48V6qZyRIR6y-sXjh5rlc,"[u'point_of_interest', u'establishment']"
0,43.446909,5.6841549,Trets,ChIJMa9YG06cyRIR1hirAceWy5k,"[u'locality', u'political']"
0,43.3964884,5.5921436,Logis Hôtel la Fenière,ChIJR_q0v7qZyRIROq3vtIrfWKM,"[u'lodging', u'point_of_interest', u'establishment']"
0,43.3896991,5.5976886,Société Générale,ChIJe7YDdayZyRIRl55MwwwkZKo,"[u'bank', u'atm', u'finance', u'point_of_interest', u'establishment']"
0,43.395549,5.592757,Mediazur,ChIJiUYcqbqZyRIRShwbJTQISx0,"[u'hospital', u'health', u'point_of_interest', u'establishment']"
0,43.3940756,5.5931998,Mairie,ChIJmxNr5q-ZyRIRGbQXm_tQLPQ,"[u'city_hall', u'local_government_office', u'point_of_interest', u'establishment']"
0,43.3941053,5.5941822,G et R Immobilier,ChIJjW1lwq-ZyRIRLF5qo2O4DU8,"[u'real_estate_agency', u'point_of_interest', u'establishment']"
0,43.3939608,5.5942912,Cabinet de Podologie - Jeremy Deumié,ChIJ_d6Dwa-ZyRIRTEd6uO4_s84,"[u'doctor', u'health', u'point_of_interest', u'establishment']"
0,43.3922849,5.5942293,Les Jardins d’Athéna,ChIJOXcdNK6ZyRIRN-f8XlMgAko,"[u'gym', u'insurance_agency', u'spa', u'health', u'point_of_interest', u'establishment']"
0,43.3972424,5.595166,Sur Mesure Of Marseille,ChIJ3dPdGqWZyRIRqjM-Ts4BRWE,"[u'hardware_store', u'general_contractor', u'store', u'point_of_interest', u'establishment']"
0,43.3945446,5.5944445,La Poste,ChIJL4da7K-ZyRIRm4U4RyMtQsw,"[u'point_of_interest', u'establishment']"
0,43.393692,5.597702,Maison de la Petite Enfance,ChIJj9u8D6-ZyRIRehXf4E3bVvI,"[u'point_of_interest', u'establishment']"
0,43.3920136,5.5994658,Nursery School Isidore Gautier,ChIJj9u8D6-ZyRIRfSCLjP_hFBs,"[u'school', u'point_of_interest', u'establishment']"
0,43.3954377,5.5968561,Mairie - comité communal des feux de forets,ChIJ1cRK8qWZyRIRUPZC5pomdKM,"[u'point_of_interest', u'establishment']"
0,43.3949804,5.5930656,Pizzeria La Bourine,ChIJ77wRArCZyRIRo3lS9sKM9z8,"[u'restaurant', u'food', u'point_of_interest', u'establishment']"
0,43.3937387,5.5944424,Laboratoire GRAM - La Bouilladisse,ChIJwXI4wa-ZyRIRCbGGKG-86OA,"[u'health', u'point_of_interest', u'establishment']"
0,43.3941053,5.5941822,Centre de beaute Maria Galland,ChIJ9bFywq-ZyRIR0DyebUmIOJ4,"[u'beauty_salon', u'point_of_interest', u'establishment']"
0,43.3937682,5.5941735,Caillac Antoine,ChIJg204wa-ZyRIRKpSJXWwtQzE,"[u'pharmacy', u'health', u'store', u'point_of_interest', u'establishment']"
0,43.384147,5.577433,Peypin,ChIJDW-Fti2YyRIRAAGX_aUZCAQ,"[u'locality', u'political']"
0,43.396633,5.594632,MyLinguist,ChIJVdwAyKyZyRIRyAAXdDaFGlg,"[u'point_of_interest', u'establishment']"
0,43.3954377,5.5968561,Mairie,ChIJEUj-i6WZyRIRSzAEhiQtxy8,"[u'city_hall', u'local_government_office', u'point_of_interest', u'establishment']"
0,43.3951165,5.5964931,Town Hall,ChIJZeROfa-ZyRIRFX3BziISuN8,"[u'point_of_interest', u'establishment']"
0,43.3933796,5.5971319,Town Hall,ChIJFQrvF6-ZyRIR7dq1whpR__o,"[u'school', u'point_of_interest', u'establishment']"
0,43.393141,5.594846,BLEU EVENEMENTS VOYAGES,ChIJwZkCtK-ZyRIR9HN2VhSkqUo,"[u'travel_agency', u'point_of_interest', u'establishment']"
0,43.3953,5.59294,Les Marronniers SA,ChIJb86xALCZyRIRkdyen1NlBBs,"[u'car_wash', u'car_repair', u'point_of_interest', u'establishment']"
0,43.3927022,5.5973217,Town Hall,ChIJTQGE366ZyRIR9G-A4PTddLk,"[u'school', u'point_of_interest', u'establishment']"
0,43.392864,5.5952944,Tecnoblock France,ChIJEb-jUq6ZyRIR46hRmnciCPs,"[u'point_of_interest', u'establishment']"
0,43.394227,5.593543,Ô Sens Masculin,ChIJiZPR4K-ZyRIRZUatQ9M2dfo,"[u'hair_care', u'health', u'point_of_interest', u'establishment']"
0,43.3939952,5.5948156,Rubin Martine,ChIJjU7edK-ZyRIRLizTYv_7LNQ,"[u'lawyer', u'finance', u'point_of_interest', u'establishment']"
0,43.3934152,5.5944753,Automotoplus,ChIJHfIlQfiYyRIRjbRqSwwQ494,"[u'car_repair', u'point_of_interest', u'establishment']"
0,43.3926341,5.5951744,Fara Autos - Citroën,ChIJ-4aOTa6ZyRIRrnSahltsT_E,"[u'car_repair', u'point_of_interest', u'establishment']"
0,43.396455,5.592042,Restaurant La Fenière,ChIJ_61AlbqZyRIR9rQ_PDV8DGg,"[u'restaurant', u'food', u'point_of_interest', u'establishment']"
0,43.394565,5.5937447,Municipal Library,ChIJj9u8D6-ZyRIRADWsAMmQyso,"[u'library', u'point_of_interest', u'establishment']"
0,43.395301,5.592941,Habitat et Humanisme Provence,ChIJb86xALCZyRIRwFNAnV_UhAw,"[u'general_contractor', u'point_of_interest', u'establishment']"
0,43.3952687,5.5931251,Auto Ecole Marina Conduite,ChIJeTj4ALCZyRIRB80vlwao0oQ,"[u'point_of_interest', u'establishment']"
0,43.3959651,5.5924549,JMJ COIFFURE,ChIJPdyNpLqZyRIRghwC5IHmUF4,"[u'hair_care', u'point_of_interest', u'establishment']"
0,43.3954376,5.5929471,Mairie,ChIJZ74kqrqZyRIRjmONgVrl_LQ,"[u'local_government_office', u'point_of_interest', u'establishment']"
0,43.395301,5.592941,Scap,ChIJG9OxALCZyRIREKyyFYGWso4,"[u'point_of_interest', u'establishment']"
0,43.390454,5.598397,Cordonnerie de La Destrousse,ChIJAWMXq66ZyRIRkmkRWsg-b5s,"[u'point_of_interest', u'establishment']"
0,43.3964159,5.5920782,Espace Telec,ChIJn7A-vrqZyRIRcwoVJXEBmWc,"[u'point_of_interest', u'establishment']"
0,43.3994116,5.5926078,Studio d'enregistrement des jacquet,ChIJdZl4T7uZyRIRXWuILRPr8i8,"[u'point_of_interest', u'establishment']"
0,43.3958716,5.5921633,ACS Energie Solaire,ChIJ2WMyzgCZyRIRcy0IQUNi-Us,"[u'hardware_store', u'store', u'point_of_interest', u'establishment']"
0,43.3958244,5.5922446,Benjamin Fonteix,ChIJzVsmZ2UByRIRnnImFY65tsI,"[u'health', u'point_of_interest', u'establishment']"
0,43.3906127,5.5981552,Canisse Fleurs,ChIJ3zgnqK6ZyRIR49b3zgQ1qJo,"[u'florist', u'home_goods_store', u'store', u'point_of_interest', u'establishment']"
0,43.3900467,5.5965251,Intermarché Super,ChIJtTnD0a2ZyRIR_P1wN_aLUJw,"[u'grocery_or_supermarket', u'food', u'store', u'point_of_interest', u'establishment']"
0,43.395225,5.591901,Rustici Darchen Sarl (R&D),ChIJC7nWdLCZyRIRWksS2hdlLxg,"[u'hospital', u'health', u'point_of_interest', u'establishment']"
0,43.3954302,5.5918549,Electronique et Loisirs Magazine,ChIJP0Gln7qZyRIRgj1jI2lkZwg,"[u'point_of_interest', u'establishment']"
0,43.400046,5.5921605,Infocall,ChIJkUn8XruZyRIRdesl5xdVdw8,"[u'point_of_interest', u'establishment']"
0,43.3891634,5.5972806,Perottino Immobilier,ChIJAQAAAFeYyRIR5e6_QJhMek8,"[u'real_estate_agency', u'point_of_interest', u'establishment']"
0,43.3901578,5.5972982,Caisse d'Epargne La Destrousse,ChIJz40IH6yZyRIRfMp8_77I71g,"[u'bank', u'atm', u'finance', u'point_of_interest', u'establishment']"
0,43.3897591,5.5980665,Crédit Agricole Alpes Provence,ChIJHfIlQfiYyRIRMsSNNI1HBtI,"[u'bank', u'atm', u'finance', u'point_of_interest', u'establishment']"
0,43.4033049,5.5946931,Bet Cerretti,ChIJNSlg6aKZyRIRz3XLme-PwuU,"[u'point_of_interest', u'establishment']"
0,43.37619,5.607346,Hôtel Occitan,ChIJHfIlQfiYyRIRsFWAybs3CFE,"[u'lodging', u'point_of_interest', u'establishment']"
0,43.3751605,5.6073085,Centre Médical de La Destrousse,ChIJm9uET_-YyRIRRLVmYC4f3nQ,"[u'health', u'point_of_interest', u'establishment']"
0,43.3748166,5.6067056,Agence Immobiliere La Provencale,ChIJ8cN5cfeYyRIRs-mIZfDR1-4,"[u'real_estate_agency', u'point_of_interest', u'establishment']"
0,43.377505,5.6050824,Mairie,ChIJ4UmQcPeYyRIR6sJ5skeK7qw,"[u'city_hall', u'local_government_office', u'point_of_interest', u'establishment']"
0,43.3797189,5.6044887,Biologement,ChIJhbxk74GXyRIRA3wQHD6ONcg,"[u'home_goods_store', u'store', u'point_of_interest', u'establishment']"
0,43.3766624,5.6062458,Marie Coco,ChIJ4UmQcPeYyRIRYcSaSCAsr1s,"[u'restaurant', u'food', u'point_of_interest', u'establishment']"
0,43.3742929,5.6068049,LABORATOIRE DE BIOLOGIE MEDICALE - LA DESTROUSSE,ChIJs28vDfeYyRIRrYwSnGbYPSQ,"[u'health', u'point_of_interest', u'establishment']"
0,43.3763944,5.6055353,Post Office,ChIJ4UmQcPeYyRIRjHlTnu6Xz8U,"[u'post_office', u'finance', u'point_of_interest', u'establishment']"
0,43.376886,5.605816,FB-maquettes,ChIJS5l8WviYyRIR5SL8biI7nkI,"[u'point_of_interest', u'establishment']"
0,43.376895,5.6058533,LA FEE SERVICES,ChIJQ3auSfiYyRIRZdlGMwnp4Vc,"[u'point_of_interest', u'establishment']"
0,43.3790753,5.6047648,Pro-Ferm,ChIJg-48V6qZyRIR_pBze-XcTYQ,"[u'general_contractor', u'store', u'point_of_interest', u'establishment']"
0,43.374778,5.606817,Crèche Tétine et Doudou - La Part de Rêve,ChIJ4UmQcPeYyRIRt9cqC6I6aDc,"[u'point_of_interest', u'establishment']"
0,43.3792536,5.6047208,Conceptions Études Réalisations,ChIJ2zlyvfiYyRIRPQjM5Ujhgj4,"[u'general_contractor', u'point_of_interest', u'establishment']"
0,43.3762975,5.6061581,My'Style Coiffure,ChIJOSESM_iYyRIRwC4ovoURL-g,"[u'hair_care', u'point_of_interest', u'establishment']"
0,43.374778,5.606817,Centre Hospitalier Spécialisé Valvert,ChIJ4UmQcPeYyRIREwEagU2wmjo,"[u'point_of_interest', u'establishment']"
0,43.3763894,5.6060532,Institut de Beauté Circé,ChIJr0BkNPiYyRIRuxDZF4g8Zfs,"[u'beauty_salon', u'point_of_interest', u'establishment']"
0,43.379654,5.604443,Amabio,ChIJ41vPuviYyRIRDaiXLnT2oEI,"[u'health', u'food', u'store', u'point_of_interest', u'establishment']"
0,43.376874,5.605345,Perottino Immobilier La Destrousse,ChIJN0lPAqyZyRIRPAKZxqoN23M,"[u'real_estate_agency', u'point_of_interest', u'establishment']"
0,43.37845,5.60426,Cabinet LSE,ChIJiW-yT_iYyRIRmFYttjAUqLE,"[u'insurance_agency', u'point_of_interest', u'establishment']"
0,43.37845,5.60426,Bernard,ChIJd9Jr0_mYyRIRnc5nfxkuI1g,"[u'florist', u'store', u'point_of_interest', u'establishment']"
0,43.376824,5.605731,La Fée des Professionnels,ChIJQ3auSfiYyRIRLYVa60gLXAo,"[u'point_of_interest', u'establishment']"
0,43.3762413,5.6051567,Les Fleurs de Flo,ChIJKfESPfiYyRIRHsch0NVSUpk,"[u'florist', u'store', u'point_of_interest', u'establishment']"
0,43.374778,5.606817,Point Photo,ChIJ8cN5cfeYyRIR0LGEGVvNvek,"[u'point_of_interest', u'establishment']"
0,43.3741304,5.6068251,Floral Gallery,ChIJVyvPUOyYyRIRmgASPj_huqo,"[u'florist', u'store', u'point_of_interest', u'establishment']"
0,43.3760522,5.6065571,CREAF 13,ChIJ3y2BzfmYyRIRXD1K6aF45KU,"[u'point_of_interest', u'establishment']"
0,43.3762422,5.6051461,SARL EBR,ChIJ0bu4PfiYyRIRMB7fXdARlbs,"[u'general_contractor', u'point_of_interest', u'establishment']"
0,43.3740403,5.6068582,Au tour des fleurs (canisse),ChIJVyvPUOyYyRIRuXjgBSfW1f4,"[u'store', u'point_of_interest', u'establishment']"
0,43.374778,5.606817,A M F,ChIJr62RcPeYyRIR8LLF31PDZO4,"[u'point_of_interest', u'establishment']"
0,43.374778,5.606817,Della Pina Magali,ChIJr62RcPeYyRIR_AZZdZpOqr8,"[u'point_of_interest', u'establishment']"
0,43.3780174,5.6013751,Ferme du Tourtaret,ChIJR_Rqq1eYyRIRFASlLv5CBKA,"[u'food', u'point_of_interest', u'establishment']"
0,43.3742114,5.6068209,Destrousse Pieces Auto,ChIJ6YHVDPeYyRIRGwIlKsRp8hQ,"[u'store', u'point_of_interest', u'establishment']"
0,43.3771726,5.6020078,Mairie,ChIJ4UmQcPeYyRIRuNA4FhdNya4,"[u'point_of_interest', u'establishment']"
0,43.377178,5.602132,La Salle,ChIJhdhTuVeYyRIRUYEXspMTa_I,"[u'point_of_interest', u'establishment']"
0,43.3770053,5.601742,Atec Electrique,ChIJ70q7oleYyRIRTuGEhPee0Vo,"[u'electrician', u'point_of_interest', u'establishment']"
0,43.373837,5.604412,Mairie,ChIJO3ozxfeYyRIRMKngPmWw10k,"[u'local_government_office', u'point_of_interest', u'establishment']"
0,43.3784871,5.6009126,LC-Coaching,ChIJU77jVlaYyRIRQoSplMOihs8,"[u'point_of_interest', u'establishment']"
0,43.3784619,5.6008065,PLOMBIÊR Arnould,ChIJWV1X-VaYyRIRcF_fsYufUhw,"[u'point_of_interest', u'establishment']"
0,43.3719027,5.6074436,Société Sarlin,ChIJVyvPUOyYyRIR1I_eKWJdWFE,"[u'taxi_stand', u'point_of_interest', u'establishment']"
0,43.37085,5.607833,Autocars Sarlin,ChIJG1eBofaYyRIRSAIdX4EfOj8,"[u'car_repair', u'point_of_interest', u'establishment']"
0,43.371855,5.604388,BPD Marignan - Campagne Louise,ChIJ56EhGPaYyRIRCGSdQJzzeeg,"[u'general_contractor', u'subpremise', u'point_of_interest', u'establishment']"
0,43.3795539,5.6110794,Delaye Christian,ChIJb86xALCZyRIRqru5aNjhru4,"[u'point_of_interest', u'establishment']"
0,43.3810973,5.6107191,Boeuf Gérard,ChIJ1bAlavyYyRIRx7ev69dBx1g,"[u'point_of_interest', u'establishment']"
0,43.381147,5.610616,Loop David,ChIJ1bAlavyYyRIRLiPQlAZ1yJo,"[u'point_of_interest', u'establishment']"
0,43.3812479,5.6069525,Nioi Franco,ChIJ83jK4P6YyRIRCa2UQlQTjVA,"[u'moving_company', u'point_of_interest', u'establishment']"
0,43.381253,5.606829,CIMETIERE,ChIJYxFQ3P6YyRIRlE7V1wQKhF8,"[u'restaurant', u'food', u'point_of_interest', u'establishment']"
0,43.380861,5.604414,Karine Solere-Mathieu - Dermatologue,ChIJm9uET_-YyRIRXBppY-7EnBQ,"[u'doctor', u'health', u'point_of_interest', u'establishment']"
0,43.376658,5.6068712,Abyss'Communications,ChIJ4UmQcPeYyRIR-R_269ZSqMs,"[u'point_of_interest', u'establishment']"
0,43.376224,5.607371,Ostéopathe D.O. Serge Ridereau,ChIJfy-Lw_mYyRIR3IK5C-JCfAQ,"[u'health', u'point_of_interest', u'establishment']"
0,43.3770275,5.6058207,L'inattendu,ChIJM9c7T_iYyRIRV7dohx-fsy4,"[u'point_of_interest', u'establishment']"
0,43.3770376,5.6058003,L'inattenda,ChIJMVE_T_iYyRIRNpfgtdJsWrA,"[u'point_of_interest', u'establishment']"
0,43.3889179,5.5983042,Autour du Voyage,ChIJe7YDdayZyRIRqqn61jjqhnw,"[u'travel_agency', u'point_of_interest', u'establishment']"
0,43.3889265,5.5982942,Caroax,ChIJe7YDdayZyRIR5xCM6KUwXMk,"[u'grocery_or_supermarket', u'food', u'store', u'point_of_interest', u'establishment']"
0,43.3897893,5.5976023,CIC,ChIJNRP5dKyZyRIRwWiDXiky_iY,"[u'bank', u'finance', u'point_of_interest', u'establishment']"
0,43.3807483,5.5976562,Korian Les Trois Tours,ChIJpyJh4lOYyRIRmtbbgUdw1Do,"[u'health', u'point_of_interest', u'establishment']"
0,43.4022858,5.5931439,Centre de Secours,ChIJU1do07yZyRIRICNodDMlh5U,"[u'point_of_interest', u'establishment']"
0,43.4024802,5.5908294,Quadypso,ChIJ1ybE_ryZyRIRkhpA0dSeS0A,"[u'point_of_interest', u'establishment']"
0,43.4022363,5.5963142,Andugar Carl,ChIJ7eL3rKOZyRIR7m_vPewjEbs,"[u'point_of_interest', u'establishment']"
0,43.4042295,5.5944907,propriété Berne,ChIJ__90vaKZyRIRXwmpmSantyA,"[u'point_of_interest', u'establishment']"
0,43.4033049,5.5946931,Giaime Sarl,ChIJNSlg6aKZyRIROPTEfingUnE,"[u'electrician', u'point_of_interest', u'establishment']"
0,43.4033049,5.5946931,Lafon Lucie,ChIJNSlg6aKZyRIRmU1-F3qMUhM,"[u'health', u'point_of_interest', u'establishment']"
0,43.4005541,5.5970944,"Association ""Ecoute toi"" - Hypnothérapeute",ChIJ05yfkqOZyRIROmAx7Ne5EO0,"[u'health', u'point_of_interest', u'establishment']"
0,43.400195,5.5979517,Baquai Nicolas,ChIJR_yI-aOZyRIRG7dDo07alp8,"[u'health', u'point_of_interest', u'establishment']"
0,43.4022858,5.5931439,Vanni Fuel,ChIJU1do07yZyRIRggm3qmtyOd4,"[u'general_contractor', u'real_estate_agency', u'point_of_interest', u'establishment']"
0,43.4018552,5.5937403,Paillot Caroline,ChIJw30zMKOZyRIRWvU_1zs8ojg,"[u'point_of_interest', u'establishment']"
0,43.4000561,5.5963713,Forte Jean Michel,ChIJ9dmhh6OZyRIRu-RDUuzyL8A,"[u'point_of_interest', u'establishment']"
0,43.399629,5.597129,Asseo Coquard Giselle Paula,ChIJfaFZc6SZyRIRoBLNdWTFgWA,"[u'point_of_interest', u'establishment']"
0,43.399629,5.597129,Le Cabaret Blanc,ChIJfaFZc6SZyRIR9GWlHCv5qk0,"[u'point_of_interest', u'establishment']"
0,43.4021959,5.5931479,Du Jardin A la Maison,ChIJU1do07yZyRIRSj4HjDJgu4w,"[u'general_contractor', u'point_of_interest', u'establishment']"
0,43.399957,5.596107,Marechal Charlotte Severine Marianne,ChIJd-dnf6SZyRIRIVtM4vbfAdc,"[u'point_of_interest', u'establishment']"
0,43.399555,5.5970348,Jullien Louis,ChIJwWpGc6SZyRIR745PeK_aBtw,"[u'point_of_interest', u'establishment']"
0,43.4002728,5.5943113,Viyer André,ChIJdY2aXqOZyRIRMEZt_TRwUK8,"[u'point_of_interest', u'establishment']"
0,43.403094,5.5916411,LF Global-services,ChIJAQMJ4byZyRIRo5ib5Dmk9Uo,"[u'point_of_interest', u'establishment']"
0,43.4024598,5.5915981,Vitelli Stephane,ChIJtQMJ4byZyRIR31MoNn7xAcs,"[u'point_of_interest', u'establishment']"
0,43.4035889,5.5967641,Sanitaire Plomberie Chauffage Services,ChIJ_erdaaKZyRIRKHD2-WkFWS8,"[u'general_contractor', u'point_of_interest', u'establishment']"
0,43.394117,5.651792,Leboucher Guezille Pascale,ChIJgQjKb86eyRIRMD-_e5rEooU,"[u'point_of_interest', u'establishment']"
0,43.394117,5.651792,Sci Marchi,ChIJgQjKb86eyRIROIGU1f9FHR8,"[u'real_estate_agency', u'point_of_interest', u'establishment']"
0,43.394117,5.651792,Bialas Christine,ChIJgQjKb86eyRIR6LNlGzMVWwg,"[u'hair_care', u'point_of_interest', u'establishment']"
0,43.3956729,5.5891977,Eole,ChIJMQL6mAqZyRIRyRVcuNa9HHM,"[u'store', u'point_of_interest', u'establishment']"
0,43.395795,5.586109,LM Bijoux Créations,ChIJFbGP5LmZyRIRub8BzLCN2DY,"[u'jewelry_store', u'store', u'point_of_interest', u'establishment']"
0,43.395669,5.589074,Mairie,ChIJj9u8D6-ZyRIR65gEqSaiNYo,"[u'point_of_interest', u'establishment']"
0,43.3995193,5.5892883,Atelier J.B.,ChIJVfCW7LuZyRIRHUifrCruJl0,"[u'point_of_interest', u'establishment']"
0,43.39526,5.58811,Fra Immobilier,ChIJS0yDrLCZyRIRsR7T61_NFfM,"[u'point_of_interest', u'establishment']"
0,43.395973,5.584005,O Delice,ChIJ3YBvH7iZyRIRi7xaSCLOXaY,"[u'restaurant', u'food', u'point_of_interest', u'establishment']"
0,43.4024822,5.5900992,Provence-e-liquide,ChIJiUgiUryZyRIRSnixj8WKBWQ,"[u'point_of_interest', u'establishment']"
0,43.4010713,5.5879083,Meger Chaussures,ChIJpc6Po76ZyRIRROGI98jpcIE,"[u'shoe_store', u'store', u'point_of_interest', u'establishment']"
0,43.396784,5.58511,Anachronic,ChIJb2LKNbiZyRIRF8phS4y68gQ,"[u'furniture_store', u'home_goods_store', u'store', u'point_of_interest', u'establishment']"
0,43.4014563,5.5855292,ZOYO jean luc,ChIJB2iT3r6ZyRIRokkemt0R0ng,"[u'store', u'point_of_interest', u'establishment']"
0,43.3958973,5.5842841,Restaurant La Suite,ChIJn9SsttqZyRIRglScYzyAGKo,"[u'restaurant', u'food', u'point_of_interest', u'establishment']"
0,43.3959353,5.5841848,Les salons du Grimo,ChIJmXO65seZyRIRKJTQB4XmndA,"[u'restaurant', u'food', u'point_of_interest', u'establishment']"
0,43.4034616,5.5844246,Mondial Depot Vente Sarl,ChIJZ6F3pL-ZyRIRWLh3xKcD0T0,"[u'point_of_interest', u'establishment']"
0,43.403311,5.5845301,Garage Des Artauds Citroen,ChIJidNpusyYyRIRGzc1ssc7-Jg,"[u'car_repair', u'point_of_interest', u'establishment']"
0,43.4014563,5.5855292,Sorce Eric,ChIJB2iT3r6ZyRIR6jzIzlO9bLU,"[u'health', u'point_of_interest', u'establishment']"
0,43.4023778,5.5902461,Rivoallan Sylvie,ChIJ1ybE_ryZyRIRevJrtagQ6xs,"[u'point_of_interest', u'establishment']"
0,43.4037796,5.5853034,Gambini Eric Ramonage,ChIJu_REs7-ZyRIR9xIgNDB8xrs,"[u'point_of_interest', u'establishment']"
0,43.4037796,5.5853034,Gambini Eric Ramonage EUR,ChIJu_REs7-ZyRIRZXuxcRjrGjE,"[u'point_of_interest', u'establishment']"
0,43.4038513,5.5852079,Audran Alain,ChIJu_REs7-ZyRIRw_F72Bcey9Y,"[u'general_contractor', u'point_of_interest', u'establishment']"
0,43.4037639,5.5851815,Rosato Rémy,ChIJu_REs7-ZyRIRg1UxBI4eWzs,"[u'point_of_interest', u'establishment']"
0,43.4022643,5.5862424,Lidl,ChIJ7TQh7r6ZyRIRy8VrStTMA_8,"[u'grocery_or_supermarket', u'food', u'store', u'point_of_interest', u'establishment']"
0,43.4015849,5.5867744,Frances Dominique,ChIJRQ53wL6ZyRIRoVYU420Y_cQ,"[u'grocery_or_supermarket', u'food', u'store', u'point_of_interest', u'establishment']"
0,43.3997394,5.592673,Cerda - Vincent,ChIJifvyULuZyRIR6rg_qu2yeS8,"[u'point_of_interest', u'establishment']"
0,43.4038683,5.5842542,Agnelli Paul,ChIJo7TzvL-ZyRIRFe216mzQuNc,"[u'health', u'point_of_interest', u'establishment']"
0,43.4008456,5.5873855,Turkmenian Leyral Berangere,ChIJoxUxrr6ZyRIROePrqj2gmhQ,"[u'point_of_interest', u'establishment']"
0,43.4003563,5.5882788,Perrin Agostini Corinne,ChIJRw5CUbmZyRIRnFm7ULtPDtA,"[u'point_of_interest', u'establishment']"
0,43.3993724,5.5922745,Brugnon Olivier,ChIJm2o4RLuZyRIRL6u0QglhXc0,"[u'point_of_interest', u'establishment']"
0,43.4014637,5.5855211,Malgonne Christelle,ChIJdSft3r6ZyRIR-TyFwKikhIg,"[u'health', u'point_of_interest', u'establishment']"
0,43.3990072,5.5918578,Ciaravino Paul,ChIJe8X8P7uZyRIR7JVHDcW4ZMc,"[u'point_of_interest', u'establishment']"
0,43.3988945,5.5920507,Migliaccio Patrice,ChIJdWjvP7uZyRIRStXBMrxpdzg,"[u'electrician', u'point_of_interest', u'establishment']"
0,43.3990823,5.5901742,Villa Nara,ChIJN4-dmLuZyRIR47RbVQali7o,"[u'lodging', u'point_of_interest', u'establishment']"
0,43.3995976,5.5880085,Facazur (Sté),ChIJl0WgXrmZyRIROz_njV3Fuk0,"[u'painter', u'point_of_interest', u'establishment']"
0,43.3995976,5.5880085,Alteyrac Laurent,ChIJK7Bw4ruZyRIRJ3S99Ynd1QA,"[u'point_of_interest', u'establishment']"
0,43.398842,5.589916,GIORDANO PISCINES SERVICES,ChIJj79Pn7uZyRIRA4Z7tSENk70,"[u'point_of_interest', u'establishment']"
0,43.3990056,5.5879444,Decleve Serge,ChIJRTfjYbmZyRIRZS5sjcWfewY,"[u'point_of_interest', u'establishment']"
0,43.3988671,5.5881986,Vellutini Pierre,ChIJw9Td3ruZyRIR6eAbnQOd2-o,"[u'point_of_interest', u'establishment']"
0,43.3982973,5.5951884,Revol Joel Paul Serge,ChIJ8Xff8KSZyRIRRCr-Bs3v_KE,"[u'point_of_interest', u'establishment']"
0,43.3983447,5.5890719,Sauval Laurent,ChIJL39MCrqZyRIR3Z-DCuOrWHA,"[u'point_of_interest', u'establishment']"
0,43.3976389,5.5921256,Arcambal Joel,ChIJY-oC37qZyRIRPw_D9GlSLdM,"[u'point_of_interest', u'establishment']"
0,43.3873326,5.656253,Pension de l'ARCHE,ChIJcW5rVdeeyRIRF0ixd0rqiFw,"[u'point_of_interest', u'establishment']"
0,43.3890337,5.6534218,Berge David Tracaz Henriette,ChIJGQqjHtGeyRIRGuhRs914HX0,"[u'clothing_store', u'store', u'point_of_interest', u'establishment']"
0,43.3890337,5.6534218,Monsieur Andre Spaccesi,ChIJGQqjHtGeyRIRVUAlPWxI9T4,"[u'point_of_interest', u'establishment']"
