,Latitude,Longitude,Name,Place_id,Type
0,43.713811,5.316109,La Roque-d'Anthéron,ChIJJT3rtIQeyhIRDSR_4qtmtP8,"[u'locality', u'political']"
0,43.7199303,5.3100269,Logis Hôtel le Mas de Jossyl,ChIJpwRq450eyhIRNeRnSrAq148,"[u'lodging', u'point_of_interest', u'establishment']"
0,43.7170209,5.2937579,Roque Blanc,ChIJp9hJeDocyhIROzLS8QLIm6o,"[u'lodging', u'point_of_interest', u'establishment']"
0,43.713989,5.309401,Le Grain De Sel,ChIJ58fOhCgcyhIRmTMenYicc1M,"[u'restaurant', u'food', u'point_of_interest', u'establishment']"
0,43.7129362,5.3065833,Clinical The Mediterranean,ChIJZy5vE2YcyhIRd9-YUL_8NOQ,"[u'hospital', u'point_of_interest', u'establishment']"
0,43.7139966,5.3094113,Mairie de la Roque D'Anthéron,ChIJ185x9iccyhIRsDUkO3AHImY,"[u'city_hall', u'local_government_office', u'point_of_interest', u'establishment']"
0,43.7153894,5.307351,Caisse d'Epargne La Roque d'Antheron,ChIJ-e3CHygcyhIRCJO43TilDoY,"[u'bank', u'finance', u'point_of_interest', u'establishment']"
0,43.72003,5.30216,Lidl,ChIJrxXAiCQcyhIRoFgCqLePRlw,"[u'grocery_or_supermarket', u'food', u'store', u'point_of_interest', u'establishment']"
0,43.7165125,5.3114347,Parc du Château de Florans,ChIJqz6DQp0eyhIRiUcHdVIyLV4,"[u'hospital', u'health', u'point_of_interest', u'establishment']"
0,43.719791,5.311374,Festival international de Piano,ChIJNf1N5p0eyhIR_A6osndKtlg,"[u'point_of_interest', u'establishment']"
0,43.7138343,5.3045987,Medical Center Specialized Le Méditerranée,ChIJjcMlLy8cyhIR6tZPSakN8O0,"[u'hospital', u'point_of_interest', u'establishment']"
0,43.716422,5.310146,Bioactif,ChIJ185x9iccyhIRPz_XNig5KZ0,"[u'health', u'point_of_interest', u'establishment']"
0,43.7165594,5.3099821,Foyer Rural de la Roque D'antheron,ChIJ5WX49CccyhIRrXZIWHFwazs,"[u'point_of_interest', u'establishment']"
0,43.717642,5.3058681,Spar,ChIJi05hdZseyhIR4T75JKzQjeM,"[u'grocery_or_supermarket', u'food', u'store', u'point_of_interest', u'establishment']"
0,43.7163941,5.308077,Elevage Bichons Frisés des VAUDOIS DU GRAND JAS,ChIJTZJWziccyhIRRBqJs7Pt00c,"[u'point_of_interest', u'establishment']"
0,43.714458,5.310525,Le Bocage,ChIJh-LvroIeyhIRPjcuPg93jAQ,"[u'restaurant', u'bar', u'food', u'point_of_interest', u'establishment']"
0,43.7155758,5.3072549,Mairie,ChIJ185x9iccyhIRj5fNMLpKq2w,"[u'point_of_interest', u'establishment']"
0,43.7160494,5.3075814,Office Notarial SCP Vincent Virolleaud,ChIJO_oq0yccyhIRLeYkgF1dKPQ,"[u'point_of_interest', u'establishment']"
0,43.7179941,5.308048,Pharmacie du Jas,ChIJwz4oqCccyhIR3s8wIOwtp-s,"[u'pharmacy', u'health', u'store', u'point_of_interest', u'establishment']"
0,43.7180683,5.3080243,BOSPHORES,ChIJg7O9ACccyhIRUdoCxU1kWq4,"[u'general_contractor', u'point_of_interest', u'establishment']"
0,43.7160494,5.3075815,Iderea,ChIJMfTV0iccyhIRmolWtxEkkhg,"[u'point_of_interest', u'establishment']"
0,43.7128079,5.3086681,C.a.t La Farigoule,ChIJu41XtikcyhIRukzYnz4Tje0,"[u'point_of_interest', u'establishment']"
0,43.715596,5.310693,L'auberge Du Castellas,ChIJMc85Up0eyhIRC3UuTR1vepY,"[u'restaurant', u'bar', u'food', u'point_of_interest', u'establishment']"
0,43.717738,5.304472,Optique iribarne,ChIJF8tO0CUcyhIREmunjaBx1fA,"[u'point_of_interest', u'establishment']"
0,43.7159667,5.2988804,Speedabris,ChIJYWqI54D1yRIR6RIIDN1Roa4,"[u'point_of_interest', u'establishment']"
0,43.7217673,5.3070827,Massa Gérard,ChIJOXLMPCEcyhIRUDryuJvzQH4,"[u'food', u'point_of_interest', u'establishment']"
0,43.7176707,5.3055285,Laboratoire de Biologie Médicale de la Roque d'Anthéron,ChIJT9nL_oIeyhIR6OSHyGF7WaA,"[u'health', u'point_of_interest', u'establishment']"
0,43.720958,5.300168,Silvacane Provence,ChIJe4uIViMcyhIRow00jE_vsYk,"[u'campground', u'park', u'lodging', u'point_of_interest', u'establishment']"
0,43.7162669,5.3078975,Gardiol Henri Georges Emile,ChIJU8j1zSccyhIRde4ZYXAeDK4,"[u'point_of_interest', u'establishment']"
0,43.7217673,5.3070827,Office National des Forêts (O.N.F),ChIJOXLMPCEcyhIR_yDMtWtO6Kw,"[u'point_of_interest', u'establishment']"
0,43.716422,5.310146,Coopérative Provence Silvacane,ChIJ185x9iccyhIR444KNpwggt8,"[u'grocery_or_supermarket', u'food', u'store', u'point_of_interest', u'establishment']"
0,43.7201464,5.3080962,Lafranceamamesure,ChIJcyApLCccyhIR-lKgFTntZ9I,"[u'travel_agency', u'point_of_interest', u'establishment']"
0,43.716422,5.310146,La Memoire Du Temps,ChIJ185x9iccyhIRZR5mHGwwQZg,"[u'point_of_interest', u'establishment']"
0,43.7205787,5.3085219,STILES,ChIJnwuJyyAcyhIRT_Rd6rkdzHI,"[u'point_of_interest', u'establishment']"
0,43.714913,5.308107,Patrick Vincent Et Julien Virolleaud,ChIJnS3_ZCgcyhIRJD0jor-loBk,"[u'point_of_interest', u'establishment']"
0,43.7142387,5.3094338,Crédit Agricole Alpes Provence,ChIJScEHiSgcyhIRM7I9bfJYZ_0,"[u'bank', u'finance', u'point_of_interest', u'establishment']"
0,43.7165069,5.3094576,Avenir Constructions,ChIJwUXR7SccyhIRkMRdYfTYM8M,"[u'point_of_interest', u'establishment']"
0,43.716422,5.310146,Vial Portes,ChIJ185x9iccyhIRcfxQMLYKTvE,"[u'furniture_store', u'home_goods_store', u'store', u'point_of_interest', u'establishment']"
0,43.716422,5.310146,Société Ponzio,ChIJ185x9iccyhIR3jLbH8cqTss,"[u'point_of_interest', u'establishment']"
0,43.7141573,5.3096617,Sessad,ChIJOe-fIygcyhIRMZac98bpOA4,"[u'point_of_interest', u'establishment']"
0,43.716422,5.310146,Comasud,ChIJ185x9iccyhIRho0gFxos1_c,"[u'hardware_store', u'store', u'point_of_interest', u'establishment']"
0,43.716422,5.310146,Socarel Sa,ChIJ5Y1x9iccyhIRlP4ZxxSoT4M,"[u'point_of_interest', u'establishment']"
0,43.716422,5.310146,Commune de la Roque D Antheron,ChIJ5Y1x9iccyhIRlGhD41hydXQ,"[u'local_government_office', u'point_of_interest', u'establishment']"
0,43.7152415,5.3099627,Ringot Gregoire,ChIJB02OAygcyhIR__9idBw9lw0,"[u'store', u'point_of_interest', u'establishment']"
0,43.7136439,5.3092851,Post Office,ChIJ51eEMSgcyhIRWw2OqwhIJkA,"[u'post_office', u'finance', u'point_of_interest', u'establishment']"
0,43.7151196,5.3112822,Imogroup Silvacane,ChIJmzJbtIIeyhIRcV8NeUVSprY,"[u'real_estate_agency', u'point_of_interest', u'establishment']"
0,43.7156957,5.3109081,Chez Machalle,ChIJh-LvroIeyhIRiLJvDkOaq-A,"[u'restaurant', u'food', u'point_of_interest', u'establishment']"
0,43.7162228,5.3114401,Pharmacie du Château,ChIJ1fHNOJ0eyhIRGivsbOi0b0E,"[u'pharmacy', u'health', u'store', u'point_of_interest', u'establishment']"
0,43.7151108,5.3110905,L'Atelier Fleuriste Déco,ChIJm33DtoIeyhIRbTOWcliYZHc,"[u'florist', u'store', u'point_of_interest', u'establishment']"
0,43.7162544,5.3114305,La Presse Du Chateau,ChIJ5TQGR50eyhIRfP-dbePoUAo,"[u'store', u'point_of_interest', u'establishment']"
0,43.7117359,5.3080154,Western Spirit,ChIJGWennikcyhIRpEfcdaOJpYo,"[u'store', u'point_of_interest', u'establishment']"
0,43.7161354,5.3117338,CABINET SELLI & VINE,ChIJBbIVOJ0eyhIRjHn1WL_TyMc,"[u'lawyer', u'accounting', u'finance', u'point_of_interest', u'establishment']"
0,43.7147534,5.3112395,Association Sportive Automobile Roque Durance,ChIJI1QIuYIeyhIRwanDRuRLDvc,"[u'storage', u'point_of_interest', u'establishment']"
0,43.7101426,5.3006192,Vert la Provence,ChIJPTz97C0cyhIRqCJ9GnAMt9g,"[u'general_contractor', u'point_of_interest', u'establishment']"
0,43.7155173,5.3122652,Temple protestant de l'Eglise Unie - La Roque d'Anthéron,ChIJTY5DLZ0eyhIRo_26WH3_63k,"[u'church', u'place_of_worship', u'point_of_interest', u'establishment']"
0,43.7143821,5.3121083,Halte Garderie les Zouzous,ChIJhfFBOiocyhIRVzsm5bJs6J8,"[u'point_of_interest', u'establishment']"
0,43.7132134,5.3120554,ACCESMETRIE,ChIJUSGA9oIeyhIRW0JY08gYYf8,"[u'point_of_interest', u'establishment']"
0,43.71315,5.3121168,Chez Victoria,ChIJq4nT94IeyhIRX-M1EYIBB_w,"[u'travel_agency', u'real_estate_agency', u'lodging', u'point_of_interest', u'establishment']"
0,43.7263359,5.2987629,ASSISTANTE MATERNELLE Agréée à La Roque d'Anthéron Valérie,ChIJLUjE6BccyhIRgRsMlDmu98U,"[u'point_of_interest', u'establishment']"
0,43.7157204,5.3109135,Aux Saveurs de Tanou,ChIJAS9dUp0eyhIRAzt-QqLu9VM,"[u'restaurant', u'food', u'point_of_interest', u'establishment']"
0,43.710013,5.3094367,Habitat Pluriel,ChIJ80SnESocyhIRsQKikrvtkdM,"[u'point_of_interest', u'establishment']"
0,43.7106088,5.3108183,SMART Piscines,ChIJC4Cj3yIZyhIRTOREakizQ1A,"[u'store', u'point_of_interest', u'establishment']"
0,43.708865,5.289747,Lemarchands Marc,ChIJo0FzezUcyhIRDpc6hGAqGxE,"[u'point_of_interest', u'establishment']"
0,43.7087816,5.3047069,Poulet Sylvie,ChIJcf5-fiwcyhIRHqYZEzZQVtQ,"[u'point_of_interest', u'establishment']"
0,43.7103297,5.3039027,Taxi Phil,ChIJ85RxFywcyhIR7GfwjQQvq4c,"[u'point_of_interest', u'establishment']"
0,43.7103297,5.3039027,Paquola Cyril,ChIJ85RxFywcyhIRDmzwYFzFtAI,"[u'point_of_interest', u'establishment']"
0,43.7104192,5.3039147,CAP Conseil Be different,ChIJz6K8FywcyhIR37sDYRL5P_8,"[u'point_of_interest', u'establishment']"
0,43.7104192,5.3039147,Lequime Jean,ChIJ85RxFywcyhIRWtkkv5BipJA,"[u'point_of_interest', u'establishment']"
0,43.7104192,5.3039147,Pichon Didier Didier,ChIJ85RxFywcyhIRLHxyMU3FZXk,"[u'point_of_interest', u'establishment']"
0,43.7091363,5.3050182,Jamet Exiga Christine Marie,ChIJ9ep1eCwcyhIRi-lTdBPV3Wg,"[u'point_of_interest', u'establishment']"
0,43.7130965,5.3014115,Jean Amelie,ChIJj7vzSC4cyhIRrN2EWadvUvI,"[u'point_of_interest', u'establishment']"
0,43.7115811,5.3062332,Chenevez Jacques Humbert,ChIJF-0hQykcyhIRKeVg2gN0E_U,"[u'finance', u'point_of_interest', u'establishment']"
0,43.7121382,5.3055414,Martins Domingos,ChIJh8VySCkcyhIRWzpBZ4EGz4U,"[u'general_contractor', u'point_of_interest', u'establishment']"
0,43.7131631,5.2996353,De Steur Patrick,ChIJPUFdLTAcyhIRcYxMD_IRXO8,"[u'general_contractor', u'point_of_interest', u'establishment']"
0,43.71347,5.301348,Gratraud Celia,ChIJGTVtSy4cyhIR1cKusJC5c0Y,"[u'point_of_interest', u'establishment']"
0,43.713488,5.3019109,Harema,ChIJIxvfUi4cyhIR3dWImXquyTM,"[u'point_of_interest', u'establishment']"
0,43.713772,5.3045091,Les Mélodies,ChIJicMlLy8cyhIRfAlomARBtgs,"[u'point_of_interest', u'establishment']"
0,43.7137013,5.3047863,Vella Sylvie,ChIJjcMlLy8cyhIRgBq3Y66sqkA,"[u'health', u'point_of_interest', u'establishment']"
0,43.713804,5.304925,Blanc Patrick,ChIJo17pLC8cyhIRs39H6SlZBqs,"[u'doctor', u'health', u'point_of_interest', u'establishment']"
0,43.713804,5.304925,Bertaux Yannick,ChIJo17pLC8cyhIRr2BTklg0tZQ,"[u'point_of_interest', u'establishment']"
0,43.7144082,5.3022571,Clark David,ChIJqWy0pi8cyhIRglZHbWKemfg,"[u'painter', u'point_of_interest', u'establishment']"
0,43.711764,5.309109,Bahtat Sana,ChIJG1ud6ykcyhIR4aIV6tp0Oh4,"[u'point_of_interest', u'establishment']"
0,43.712741,5.308258,13640,ChIJ6QXdrykcyhIRDXjU2vnGMH4,"[u'point_of_interest', u'establishment']"
0,43.7150288,5.3029016,Danielou Eric,ChIJbf4Cbi8cyhIR1d04l7oRwt0,"[u'point_of_interest', u'establishment']"
0,43.7128079,5.3086681,Anaap,ChIJu41XtikcyhIRkljs7X7sBao,"[u'point_of_interest', u'establishment']"
0,43.7128079,5.3086681,Associa d'aide Aux Infirmes la Farigou,ChIJDY5XtikcyhIRY_TMriB9VpU,"[u'point_of_interest', u'establishment']"
0,43.7106088,5.3108183,Harrois Romain,ChIJhWFK-IEeyhIRoXRRDSUt2to,"[u'point_of_interest', u'establishment']"
0,43.7106088,5.3108183,Elior Restauration Enseignement / Restau,ChIJhWFK-IEeyhIR43k9Vs8V29A,"[u'point_of_interest', u'establishment']"
0,43.7106088,5.3108183,Taravella Alain,ChIJhWFK-IEeyhIR5HsZ5qFdfbo,"[u'general_contractor', u'point_of_interest', u'establishment']"
0,43.7105378,5.3108946,Bastin Bienaime Patricia,ChIJhWFK-IEeyhIRrsuWbGMDy10,"[u'food', u'point_of_interest', u'establishment']"
0,43.710538,5.310895,Louaty Lebre Francoise,ChIJhWFK-IEeyhIRLhHF-MN2Qq8,"[u'doctor', u'health', u'point_of_interest', u'establishment']"
0,43.714109,5.308191,13640,ChIJQ9hoWygcyhIRI8Xnt0eSdOg,"[u'point_of_interest', u'establishment']"
0,43.713628,5.309172,13640,ChIJqxbmNigcyhIRbZEk_ngoU_E,"[u'post_office', u'finance', u'point_of_interest', u'establishment']"
0,43.716173,5.302816,Acco France,ChIJMXOihiUcyhIR_1YmpLW0IXU,"[u'point_of_interest', u'establishment']"
0,43.7113736,5.311722,Assoc Femmes Responsables Familiales,ChIJ9esSRYIeyhIRyn-ZGhr1GZY,"[u'point_of_interest', u'establishment']"
0,43.7164661,5.3010838,Taxi Rocassiers Sarl,ChIJr1CihiUcyhIR9PzbzlmegoM,"[u'point_of_interest', u'establishment']"
0,43.7164661,5.3010838,Godefroy Regis,ChIJEVh8YyUcyhIRhnmHczXHqg0,"[u'finance', u'point_of_interest', u'establishment']"
0,43.71491,5.30811,"Mes Virolleaud, Vincent & Bassi",ChIJMUf_ZCgcyhIRcVtkw_57ntM,"[u'finance', u'point_of_interest', u'establishment']"
0,43.7267992,5.3002109,PHILIP LIPPIZZAN,ChIJu-5yIhgcyhIRoZ3TqfgUOuo,"[u'point_of_interest', u'establishment']"
0,43.7215857,5.3069355,Gaillard Christophecaroline,ChIJ0Yk5PSEcyhIRhPHzVVGOfHk,"[u'point_of_interest', u'establishment']"
0,43.7281261,5.3115212,Usine la roque-d'anthéron,ChIJU7bIkqAeyhIROB6bMwPgMVs,"[u'point_of_interest', u'establishment']"
0,43.719601,5.3056215,Gendarmerie - La Roque d'Anthéron,ChIJidrOkCYcyhIRdLrF6WZRvDE,"[u'point_of_interest', u'establishment']"
0,43.719568,5.3056372,Gaec Pacot Coustabeau,ChIJR1U2HiQcyhIRrpWQAtU9PXw,"[u'point_of_interest', u'establishment']"
0,43.7188396,5.3040958,Janer Rizzotti Jacqueline,ChIJzdhmJSQcyhIRi0l4O-oYvEw,"[u'point_of_interest', u'establishment']"
0,43.72142,5.3100581,Dando Gaël,ChIJV-QboSAcyhIR7EdJ-xNAvno,"[u'general_contractor', u'point_of_interest', u'establishment']"
0,43.7213301,5.3100634,Paquet Magali Hellen Paulette,ChIJV-QboSAcyhIRB5y-r4FmN8w,"[u'point_of_interest', u'establishment']"
0,43.7182476,5.302795,Baquè Michel,ChIJjxq6rCUcyhIRw2u1iWOr6rM,"[u'point_of_interest', u'establishment']"
0,43.7182674,5.3040586,Ducler Catherine,ChIJ31b9MyQcyhIRiLWs1kclFKw,"[u'point_of_interest', u'establishment']"
0,43.7143109,5.3140953,Gigante Sylvia,ChIJaTOfP4MeyhIR6AFlZ8nRQY4,"[u'point_of_interest', u'establishment']"
0,43.71459,5.318111,Bouchard Max Et Fils,ChIJA0WSJ4UeyhIRx95-mSRr1Ws,"[u'general_contractor', u'car_repair', u'point_of_interest', u'establishment']"
0,43.7131893,5.3124651,Stéphanie HERAUD Guide Interprète National,ChIJIcuO-IIeyhIRqB9Ptl8j8Rk,"[u'travel_agency', u'point_of_interest', u'establishment']"
0,43.7160853,5.3140906,Condomines Anne Marie,ChIJ6waYx5weyhIRHRvpup7MLVc,"[u'point_of_interest', u'establishment']"
0,43.7128751,5.3134303,Accesmétrie,ChIJCeBkAoMeyhIRPNJTtEuWS-s,"[u'point_of_interest', u'establishment']"
0,43.715557,5.3147041,Cabinet d'ostéopathie d'Amélie PALTRIÉ,ChIJFXjCrOKLyRIRzu-HTYou0-Y,"[u'health', u'point_of_interest', u'establishment']"
0,43.7142831,5.3131964,Accessavoir,ChIJmUAeIoMeyhIR4AVRXrmJsOA,"[u'point_of_interest', u'establishment']"
0,43.7142831,5.3131964,Optimetrie,ChIJmUAeIoMeyhIR4FHw_zw1d80,"[u'point_of_interest', u'establishment']"
0,43.7228519,5.2885946,Le Parc des Labyrinthes Géants,ChIJ73ntikAcyhIRPVyueiX0Y70,"[u'amusement_park', u'point_of_interest', u'establishment']"
0,43.7206876,5.2878385,SL Motors,ChIJvSeHSEccyhIRrwMKnQ1B2WE,"[u'car_repair', u'point_of_interest', u'establishment']"
0,43.724644,5.286086,Aventure Paintball Aix En Provence,ChIJQ090nkEcyhIRM727Ahpi-fk,"[u'point_of_interest', u'establishment']"
0,43.7244441,5.2862323,aventure paintball,ChIJLXIrsEEcyhIRtHCl3QNOb9U,"[u'point_of_interest', u'establishment']"
0,43.725039,5.286755,aperovencal,ChIJveFRNUAcyhIRBuLFfSPVSxk,"[u'food', u'point_of_interest', u'establishment']"
0,43.720771,5.288139,Garage Vila / Renault,ChIJE8XeR0ccyhIRfYDopRvBHvg,"[u'car_repair', u'point_of_interest', u'establishment']"
0,43.7171742,5.3004892,Berger Junca Valerie Pascale,ChIJGz0ENiUcyhIRbQ9450yj4uY,"[u'point_of_interest', u'establishment']"
0,43.7217562,5.2864764,PBM 13,ChIJ961dKUEcyhIRN-EqC66fA60,"[u'store', u'point_of_interest', u'establishment']"
0,43.717752,5.30363,Viard Dominique,ChIJh5K4tyUcyhIRmBRe-20gO6k,"[u'point_of_interest', u'establishment']"
0,43.7174844,5.3038038,Holtzinger Aline,ChIJ8R4LxyUcyhIRYTqwrwDWl-8,"[u'point_of_interest', u'establishment']"
0,43.722538,5.283417,unnamed,ChIJ3RO96EMcyhIR_oYPsKJoc58,"[u'point_of_interest', u'establishment']"
0,43.7232035,5.2837372,Dechetterie De La Roque D'Antheron,ChIJ6Toz2kMcyhIRdB4-aMGyhtc,"[u'point_of_interest', u'establishment']"
0,43.7177508,5.3043292,PLOMBIÊR Bernard,ChIJ_9G_ziUcyhIRNQ_qA5YDggo,"[u'point_of_interest', u'establishment']"
0,43.7177622,5.3044702,Mimun Joelle,ChIJy05J0CUcyhIRADs6gK3MGdM,"[u'doctor', u'health', u'point_of_interest', u'establishment']"
0,43.717574,5.30481,13640,ChIJEzba2SUcyhIREIG6U_queCY,"[u'point_of_interest', u'establishment']"
0,43.663327,5.347199,Rognes,ChIJdafql3j1yRIRy6GGVS9CEoU,"[u'locality', u'political']"
0,43.712785,5.321243,ECURIE POEME,ChIJ913jgo8eyhIRCOUFqSJqPM0,"[u'point_of_interest', u'establishment']"
0,43.7149413,5.3106943,Roussier Michel,ChIJXcJir4IeyhIRmKvKTp_Lq4U,"[u'point_of_interest', u'establishment']"
0,43.708865,5.289747,Ritzzo Facades,ChIJo0FzezUcyhIRAf9JRzdVHZU,"[u'general_contractor', u'point_of_interest', u'establishment']"
0,43.708865,5.289747,Pouchele Bruno,ChIJo0FzezUcyhIRPDW5DZXCwjo,"[u'point_of_interest', u'establishment']"
0,43.708865,5.289747,Ici et Ailleurs,ChIJo0FzezUcyhIRmw1kbt3mnTI,"[u'point_of_interest', u'establishment']"
0,43.7049123,5.2872973,Radde Pascal,ChIJ4XHtBrUdyhIR2zj81YpWx8E,"[u'point_of_interest', u'establishment']"
0,43.7049123,5.2872973,Borel Francois,ChIJ4XHtBrUdyhIRDGLTiLsg0JI,"[u'food', u'point_of_interest', u'establishment']"
0,43.746982,5.313601,Lauris,ChIJ67iqwVYZyhIROf1C42wPvD4,"[u'locality', u'political']"
0,43.740445,5.307367,unnamed,ChIJFRekdgEcyhIRREWY-o0NEmA,"[u'point_of_interest', u'establishment']"
0,43.7436162,5.2969616,Villevieille Christophe,ChIJu7R7SvcbyhIRMyHKnr5XVHY,"[u'general_contractor', u'point_of_interest', u'establishment']"
0,43.7296256,5.3171153,Camping Tohapi Le Domaine des Iscles ****,ChIJd-GOtbweyhIRDI5x21gsKVw,"[u'campground', u'park', u'lodging', u'point_of_interest', u'establishment']"
0,43.7281889,5.3209877,Odalys Les Iscles,ChIJYz0IyrweyhIROMJBKCtetN8,"[u'lodging', u'point_of_interest', u'establishment']"
0,43.7286235,5.3181526,13640,ChIJYfkJdqMeyhIRlkQgp3phOlU,"[u'campground', u'park', u'lodging', u'point_of_interest', u'establishment']"
0,43.733333,5.316378,unnamed,ChIJ81N16aUeyhIRtib2vPdJWYU,"[u'point_of_interest', u'establishment']"
0,43.7266663,5.3216873,Base de Loisirs des Iscles,ChIJrSONJL0eyhIR8soRY9m5Jwg,"[u'point_of_interest', u'establishment']"
0,43.71817,5.3102138,La Corrigeuse - Sabine Pizzarotti,ChIJbRIYficcyhIRQa1D9zDnTNk,"[u'point_of_interest', u'establishment']"
0,43.71817,5.3102138,Pizzarotti Sabine Claudine Paulette,ChIJbRIYficcyhIRvxt_bxsiKRk,"[u'point_of_interest', u'establishment']"
0,43.7194036,5.31671,Bourry Jean-Marc,ChIJnRkN6JseyhIRrAoEqX4sKUY,"[u'point_of_interest', u'establishment']"
0,43.7194036,5.31671,Caso Barra Martine Mireille,ChIJnRkN6JseyhIRwtmp7tXpwgE,"[u'point_of_interest', u'establishment']"
0,43.7182972,5.3073777,Barra Michèle,ChIJZz7E_iYcyhIRjWleCCMvBhA,"[u'doctor', u'health', u'point_of_interest', u'establishment']"
0,43.7180485,5.3078765,Ischyrion François,ChIJAWp1qiccyhIR6Fghn5fjTxk,"[u'point_of_interest', u'establishment']"
0,43.7179941,5.308048,Galvier Jean-Luc,ChIJwz4oqCccyhIRO51FbpSOHLI,"[u'health', u'point_of_interest', u'establishment']"
0,43.7179941,5.308048,Le Serrec Roger,ChIJwz4oqCccyhIRp6ElN0WZcAY,"[u'health', u'point_of_interest', u'establishment']"
0,43.718163,5.307042,Martin Rudy Emile,ChIJ-w8W-CYcyhIRlUKYFTPUwVA,"[u'point_of_interest', u'establishment']"
0,43.7181352,5.3071546,Cabinet Vétérinaire des Chantannes,ChIJSxI4-SYcyhIRDqJ2K_nEHK8,"[u'veterinary_care', u'point_of_interest', u'establishment']"
0,43.7177817,5.309052,Carello Robert,ChIJ703UjyccyhIRJMQQnHFICvM,"[u'plumber', u'point_of_interest', u'establishment']"
0,43.7177817,5.309052,Granon Laurent,ChIJ185x9iccyhIRCYpiiBvgBcU,"[u'electrician', u'point_of_interest', u'establishment']"
0,43.7178213,5.3086157,Toilettes publiques,ChIJ0dXMpiccyhIRiT6TiJy7pKE,"[u'point_of_interest', u'establishment']"
0,43.723129,5.28262,Lucciol,ChIJ185x9iccyhIRDXQ76o194zw,"[u'plumber', u'general_contractor', u'store', u'point_of_interest', u'establishment']"
0,43.723616,5.2812684,Sudloc Equipement,ChIJ185x9iccyhIRzAVEMqxmVDo,"[u'general_contractor', u'point_of_interest', u'establishment']"
0,43.72394,5.28099,Coopérative Provence Miel,ChIJXxP8AkMcyhIRS8QomkXLwh4,"[u'grocery_or_supermarket', u'food', u'store', u'point_of_interest', u'establishment']"
0,43.716252,5.329716,Abbaye de Silvacane,ChIJ185x9iccyhIRCm7OQPGWGgg,"[u'place_of_worship', u'point_of_interest', u'establishment']"
0,43.7148842,5.3235894,Aigoual Provence,ChIJiZ49Ko4eyhIRWd4hG4JoUpk,"[u'point_of_interest', u'establishment']"
0,43.71503,5.3244826,Skyros International,ChIJA0WSJ4UeyhIR4zPI3yRBYu8,"[u'point_of_interest', u'establishment']"
0,43.70976,5.325074,La Baume Village de Vacances,ChIJVyGbTokeyhIRbvf3V2sdjwA,"[u'sublocality_level_1', u'sublocality', u'political']"
0,43.71555,5.32038,Andrei Philippe,ChIJ0d_c6JIeyhIRGWivX9G5Hso,"[u'bakery', u'restaurant', u'food', u'store', u'point_of_interest', u'establishment']"
0,43.71555,5.32038,La Fournee de Sylvacane,ChIJT5hcdpIeyhIR_pNTs7TLaQs,"[u'bakery', u'food', u'store', u'point_of_interest', u'establishment']"
0,43.715547,5.320381,Barra Patrick,ChIJ0d_c6JIeyhIRP7AywwZ4C_A,"[u'food', u'point_of_interest', u'establishment']"
0,43.653995,5.261712,Lambesc,ChIJDRzny8v3yRIRyMIsggV0Ksg,"[u'locality', u'political']"
0,43.722917,5.278888,Madis,ChIJ185x9iccyhIRcmsH6WyVAZA,"[u'car_repair', u'point_of_interest', u'establishment']"
0,43.723381,5.280475,Propos Nature,ChIJ185x9iccyhIRXw7xBTQDqpY,"[u'grocery_or_supermarket', u'food', u'store', u'point_of_interest', u'establishment']"
0,43.7231219,5.278846,Tradi Bois,ChIJ4UbYylwcyhIRV7ZQYGh5zVo,"[u'furniture_store', u'home_goods_store', u'store', u'point_of_interest', u'establishment']"
0,43.7231219,5.278846,Team France,ChIJ4UbYylwcyhIRSSBOx8revEo,"[u'home_goods_store', u'store', u'point_of_interest', u'establishment']"
0,43.723149,5.277203,Multiform,ChIJ1UuR7FwcyhIRozneudPWYfY,"[u'point_of_interest', u'establishment']"
0,43.72318,5.277256,Genin Medical,ChIJzRCC7FwcyhIRWXDpOXTo_KQ,"[u'point_of_interest', u'establishment']"
0,43.72308,5.275932,Sarl Athena Tradibois,ChIJ185x9iccyhIRT0JrmE2gzno,"[u'general_contractor', u'furniture_store', u'home_goods_store', u'store', u'point_of_interest', u'establishment']"
0,43.7229632,5.2807492,centre d'incendie et de secours,ChIJKwPCEkMcyhIRd64oL-JI7Ew,"[u'fire_station', u'point_of_interest', u'establishment']"
0,43.723104,5.2788143,La Semerienne,ChIJ5_HdylwcyhIRSqjxDDLKqEw,"[u'point_of_interest', u'establishment']"
0,43.723104,5.2788143,Ici et Ailleurs,ChIJkZDdylwcyhIRkrjlcYQeVxs,"[u'point_of_interest', u'establishment']"
0,43.7225704,5.2753512,Arnaud Jean-Marc,ChIJ82N6blwcyhIRlM_nYjljZGA,"[u'real_estate_agency', u'point_of_interest', u'establishment']"
0,43.7226508,5.2753686,Musso Peintures Sarl Sarl,ChIJE5FoblwcyhIRAgdlXnvxI1M,"[u'point_of_interest', u'establishment']"
0,43.722659,5.27533,Sogea Matériel,ChIJ82N6blwcyhIR9pKLSQMxFDc,"[u'general_contractor', u'point_of_interest', u'establishment']"
0,43.723393,5.275234,Pont d'Aubergue,ChIJwepGQVwcyhIR-DpherzXalU,"[u'premise', u'point_of_interest', u'establishment']"
0,43.709485,5.32485,Le Hameau de la Baume,ChIJC8cmRokeyhIRAF76EAseSp8,"[u'restaurant', u'food', u'point_of_interest', u'establishment']"
0,43.709657,5.3138127,Camoin Lise,ChIJZ1eWa4EeyhIRhkTHTEuE_xA,"[u'point_of_interest', u'establishment']"
0,43.7119137,5.3146615,Stade Michel Bouchard,ChIJha-hk4MeyhIRSqEan5-dIzI,"[u'stadium', u'point_of_interest', u'establishment']"
0,43.713664,5.320146,Salvati Stephane Vincent,ChIJe6lrZoUeyhIRxwFRCZlNTOI,"[u'electrician', u'point_of_interest', u'establishment']"
0,43.713664,5.320146,Sabiani Berard Nathalie Benoite,ChIJe6lrZoUeyhIReUodEecUoeE,"[u'point_of_interest', u'establishment']"
0,43.713873,5.320154,"Nath'ure, Soins & Beauté",ChIJ0SWMZ4UeyhIR9ERRsGH4REM,"[u'point_of_interest', u'establishment']"
0,43.713811,5.316109,Rock'Acier moto plaisir,ChIJVY37mYQeyhIRgAU4aGoZdJM,"[u'point_of_interest', u'establishment']"
0,43.713811,5.316109,Cabinet infirmier Chabas Ghisoni Fitoussi Saunier Rizzarello,ChIJnR3FyCUcyhIRM5hYz85K9RU,"[u'point_of_interest', u'establishment']"
0,43.7141986,5.3175162,Annaloro Gaetan,ChIJTRwO3YQeyhIRgQLWvYLalNs,"[u'clothing_store', u'store', u'point_of_interest', u'establishment']"
0,43.712266,5.312434,Brando Nowicki Corinne Irma Marcelle,ChIJMzXpToIeyhIRVaT3AOaaaII,"[u'bakery', u'restaurant', u'food', u'store', u'point_of_interest', u'establishment']"
0,43.712266,5.312434,B.s.v. Concept,ChIJTV7uToIeyhIR8GzgcoqeBXE,"[u'point_of_interest', u'establishment']"
0,43.7139052,5.3247611,Maison Familiale Rurale La Roque D Antheron,ChIJR823FY4eyhIRmYD03d-boes,"[u'point_of_interest', u'establishment']"
0,43.7141264,5.3243126,Huguenin Elie Trenquier Muriel,ChIJN-NZPI4eyhIRAoAm9Qm4xzE,"[u'point_of_interest', u'establishment']"
0,43.7147244,5.3231286,ferronnerie d'art ANGOVEL,ChIJKe1P_5EeyhIRWXXf4yio2vI,"[u'point_of_interest', u'establishment']"
0,43.714879,5.3164726,Lebre Augustin,ChIJ5wsnt4QeyhIRsegM7CW2poE,"[u'point_of_interest', u'establishment']"
0,43.7142925,5.3140907,Quiles Patrick,ChIJmQGYP4MeyhIRx9uZhHCJZbc,"[u'point_of_interest', u'establishment']"
0,43.7134591,5.31247,Simiand Daniel,ChIJP01D2I8eyhIRtXxpqWtqc3g,"[u'point_of_interest', u'establishment']"
0,43.7132134,5.3120554,INGEMETRIE,ChIJPXCr94IeyhIR5tv8-p0W2mY,"[u'point_of_interest', u'establishment']"
0,43.71572,5.31742,Courbon Michel,ChIJ0d_c6JIeyhIRk_Ol_-YlBbo,"[u'department_store', u'store', u'point_of_interest', u'establishment']"
0,43.7140095,5.3118148,Dagneaux Dionisi Francoise Denise,ChIJ97-x0oIeyhIR-fzk3Fm5Gxc,"[u'grocery_or_supermarket', u'food', u'store', u'point_of_interest', u'establishment']"
0,43.7156603,5.3147722,Cabinet d'ostéopathie,ChIJySzxsZweyhIRvTZI_7Kq_Jk,"[u'health', u'point_of_interest', u'establishment']"
0,43.7143356,5.3121198,Carlys Evenementiels,ChIJgz5wxYIeyhIRRx76fNMJozI,"[u'food', u'point_of_interest', u'establishment']"
0,43.7149545,5.3127431,Aulagnier Emmanuelle,ChIJmQB314IeyhIR6eddCzIn6pg,"[u'point_of_interest', u'establishment']"
0,43.7133494,5.3105395,Daumalin Anne-Laurence,ChIJ55wp9YIeyhIRqBjVhId5Ktg,"[u'doctor', u'health', u'point_of_interest', u'establishment']"
0,43.7133846,5.3104493,Chabas Denise,ChIJ55wp9YIeyhIRLVKy_v3lYtA,"[u'health', u'point_of_interest', u'establishment']"
0,43.738559,5.318021,Location canoe kayak Provence AFDA,ChIJeSUXVrAeyhIRbSeJyXay9gM,"[u'point_of_interest', u'establishment']"
0,43.744106,5.308012,unnamed,ChIJ16I5eQAcyhIRk-e02PBdWSg,"[u'point_of_interest', u'establishment']"
0,43.7441694,5.3071932,Hudelot Claude,ChIJp3OwgwAcyhIRomy63jINMsE,"[u'point_of_interest', u'establishment']"
0,43.7441694,5.3071932,Fink Elisabeth,ChIJp3OwgwAcyhIR0DPkdf3M0HY,"[u'point_of_interest', u'establishment']"
0,43.726012,5.32362,13640,ChIJqXKvpr0eyhIRSP1I2qXb954,"[u'point_of_interest', u'establishment']"
0,43.730303,5.277786,Le Parc des Labyrinthes Géants,ChIJ11ylFWYcyhIRx3o2qlyh5n4,"[u'point_of_interest', u'establishment']"
0,43.7153873,5.3257957,catherine duparcq,ChIJ3x0u-JEeyhIR-KVJfCixBzc,"[u'point_of_interest', u'establishment']"
0,43.724294,5.267181,Pont des Parties,ChIJL46PmPUcyhIRBGfn40FLea4,"[u'premise', u'point_of_interest', u'establishment']"
0,43.69645,5.276755,Chapelle Sainte-Anne de Goiron,ChIJyemIDqUdyhIRIbY_nBuTma4,"[u'church', u'place_of_worship', u'point_of_interest', u'establishment']"
0,43.731771,5.264576,MAS DE LA SAULINE chambres d'Hôtes à la Roque d'Anthéron,ChIJd9EX3oscyhIRbL-gFFyA5_s,"[u'lodging', u'point_of_interest', u'establishment']"
0,43.734629,5.373049,Cadenet,ChIJo0jm-kkfyhIRX0hKegDPNz8,"[u'locality', u'political']"
0,43.716972,5.245821,Charleval,ChIJexLpjMIcyhIREASX_aUZCAQ,"[u'locality', u'political']"
0,43.718326,5.354976,Camping Val de Durance,ChIJHRhXix4fyhIRYUG0gMsjarM,"[u'campground', u'park', u'lodging', u'point_of_interest', u'establishment']"
0,43.715945,5.356223,unnamed,ChIJO5CnYRwfyhIR69jQDOaNXgs,"[u'point_of_interest', u'establishment']"
0,43.719667,5.3567539,unnamed,ChIJP7s1zx4fyhIRSZOUwiGaxWw,"[u'point_of_interest', u'establishment']"
