,Latitude,Longitude,Name,Place_id,Type
0,43.591912,5.126824,Lançon-Provence,ChIJ4YHdMLr7yRIRYAKX_aUZCAQ,"[u'locality', u'political']"
0,43.5815994,5.1562583,La Cadeniere,ChIJI2WzVOz7yRIRBGPXaleAkvI,"[u'food', u'point_of_interest', u'establishment']"
0,43.5815994,5.1562583,Impératrice Paysages,ChIJI2WzVOz7yRIR5eNsRCzTtRw,"[u'general_contractor', u'point_of_interest', u'establishment']"
0,43.5815994,5.1562583,Agence Des 3 Ormeaux,ChIJI2WzVOz7yRIRaxWDJmL83fs,"[u'real_estate_agency', u'point_of_interest', u'establishment']"
0,43.569563,5.152823,Beauty-life,ChIJExhiWIX7yRIRR4QHFWa2dJ8,"[u'grocery_or_supermarket', u'food', u'store', u'point_of_interest', u'establishment']"
0,43.5815994,5.1562583,Martinasso Crouzillat,ChIJI2WzVOz7yRIREPnv7l4VGe8,"[u'point_of_interest', u'establishment']"
0,43.5815994,5.1562583,Paysages Assistances,ChIJI2WzVOz7yRIR3EpyfQdjqYQ,"[u'general_contractor', u'point_of_interest', u'establishment']"
0,43.5815994,5.1562583,Indivision Tobias Freres,ChIJI2WzVOz7yRIRA51UkhnNr3c,"[u'point_of_interest', u'establishment']"
0,43.5815994,5.1562583,Tobias Gerard,ChIJI2WzVOz7yRIRFS4gJjze7B4,"[u'point_of_interest', u'establishment']"
0,43.5815994,5.1562583,Bianconi Nathalie,ChIJI2WzVOz7yRIRuP8FYnSjJRQ,"[u'point_of_interest', u'establishment']"
0,43.581689,5.1562469,Charles Julien,ChIJI2WzVOz7yRIRK_0cORu9xGo,"[u'point_of_interest', u'establishment']"
0,43.560664,5.156386,Télégraphe Chappe,ChIJ0TaynZ37yRIRsEJqidI9xpM,"[u'point_of_interest', u'establishment']"
0,43.5865591,5.1587446,Bellegrand,ChIJAWLhLO_7yRIRZHXYkdmRyIk,"[u'point_of_interest', u'establishment']"
0,43.5893198,5.1617067,chevrerie honnore,ChIJ14Pyy-f7yRIRXe2U1esyixc,"[u'restaurant', u'food', u'point_of_interest', u'establishment']"
0,43.586994,5.151081,Chauvin Jérôme,ChIJccRWmM37yRIRUu4Br_CzvXQ,"[u'general_contractor', u'point_of_interest', u'establishment']"
0,43.5917597,5.1597614,Honnore Bernard,ChIJ8yUQlOb7yRIRFfjh-VgZT_E,"[u'food', u'point_of_interest', u'establishment']"
0,43.588522,5.168074,Chapelle Saint-Symphorien,ChIJg8tOttz7yRIRRYV9R3-gHxU,"[u'church', u'place_of_worship', u'point_of_interest', u'establishment']"
0,43.5830405,5.1701931,Chafi Mehdi,ChIJW_aLpsb7yRIRQ05XZebDlGg,"[u'point_of_interest', u'establishment']"
0,43.5827716,5.1435222,Garage Lançonnais,ChIJRyy3jvX7yRIRVpIX2oWSfJ4,"[u'car_repair', u'point_of_interest', u'establishment']"
0,43.582856,5.1435649,Saniez Services,ChIJRyy3jvX7yRIRHGE1fG5pZGE,"[u'general_contractor', u'point_of_interest', u'establishment']"
0,43.5827716,5.1435222,Hocquard Philippe,ChIJRyy3jvX7yRIRmNvhfWZoDlY,"[u'point_of_interest', u'establishment']"
0,43.5827716,5.1435222,Provence Maintenance,ChIJRyy3jvX7yRIRyulTeko19h4,"[u'car_repair', u'point_of_interest', u'establishment']"
0,43.582856,5.1435649,Garage Premium,ChIJRyy3jvX7yRIRW2ZZG4-rFZI,"[u'point_of_interest', u'establishment']"
0,43.550993,5.194541,La Fare-les-Oliviers,ChIJw-Loe_D6yRIR58l1lAuUaws,"[u'locality', u'political']"
0,43.5981525,5.1596108,Hippopotamus,ChIJFeSwo1j5yRIR9hOoQXGP43w,"[u'restaurant', u'food', u'point_of_interest', u'establishment']"
0,43.595644,5.158409,les écuries du mas,ChIJBSsW0-P7yRIR9lutNeABoS8,"[u'point_of_interest', u'establishment']"
0,43.59319,5.17005,Cauchi Guiseppe,ChIJ-6hIWtn7yRIRw6hfzA_5naA,"[u'plumber', u'point_of_interest', u'establishment']"
0,43.5956011,5.148577,Mallia Denis,ChIJFQ5RKPz7yRIRmu2u9Wv-Gqs,"[u'point_of_interest', u'establishment']"
0,43.5872202,5.1791293,Enviro-Conseil et Travaux,ChIJNWzABM77yRIRJSdLIf0cQps,"[u'point_of_interest', u'establishment']"
0,43.5872202,5.1791293,Hamiache Michael Franck,ChIJNWzABM77yRIRcpt1WM8IDg4,"[u'general_contractor', u'point_of_interest', u'establishment']"
0,43.587719,5.144133,Alterface,ChIJwTLuw_f7yRIRjHk0Yfehiqs,"[u'point_of_interest', u'establishment']"
0,43.5880586,5.1414739,ECOLAVE SPECIALISTE DU LAVAGE ECOLOGIQUE SANS EAU,ChIJIV6TQgj8yRIRAhkiVZ4Wbso,"[u'point_of_interest', u'establishment']"
0,43.5883548,5.1405794,Seminaire Marseille Sport coach,ChIJ_SBRigj8yRIR6sR4RFJ0NA8,"[u'travel_agency', u'point_of_interest', u'establishment']"
0,43.5487313,5.154792,Château Virant,ChIJabBCwG_7yRIR9EEaw9gFNjg,"[u'food', u'point_of_interest', u'establishment']"
0,43.547929,5.168075,"Perle de Provence, savons et huiles, gîtes",ChIJpVwsORL7yRIRWuhJvQnc9Vs,"[u'point_of_interest', u'establishment']"
0,43.546641,5.153566,Château la Beaumetane,ChIJZ-aWrQT7yRIR3qxVNu6IArI,"[u'point_of_interest', u'establishment']"
0,43.551797,5.1772122,JEKOdesign,ChIJ4XkQozPn9EcR1YRXtlPMwXQ,"[u'point_of_interest', u'establishment']"
0,43.5633148,5.1387777,la,ChIJjfbaiH78yRIRFeEWyyUW9XA,"[u'point_of_interest', u'establishment']"
0,43.631049,5.150567,Pélissanne,ChIJd-7yaiL5yRIRQAGX_aUZCAQ,"[u'locality', u'political']"
0,43.594055,5.172545,13680,ChIJc53TvNn7yRIRLU6vI0b2mO8,"[u'point_of_interest', u'establishment']"
0,43.5944028,5.1726848,Gare de Peage de Lancon-Provence,ChIJHS6Lutn7yRIRSHqiGAAOf9o,"[u'point_of_interest', u'establishment']"
0,43.594664,5.172763,13680,ChIJ_UAXsdn7yRIRkgpv2L-MqsI,"[u'point_of_interest', u'establishment']"
0,43.593474,5.175139,13680,ChIJKcWqXNf7yRIR9qtxZ_0mzCo,"[u'point_of_interest', u'establishment']"
0,43.595792,5.176402,Espanet Rémi,ChIJCZYcutf7yRIRmVEKN3Y8mmk,"[u'food', u'point_of_interest', u'establishment']"
0,43.5936638,5.1441311,Lescalier Gerard,ChIJE987sfj7yRIRwcbO-6Mjg_E,"[u'point_of_interest', u'establishment']"
0,43.5918695,5.1396044,AG2S,ChIJj1PZ9Qb8yRIR8tjHkd8PALE,"[u'general_contractor', u'point_of_interest', u'establishment']"
0,43.5918695,5.1396044,Bayeron Stephanie,ChIJj1PZ9Qb8yRIRvI7nYRtFpCU,"[u'point_of_interest', u'establishment']"
0,43.5896122,5.1873921,Station-service TOTAL,ChIJKXfs5U35yRIRp8-yqXTMC2w,"[u'gas_station', u'point_of_interest', u'establishment']"
0,43.5864853,5.1818584,C.E.T Seneguier,ChIJccRWmM37yRIRyiPePhu8VeM,"[u'real_estate_agency', u'point_of_interest', u'establishment']"
0,43.5864853,5.1818584,Mille Michel,ChIJccRWmM37yRIRw4GEAf5Ai8Y,"[u'point_of_interest', u'establishment']"
0,43.5864853,5.1818584,Chambon Marc,ChIJccRWmM37yRIRrBbWMjtW7n4,"[u'food', u'point_of_interest', u'establishment']"
0,43.589366,5.185808,unnamed,ChIJPbMjJC36yRIRjXXTEyJHD3Y,"[u'point_of_interest', u'establishment']"
0,43.589443,5.187136,Monop'Daily Aire Seneguier,ChIJfyfGAy36yRIRs8GA8i2t-H0,"[u'convenience_store', u'food', u'store', u'point_of_interest', u'establishment']"
0,43.590007,5.136633,Multi services 13,ChIJJeHaGwb8yRIRYxLzlg4Ni80,"[u'general_contractor', u'point_of_interest', u'establishment']"
0,43.5900118,5.1367267,Avidif,ChIJ_043egX8yRIRqlnQGZmxr7k,"[u'electronics_store', u'store', u'point_of_interest', u'establishment']"
0,43.591733,5.137557,Le Platanium Georges,ChIJifDLXcf2yRIRuMTBmLLf0Cw,"[u'lodging', u'point_of_interest', u'establishment']"
0,43.5895307,5.1331132,S&S Demenagement,ChIJB8TK-A_8yRIRyOsJmyyxpGI,"[u'moving_company', u'point_of_interest', u'establishment']"
0,43.5915,5.13579,Électricien Lancon,ChIJ95HfrgX8yRIRh8YuFlXfZ1I,"[u'electrician', u'plumber', u'general_contractor', u'point_of_interest', u'establishment']"
0,43.591491,5.13568,AECP-GRACEFFA lancon,ChIJ1w3XqAX8yRIRNTpoakVJ4ss,"[u'plumber', u'general_contractor', u'electronics_store', u'electrician', u'store', u'point_of_interest', u'establishment']"
0,43.5914653,5.1352745,Pichon Patrick Jean Noel,ChIJySi6BwX8yRIR6js_ojXR_nM,"[u'point_of_interest', u'establishment']"
0,43.587414,5.1297387,ALPHA PROTEC,ChIJgTMCAhH8yRIRtIxOuUiNLnA,"[u'point_of_interest', u'establishment']"
0,43.58638,5.139203,13680,ChIJxZI2PQn8yRIR0GMaiMxuZNE,"[u'parking', u'point_of_interest', u'establishment']"
0,43.587591,5.1404309,Michel Frederic,ChIJK1vO-Qj8yRIRUmHwA4wmcYQ,"[u'point_of_interest', u'establishment']"
0,43.5883155,5.1404677,Assistance Bureautique Provence,ChIJ_SBRigj8yRIRdIfkqhwNS8s,"[u'point_of_interest', u'establishment']"
0,43.583372,5.128866,Deco-Ffrage,ChIJx69-E8XnyRIR7ZI3hE626e4,"[u'point_of_interest', u'establishment']"
0,43.4757729,5.167309,Berre-l'Étang,ChIJG8xNj1fkyRIRrlEg1sJNbJA,"[u'locality', u'political']"
0,43.5359889,5.156633,Stonica,ChIJu8jZgEP7yRIRwYbvmB1fCTc,"[u'general_contractor', u'point_of_interest', u'establishment']"
0,43.5401133,5.1497015,NLF Webdesign,ChIJMziU7jD5yRIRDB3B-_x6i9U,"[u'point_of_interest', u'establishment']"
0,43.5374138,5.1622892,Domaine des Cravons SCEA,ChIJXxvF71zkyRIRNSfAcvggiO4,"[u'food', u'point_of_interest', u'establishment']"
0,43.5371572,5.1568241,Fiedler Gilbert,ChIJu8jZgEP7yRIRVYY46_F_Dko,"[u'point_of_interest', u'establishment']"
0,43.5371572,5.1568241,Segonzac (De) Pol,ChIJu8jZgEP7yRIRxIElDEGZsRk,"[u'point_of_interest', u'establishment']"
0,43.5366928,5.156622,Marin Marilyn,ChIJoemTm0P7yRIRx-e57Lx9FVI,"[u'point_of_interest', u'establishment']"
0,43.540072,5.1656233,Pozzo Laurent,ChIJBbt93j_7yRIRb3x2yR78uds,"[u'food', u'point_of_interest', u'establishment']"
0,43.5359889,5.156633,Lerda Karine,ChIJu8jZgEP7yRIRbaDBSON2CIM,"[u'grocery_or_supermarket', u'food', u'store', u'point_of_interest', u'establishment']"
0,43.5360269,5.1565206,Fiedler Mikael,ChIJu8jZgEP7yRIRLvKxtCZL8TA,"[u'point_of_interest', u'establishment']"
0,43.5363839,5.1640614,PACA Menuiseries,ChIJkwBzp0D7yRIRHOnn6OMcNac,"[u'furniture_store', u'home_goods_store', u'store', u'point_of_interest', u'establishment']"
0,43.5382209,5.1681687,Féraud,ChIJZwlXZj77yRIRgM8KrE-_hv8,"[u'food', u'point_of_interest', u'establishment']"
0,43.54012,5.149659,13680,ChIJCZCj7F37yRIRi5uQAvSGsyM,"[u'point_of_interest', u'establishment']"
0,43.533745,5.166521,Rousset Max,ChIJR2zj4jj7yRIRIO8U93378Mo,"[u'point_of_interest', u'establishment']"
0,43.536743,5.14875,13680,ChIJMeedBFz7yRIRsC05wpE5wzE,"[u'point_of_interest', u'establishment']"
0,43.5371214,5.1823138,Aérodrome de Berre-la-Fare,ChIJdw6eUyH7yRIR8vVJ7KfX3NA,"[u'airport', u'premise', u'point_of_interest', u'establishment']"
0,43.54945,5.175257,Le Moulin d'Hortense Filles & Fils,ChIJ7Y8xTQX7yRIRu8zfw8jHoLY,"[u'point_of_interest', u'establishment']"
0,43.550543,5.178718,Pizza Des Guigues,ChIJVex-lgT7yRIRa3p6pnbcs1o,"[u'restaurant', u'food', u'point_of_interest', u'establishment']"
0,43.5496234,5.1792951,Chateau Virant,ChIJgbDqrgT7yRIR7ifsqRh2RiA,"[u'point_of_interest', u'establishment']"
0,43.548908,5.180883,WORLD'S TENDANCE,ChIJGRXQtRz7yRIR7U_9iO5Vx6A,"[u'furniture_store', u'home_goods_store', u'store', u'point_of_interest', u'establishment']"
0,43.551522,5.1772759,Boukefoussa Nassim,ChIJOV30_gT7yRIRO93kZD6X9vM,"[u'point_of_interest', u'establishment']"
0,43.5504298,5.1783778,Leclerc Charlotte,ChIJLxwMwAT7yRIRbvZ_rqKWdx0,"[u'point_of_interest', u'establishment']"
0,43.5507629,5.1783329,Romero Robert,ChIJGU47twT7yRIRr24NkQqj4hI,"[u'general_contractor', u'point_of_interest', u'establishment']"
0,43.5477003,5.1786235,Berganton Bertrand,ChIJcUCgbhv7yRIRTD6HJA1dSzk,"[u'point_of_interest', u'establishment']"
0,43.5471626,5.1787227,Naudot Santi Isabelle,ChIJc7gBdBv7yRIRaN2xD6GEBNU,"[u'point_of_interest', u'establishment']"
0,43.5497032,5.1792378,Maintenay Patrick,ChIJgbDqrgT7yRIRjPqnZykdn9k,"[u'car_repair', u'point_of_interest', u'establishment']"
0,43.5497032,5.1792378,Dol Maurice,ChIJgbDqrgT7yRIRdVyyQz410nE,"[u'grocery_or_supermarket', u'food', u'store', u'point_of_interest', u'establishment']"
0,43.5488369,5.1793524,Aparicio Faure Brigitte,ChIJWbgxURv7yRIROpJzqP5hSnA,"[u'point_of_interest', u'establishment']"
0,43.5509796,5.1791577,Pundener Jeremy,ChIJ4351kAT7yRIRqqmsEkx0Txo,"[u'plumber', u'point_of_interest', u'establishment']"
0,43.5482693,5.1796158,Michel Patrick,ChIJ7QQ_Xxv7yRIRXbBo8aOOZoY,"[u'point_of_interest', u'establishment']"
0,43.5508382,5.1796528,Robin Fouille,ChIJn1JknQT7yRIRgCoRGFdbVOA,"[u'furniture_store', u'home_goods_store', u'store', u'point_of_interest', u'establishment']"
0,43.5525566,5.1790794,Thierry Franco,ChIJK2sCcgT7yRIRefadv5ESvxs,"[u'point_of_interest', u'establishment']"
0,43.5401133,5.1497015,Les Baïsses,ChIJl6iu7F37yRIR6PZMjS7yz-A,"[u'neighborhood', u'political']"
0,43.6007962,5.1771805,Aix en Appartements,ChIJy17c8_ggyhIRNzlnoUD2AtM,"[u'lodging', u'point_of_interest', u'establishment']"
0,43.6090526,5.1479341,Relais H,ChIJl6_BCLT-yRIRls9jFVuhaYo,"[u'point_of_interest', u'establishment']"
0,43.609006,5.1478279,Hotel Mercure Lancon,ChIJKXfs5U35yRIRlJqsDSAD6U4,"[u'point_of_interest', u'establishment']"
0,43.5991487,5.180157,Teamzone école de moto trial,ChIJA4pnyn35yRIRfUiqyReH9Sw,"[u'point_of_interest', u'establishment']"
0,43.5966308,5.1366539,School Group Les Pinèdes,ChIJ82C7oBv8yRIRUsvS6TxLSQc,"[u'school', u'point_of_interest', u'establishment']"
0,43.59305,5.135809,SARL VALENTI & Fils,ChIJn8y-XQT8yRIRMGsyDyx8Nss,"[u'painter', u'general_contractor', u'point_of_interest', u'establishment']"
0,43.5947005,5.1358716,Capacy,ChIJvR56hgP8yRIRVXB1jdCc9lk,"[u'point_of_interest', u'establishment']"
0,43.598321,5.135044,Office National des Forêts,ChIJmeSzjgL8yRIRBn6ez1LKL6g,"[u'point_of_interest', u'establishment']"
0,43.594834,5.132401,Total Raffinage Marketing,ChIJMaGwrhz8yRIRvzfjQnRy5s4,"[u'point_of_interest', u'establishment']"
0,43.594834,5.132401,Total France,ChIJRRO6rhz8yRIRmW89evMfjms,"[u'point_of_interest', u'establishment']"
0,43.5927048,5.1320223,Jardin Passion Service,ChIJw-zfOhv8yRIR_OZSNAwNoLo,"[u'general_contractor', u'point_of_interest', u'establishment']"
0,43.5981,5.132095,BULLE D'INSTANT,ChIJu_UHOB38yRIRRNb_dPWzYoc,"[u'point_of_interest', u'establishment']"
0,43.593154,5.130131,Creche Municipale les Pinsons,ChIJ82C7oBv8yRIRytoIDvFfKmc,"[u'point_of_interest', u'establishment']"
0,43.5902315,5.1905948,Aire de Lançon-Provence,ChIJ3bv0xC36yRIRwikuqV3W4-4,"[u'point_of_interest', u'establishment']"
0,43.5893468,5.190051,Quick,ChIJU1mVxt77yRIRCA0iHxrYLa4,"[u'restaurant', u'food', u'point_of_interest', u'establishment']"
0,43.589888,5.193457,Station-service TOTAL,ChIJKXfs5U35yRIRADZOKUu2kWo,"[u'gas_station', u'car_repair', u'point_of_interest', u'establishment']"
0,43.588845,5.189965,13680,ChIJkYLL2S36yRIR1PmswEDRWVE,"[u'point_of_interest', u'establishment']"
0,43.58962,5.190091,Relay,ChIJFw6PKiz6yRIRExqBtLWlqOc,"[u'food', u'point_of_interest', u'establishment']"
0,43.589668,5.19007,Hippopotamus,ChIJYcVmKiz6yRIR_sBS_UTC9Mg,"[u'restaurant', u'food', u'point_of_interest', u'establishment']"
0,43.590109,5.190582,Paul (extérieur),ChIJnwwwmy76yRIR5AS8Ai5r1AM,"[u'cafe', u'restaurant', u'food', u'point_of_interest', u'establishment']"
0,43.590041,5.192129,Arche Cafétéria,ChIJG5xa5S76yRIRtXMO_h42aJU,"[u'point_of_interest', u'establishment']"
0,43.589298,5.12726,Pharmacie Lançonnaise,ChIJFys5Wxf8yRIRtEToTDfdeSU,"[u'pharmacy', u'health', u'store', u'point_of_interest', u'establishment']"
0,43.586123,5.1287423,Batimax Cheylan,ChIJbSqtQRH8yRIRqsO27XO-1QM,"[u'general_contractor', u'point_of_interest', u'establishment']"
0,43.5873692,5.1253589,Piscines Waterair,ChIJo7vk-xb8yRIR4qro0y0g_rM,"[u'general_contractor', u'point_of_interest', u'establishment']"
0,43.5873692,5.1253589,ATCM Assist Tech Construc Materiaux,ChIJo7vk-xb8yRIRptUVWh0vMyU,"[u'point_of_interest', u'establishment']"
0,43.5872849,5.1253155,Les Copines Des Lices,ChIJo7vk-xb8yRIRPNuUmVwAG2U,"[u'clothing_store', u'store', u'point_of_interest', u'establishment']"
0,43.5872849,5.1253155,Carrosserie Peinture Christian Roch,ChIJo7vk-xb8yRIR0mfJ4qlq4lE,"[u'point_of_interest', u'establishment']"
0,43.5872849,5.1253155,Audition Santé,ChIJo7vk-xb8yRIRfBFaM2ZBh0Q,"[u'health', u'point_of_interest', u'establishment']"
0,43.5872849,5.1253155,S.M. Carrelages,ChIJo7vk-xb8yRIRFXrbTQCF2S4,"[u'point_of_interest', u'establishment']"
0,43.5872849,5.1253155,Industrie Systèmes,ChIJo7vk-xb8yRIRo6682re59gE,"[u'point_of_interest', u'establishment']"
0,43.588428,5.124851,G's COMMUNICATIONS - GsC,ChIJkz_WvRf8yRIRRUshpXyvo30,"[u'point_of_interest', u'establishment']"
0,43.579734,5.2017375,Ortec Générale de Dépollution Lançon-Provence,ChIJccRWmM37yRIREpSmLVlTJtw,"[u'point_of_interest', u'establishment']"
0,43.579556,5.19869,Centre Technique de Formation Ortec,ChIJpyJdHTn6yRIRoWHbtZ8V8uY,"[u'point_of_interest', u'establishment']"
0,43.580416,5.198332,13680,ChIJv_alDjn6yRIRjbKNfN_IT2c,"[u'point_of_interest', u'establishment']"
0,43.572953,5.2067367,Mx La Fare,ChIJz6iNE2r6yRIROGNsPIMHUA4,"[u'point_of_interest', u'establishment']"
0,43.5378959,5.1717742,Meynier Jean Pierre Michel,ChIJ6WUnqj37yRIRkhh6XpTFyv8,"[u'point_of_interest', u'establishment']"
0,43.5378959,5.1717742,Le Moulin d'Hortense Filles et Fils,ChIJ6WUnqj37yRIRtB6Sf9L-A_8,"[u'point_of_interest', u'establishment']"
0,43.5378959,5.1717742,Art et Tradition Christophe Canicio,ChIJ6WUnqj37yRIRYJQ143RGpPw,"[u'general_contractor', u'point_of_interest', u'establishment']"
0,43.5378905,5.171898,Saveol,ChIJ6WUnqj37yRIRtSJNDqXOXsw,"[u'grocery_or_supermarket', u'food', u'store', u'point_of_interest', u'establishment']"
0,43.5378905,5.171898,Vanni René,ChIJ6WUnqj37yRIRkSl6l99OlsU,"[u'point_of_interest', u'establishment']"
0,43.5378905,5.171898,Les Primeurs du Mistral,ChIJ6WUnqj37yRIRrfr1A55yjk0,"[u'point_of_interest', u'establishment']"
0,43.5345478,5.1744851,Lerda Gerard,ChIJfxW1Ujv7yRIRvoMYesq_L98,"[u'point_of_interest', u'establishment']"
0,43.5345478,5.1744851,Morgante Yves,ChIJfxW1Ujv7yRIRB3TzboQkdKw,"[u'food', u'point_of_interest', u'establishment']"
0,43.5345478,5.1744851,Earl les Magnolias,ChIJfxW1Ujv7yRIRY6sJawlsd3s,"[u'food', u'point_of_interest', u'establishment']"
0,43.5314208,5.1712497,Pignatel Andre,ChIJuZqwaDr7yRIRij-_MyhOP5U,"[u'point_of_interest', u'establishment']"
0,43.534767,5.146493,Jo et Renée,ChIJx3miEFn7yRIRx8-aCvnEFXo,"[u'point_of_interest', u'establishment']"
0,43.534592,5.146311,Le Platnium Réception,ChIJFUrYGln7yRIRwDE2pEuQyjc,"[u'point_of_interest', u'establishment']"
0,43.5320266,5.1521923,Vendeur Poulet Frais,ChIJtV-sl1r7yRIRecX2MRZKY_g,"[u'food', u'point_of_interest', u'establishment']"
0,43.5450973,5.1367381,Château Calissanne,ChIJtx7wJ9b8yRIRC5X0vmWdI00,"[u'food', u'point_of_interest', u'establishment']"
0,43.5452976,5.136382,La Jasso de Calissanne,ChIJh7qxPdf8yRIRJDDMHMAdtOY,"[u'liquor_store', u'food', u'store', u'point_of_interest', u'establishment']"
0,43.545219,5.137601,Calissanne,ChIJxUSUSZn8yRIRXWsRQapal_U,"[u'sublocality_level_1', u'sublocality', u'political']"
0,43.554535,5.1264709,Jas de Baille,ChIJQY8NN4z8yRIRFmJ7iiWDQEg,"[u'premise', u'point_of_interest', u'establishment']"
0,43.609378,5.179824,Onyx Mediterranee,ChIJaz6Q1Hb5yRIR4drWFaX1mPs,"[u'point_of_interest', u'establishment']"
0,43.609378,5.179824,Mécanique Carrosserie Dimeck J-F et Fils,ChIJaz6Q1Hb5yRIRy6yvHtlBzt4,"[u'point_of_interest', u'establishment']"
0,43.609378,5.179824,Kolossovski Alexandre,ChIJaz6Q1Hb5yRIRt3GIXMInVGk,"[u'point_of_interest', u'establishment']"
0,43.609378,5.179824,Fromageot Marie-France,ChIJaz6Q1Hb5yRIRTnIJIc44-Uw,"[u'point_of_interest', u'establishment']"
0,43.609378,5.179824,Pauzie-Recton Marlène,ChIJaz6Q1Hb5yRIRp-Z_boS1ujw,"[u'point_of_interest', u'establishment']"
0,43.6076601,5.1840774,Ciaglo Laurent,ChIJ58vJ6Xf5yRIRH3GUf9-bHRY,"[u'roofing_contractor', u'point_of_interest', u'establishment']"
0,43.599702,5.1313983,Centre Technique Municipal,ChIJ82C7oBv8yRIRJqXykK5boW8,"[u'point_of_interest', u'establishment']"
0,43.6056415,5.135606,Protect-Wash Services,ChIJQfV-467-yRIROKnYp_AK3q8,"[u'laundry', u'point_of_interest', u'establishment']"
0,43.6056415,5.135606,Barla Jean-Christophe,ChIJQfV-467-yRIRNQrpP_J0AXE,"[u'point_of_interest', u'establishment']"
0,43.6056415,5.135606,Le Coursier Lançonnais,ChIJQfV-467-yRIRrkBVnqmk3QI,"[u'moving_company', u'point_of_interest', u'establishment']"
0,43.599356,5.134222,13680,ChIJXcGsIaj-yRIRdUfsHbFk8GE,"[u'parking', u'point_of_interest', u'establishment']"
0,43.5999689,5.1327843,Installation Systemes Securite,ChIJbcEBCKj-yRIRORXPuEzrmKo,"[u'electronics_store', u'store', u'point_of_interest', u'establishment']"
0,43.5965323,5.1349608,Stark Galaxy,ChIJVxWSAwP8yRIR6IO7LqGcKwY,"[u'car_repair', u'point_of_interest', u'establishment']"
0,43.5979516,5.1327997,residence le valmont,ChIJ6z3SygL8yRIR1b4soTf3ZhM,"[u'lodging', u'point_of_interest', u'establishment']"
0,43.5986586,5.1319979,Nizou Bénédicte,ChIJme44ngL8yRIRB9t-Jx-NFvQ,"[u'dentist', u'health', u'point_of_interest', u'establishment']"
0,43.5960489,5.1340997,Zerillo Sebastien,ChIJdcQrFgP8yRIREmC1tiaPwNU,"[u'point_of_interest', u'establishment']"
0,43.590704,5.1976786,Château de Sénéguier,ChIJaUzmSiT6yRIR390Yhj_u6Uk,"[u'point_of_interest', u'establishment']"
0,43.5918473,5.1240175,Mairie de Lançon-Provence,ChIJiz6MSBj8yRIRJHOgDZmZ1P0,"[u'city_hall', u'local_government_office', u'point_of_interest', u'establishment']"
0,43.594261,5.128659,Intermarché Contact,ChIJMw23khv8yRIR3Tgn1NxLlBk,"[u'grocery_or_supermarket', u'food', u'store', u'point_of_interest', u'establishment']"
0,43.594567,5.126567,"Atelier culinaire Mat'carons, service traiteur, pâtisserie, cours de cuisine et ventes de Macarons",ChIJoyjlRxn8yRIRTK49Zu56KRo,"[u'bakery', u'food', u'store', u'point_of_interest', u'establishment']"
0,43.5957045,5.1275396,Des Saveurs et des Mots,ChIJ_-xgoB78yRIRnp_ddPptHJI,"[u'restaurant', u'food', u'point_of_interest', u'establishment']"
0,43.5959873,5.1272376,Le Bois Joli,ChIJScQQnx78yRIRaaCo_ptTn5s,"[u'point_of_interest', u'establishment']"
0,43.593938,5.129014,A Fleur de Pot,ChIJMw23khv8yRIRk-L88K6InNw,"[u'florist', u'store', u'point_of_interest', u'establishment']"
0,43.5921006,5.127212,Paroisse,ChIJX38MhBn8yRIRyaNM6LXtGTg,"[u'church', u'place_of_worship', u'point_of_interest', u'establishment']"
0,43.591605,5.125463,Restaurant Giacalone,ChIJ8eaMuhn8yRIRjxSylEOb1Ik,"[u'restaurant', u'bar', u'food', u'point_of_interest', u'establishment']"
0,43.5957045,5.1275396,Com j'@ime,ChIJW_JgoB78yRIRjHh533eEX0o,"[u'point_of_interest', u'establishment']"
0,43.5902977,5.1250582,Agence Pelimmo Lançon de Provence,ChIJZcpT0xn8yRIRSOSEc8SxMdg,"[u'real_estate_agency', u'point_of_interest', u'establishment']"
0,43.5841,5.20706,unnamed,ChIJ6Zd8yhf6yRIRt8iMrupFYSY,"[u'point_of_interest', u'establishment']"
0,43.585364,5.120444,LE MAZET - Chambre d'hôtes,ChIJi_BnOT78yRIRBuR7k35YNiY,"[u'lodging', u'point_of_interest', u'establishment']"
0,43.5903752,5.1246202,Crédit Agricole Alpes Provence,ChIJHe3MLRj8yRIROeI_-CpKvUk,"[u'bank', u'atm', u'finance', u'point_of_interest', u'establishment']"
0,43.5891485,5.1240523,Post Office,ChIJzaEruhD8yRIRPYKmzLWUNyE,"[u'post_office', u'finance', u'point_of_interest', u'establishment']"
0,43.590114,5.1246631,Pharmacie des Iris,ChIJQ84OyBn8yRIR86yvMW45ah0,"[u'pharmacy', u'health', u'store', u'point_of_interest', u'establishment']"
0,43.588679,5.121302,CreaCarro,ChIJ5TRzbD38yRIR9qVpZqFYhj4,"[u'general_contractor', u'home_goods_store', u'store', u'point_of_interest', u'establishment']"
0,43.589514,5.119382,A Quoi Pizza Lancon de Provence 13680,ChIJl0LO2zz8yRIRNkbzQ20vOdg,"[u'meal_delivery', u'meal_takeaway', u'restaurant', u'food', u'point_of_interest', u'establishment']"
0,43.5892483,5.1211768,Ecomagnet,ChIJN9ovRz38yRIRMaPcIModCGo,"[u'point_of_interest', u'establishment']"
0,43.5908711,5.1252321,Samuel Sacarabany Ostéopathe D.O,ChIJPXYfeRf8yRIRsxyIscVmDRA,"[u'health', u'point_of_interest', u'establishment']"
0,43.58968,5.125133,Meca Express...,ChIJa2MneRf8yRIRRjfsO_3pwMA,"[u'car_repair', u'point_of_interest', u'establishment']"
0,43.58968,5.125133,Ernst Thomas,ChIJa2MneRf8yRIRKKk6TeMuSak,"[u'restaurant', u'food', u'point_of_interest', u'establishment']"
0,43.5833686,5.2111831,WL Gore et Associés,ChIJs08aLBH6yRIRubiDqpF8XiU,"[u'point_of_interest', u'establishment']"
0,43.580698,5.209865,13680,ChIJaQ-oFxT6yRIRl-E0txYTHeM,"[u'stadium', u'point_of_interest', u'establishment']"
0,43.57153,5.210373,The Castellas shooting Range,ChIJ2dxWV2n6yRIRpBElxMDSXzA,"[u'point_of_interest', u'establishment']"
0,43.5803268,5.2109381,Calabrese Nicolas Eric Yann,ChIJDxsSChT6yRIRcNtMePdw_qI,"[u'general_contractor', u'point_of_interest', u'establishment']"
0,43.579996,5.211555,Garry Benjamin,ChIJGXUJjRP6yRIRwPql9uCWs_4,"[u'point_of_interest', u'establishment']"
0,43.57978,5.2145914,Vds Plomberie-electricite,ChIJJ-bKRhL6yRIRtYTnMXgOndg,"[u'point_of_interest', u'establishment']"
0,43.583392,5.211303,Oeuf Bernard,ChIJs08aLBH6yRIRGMcX6Zqt_LU,"[u'point_of_interest', u'establishment']"
0,43.5821861,5.1124139,Rech Gerald,ChIJVzIJGDj8yRIRwp_IaG8DjJ4,"[u'accounting', u'finance', u'point_of_interest', u'establishment']"
0,43.582189,5.112538,Azur Diag Immo,ChIJVzIJGDj8yRIR38UDrvqA1aU,"[u'general_contractor', u'point_of_interest', u'establishment']"
0,43.5819883,5.1124835,Armand Charly Michel,ChIJVzIJGDj8yRIRo6MZcuKLWd8,"[u'point_of_interest', u'establishment']"
0,43.5821861,5.1124139,Budin Pierre,ChIJVzIJGDj8yRIRJ2LoTvLsoIA,"[u'point_of_interest', u'establishment']"
0,43.580088,5.1077052,Caddeo Carletti Nathalie,ChIJzQTQ7En8yRIRvnWDrgAgtqA,"[u'beauty_salon', u'point_of_interest', u'establishment']"
0,43.580088,5.1077052,Cabinet Alain Orthion,ChIJzQTQ7En8yRIRATOY34kJo1E,"[u'insurance_agency', u'point_of_interest', u'establishment']"
0,43.532558,5.137717,B.M SpeedShop,ChIJY3BO46X8yRIRgpnm__QVx7Y,"[u'car_repair', u'store', u'point_of_interest', u'establishment']"
0,43.5319432,5.1364361,Sud Gardiennage,ChIJ-Zzkk6X8yRIRwQdlCw6kiko,"[u'parking', u'point_of_interest', u'establishment']"
0,43.540883,5.144534,Les Bonins,ChIJObnw3V_7yRIRGsDcafyJFeo,"[u'sublocality_level_1', u'sublocality', u'political']"
0,43.56219,5.0722569,Cornillon-Confoux,ChIJzRaqCXj9yRIR_yAzkDXzIo0,"[u'locality', u'political']"
0,43.640199,5.097022,Salon-de-Provence,ChIJofoBqDMAthIRIP-W_aUZCAQ,"[u'locality', u'political']"
0,43.6161006,5.1361942,BISICO France,ChIJrQujOiX8yRIR7-0R3WyLAwc,"[u'health', u'point_of_interest', u'establishment']"
0,43.6160009,5.1400291,Sthene Sarl,ChIJWaFKjXf9yRIRiQG2ihcbN_o,"[u'point_of_interest', u'establishment']"
0,43.6177512,5.1366016,HÖRMANN Sud,ChIJtc68srn-yRIREyC8RtRs9tg,"[u'general_contractor', u'point_of_interest', u'establishment']"
0,43.6184658,5.1355506,SOLVAREA,ChIJ4Vn_1Mn-yRIRWN873X4fQKY,"[u'point_of_interest', u'establishment']"
0,43.6185823,5.1355291,Boulanger SAV,ChIJP95Q2Mn-yRIRKdA7CB5Z_w8,"[u'point_of_interest', u'establishment']"
0,43.6160536,5.1308709,Bisico France,ChIJtc68srn-yRIRS6lf6kVxNTk,"[u'point_of_interest', u'establishment']"
0,43.6160009,5.1400291,De Jesse Amaury Arnould Eric Marie,ChIJWaFKjXf9yRIRenOIpH1kwfc,"[u'point_of_interest', u'establishment']"
0,43.6160009,5.1400291,Dossetto Jacky Daniel,ChIJiczksbX-yRIRPofC6f7S140,"[u'point_of_interest', u'establishment']"
0,43.6160009,5.1400291,Monsieur Thiery Dommart,ChIJWaFKjXf9yRIR1WFVIxFOAEo,"[u'electrician', u'point_of_interest', u'establishment']"
0,43.6160009,5.1400291,Dossetto Robert Jack,ChIJiczksbX-yRIRAPWUhQy5PBs,"[u'food', u'point_of_interest', u'establishment']"
0,43.6159984,5.1354834,Soloc Rabotage,ChIJa2MneRf8yRIRMLRLKdRtGyk,"[u'general_contractor', u'point_of_interest', u'establishment']"
0,43.6159729,5.1308162,Soloc Rabotage,ChIJtc68srn-yRIR0p_R78JPqYk,"[u'point_of_interest', u'establishment']"
0,43.596024,5.127351,Aile de Provence Hélicoptère,ChIJScQQnx78yRIR_XBx4aml2X4,"[u'point_of_interest', u'establishment']"
0,43.5958543,5.1190026,Marbrerie Mathurin Roger,ChIJa2MneRf8yRIRI8N1ckeIrAY,"[u'point_of_interest', u'establishment']"
0,43.5958208,5.1160821,durand,ChIJu3-pvCb8yRIRJuoagrxr4as,"[u'roofing_contractor', u'point_of_interest', u'establishment']"
0,43.59512,5.116925,"Artisan Couvreur Durand, Toiture, Isolation, Ramonage.",ChIJJWKHAST8yRIR0-YhAWly9Rg,"[u'roofing_contractor', u'point_of_interest', u'establishment']"
0,43.591615,5.124034,Arbre Habitat,ChIJW_aLpsb7yRIR5loheJEQLCU,"[u'general_contractor', u'point_of_interest', u'establishment']"
0,43.600399,5.122532,Lançon,ChIJ1dbfHKD-yRIR_uiPqU8wpR0,"[u'neighborhood', u'political']"
0,43.5830705,5.2144906,L'Hacienda de Claire,ChIJ_X0iuBH6yRIRAyqUzhieZdE,"[u'lodging', u'point_of_interest', u'establishment']"
0,43.5844802,5.2115898,Bo,ChIJ9Z4IjRP6yRIRh_OufgOQgj4,"[u'bakery', u'food', u'store', u'point_of_interest', u'establishment']"
0,43.5827161,5.2142467,JPWebcreation.com,ChIJtdzOpBH6yRIRtSZCeX60Ra0,"[u'point_of_interest', u'establishment']"
0,43.5833276,5.2158555,Boreale Studio,ChIJf52s0xH6yRIRlUoxrV2Xu24,"[u'point_of_interest', u'establishment']"
0,43.5875688,5.2112172,Nader Caudal Elisabeth Simone,ChIJfZzaNxr6yRIRDkT4AUCVTyY,"[u'point_of_interest', u'establishment']"
0,43.583404,5.211978,13680,ChIJa00AJBH6yRIRouv4jvZpMUk,"[u'city_hall', u'local_government_office', u'point_of_interest', u'establishment']"
0,43.5833609,5.212038,13680,ChIJ6VTuIxH6yRIRrvG5H6VAurc,"[u'post_office', u'finance', u'point_of_interest', u'establishment']"
0,43.583637,5.212388,13680,ChIJY4_pHxH6yRIRtJnthpzkqZI,"[u'parking', u'point_of_interest', u'establishment']"
0,43.587939,5.2128665,Loriot Michel,ChIJewW-Txr6yRIRMa48o-6JzVE,"[u'point_of_interest', u'establishment']"
0,43.5878447,5.2129593,Lanexau Sarl,ChIJSa4fUBr6yRIRH4kX-EbvYtc,"[u'insurance_agency', u'point_of_interest', u'establishment']"
0,43.584251,5.2152329,Val de Sibourg,ChIJRTsmcRH6yRIRuozzrSwPNDI,"[u'sublocality_level_1', u'sublocality', u'political']"
0,43.591597,5.1102102,Batimax + André CHEYLAN,ChIJbSqtQRH8yRIRoxYyKRcOFMs,"[u'home_goods_store', u'store', u'point_of_interest', u'establishment']"
0,43.5909867,5.1123775,Citi,ChIJrQujOiX8yRIR3qevL_j_WW4,"[u'real_estate_agency', u'point_of_interest', u'establishment']"
0,43.5886346,5.1094098,Sciascia Fuel,ChIJQwwaqzH8yRIRfIil55wf7jI,"[u'point_of_interest', u'establishment']"
0,43.587167,5.111121,BMR,ChIJS4GjETH8yRIRYGlL6AT_jHQ,"[u'point_of_interest', u'establishment']"
0,43.5912427,5.1138829,Pro. B. Mat,ChIJrQujOiX8yRIR-NpOZ4ql-SQ,"[u'point_of_interest', u'establishment']"
0,43.5884811,5.1094527,Marchal Technologies Mediterranee Sa,ChIJQwwaqzH8yRIRa7xCbh7yG4I,"[u'moving_company', u'point_of_interest', u'establishment']"
0,43.587686,5.108728,SARL A.D.R.M.,ChIJfVyPBzH8yRIREyDLRa36THw,"[u'store', u'point_of_interest', u'establishment']"
0,43.588628,5.110595,Mécanique Générale de Précision MEGEP,ChIJa2MneRf8yRIRS8_era2_0Ac,"[u'point_of_interest', u'establishment']"
0,43.587169,5.111104,BM Racing,ChIJBWZsETH8yRIRDP1edBk4ENI,"[u'car_repair', u'store', u'point_of_interest', u'establishment']"
0,43.5849216,5.1091427,Carrozza Léonard,ChIJZw263zb8yRIRfA1T6OXABUc,"[u'general_contractor', u'point_of_interest', u'establishment']"
0,43.5878414,5.1085977,SARL LCEPC,ChIJ8WRcvhf8yRIR9QDMBD_xXZI,"[u'storage', u'point_of_interest', u'establishment']"
0,43.588791,5.11054,MEGEP Mecanique de precision,ChIJPfYTXTD8yRIRVu6PfIMDR1A,"[u'point_of_interest', u'establishment']"
0,43.5886301,5.1094211,Cabinet Mla,ChIJfVyPBzH8yRIR2kusiWNnAEo,"[u'accounting', u'finance', u'point_of_interest', u'establishment']"
0,43.587983,5.105702,[Ep] Economie Performance,ChIJ38nPDDL8yRIRJF4Mpi2VHQo,"[u'plumber', u'general_contractor', u'point_of_interest', u'establishment']"
0,43.5882515,5.1088166,Lo Dico et Fils,ChIJfVyPBzH8yRIRjgavvRRWDSk,"[u'furniture_store', u'home_goods_store', u'store', u'point_of_interest', u'establishment']"
0,43.5795902,5.2159958,R.C.H. Méditerranée,ChIJ9ygldBL6yRIRWL9VPamcNCE,"[u'plumber', u'point_of_interest', u'establishment']"
0,43.5795902,5.2159958,Mallet,ChIJ9ygldBL6yRIRGsH41EOqsZ8,"[u'point_of_interest', u'establishment']"
0,43.5794014,5.2166374,Espeut Jacqueline,ChIJWxsWjw36yRIRWsXD5VpWxGc,"[u'point_of_interest', u'establishment']"
0,43.582806,5.214243,Doumayrou voutes Corinne,ChIJtdzOpBH6yRIRaxJuTWDozlo,"[u'point_of_interest', u'establishment']"
0,43.5833276,5.2158555,Boucherie Chevaline Lanconnaise,ChIJf52s0xH6yRIRRX1yblKlLBM,"[u'food', u'store', u'point_of_interest', u'establishment']"
0,43.5750073,5.09461,Bofi TP,ChIJ6d8tDLH9yRIRs2IklW31JgY,"[u'general_contractor', u'point_of_interest', u'establishment']"
0,43.578856,5.101161,Envolée des Sens...,ChIJFe2v1rT9yRIR03mDAAixrvk,"[u'point_of_interest', u'establishment']"
0,43.581349,5.101636,Blanchisserie du Bassin Salonais,ChIJ6Y7iqkr8yRIRhyfGbZ-FGcw,"[u'laundry', u'point_of_interest', u'establishment']"
0,43.5844005,5.1046293,Vitale Sarah,ChIJa2MneRf8yRIREowaiZ2FlBw,"[u'general_contractor', u'point_of_interest', u'establishment']"
0,43.5263202,5.1420565,Fmx Park,ChIJ01KCF6r8yRIRJFrTh56vDyo,"[u'park', u'point_of_interest', u'establishment']"
0,43.539404,5.125266,La Cantine,ChIJlxSp_r78yRIRcSpbAMwA9SA,"[u'premise', u'point_of_interest', u'establishment']"
0,43.550669,5.034508,Saint-Chamas,ChIJTRirTeoCthIRTIH89NUuxbE,"[u'locality', u'political']"
0,43.6125431,5.1205302,Golf de l'Ecole de l'Air,ChIJT8p435X-yRIRnzntqLW7OiA,"[u'point_of_interest', u'establishment']"
0,43.5983696,5.1287062,Challier Fossaro Annie,ChIJ7QO-6h38yRIRdzvoo9QOiqY,"[u'health', u'point_of_interest', u'establishment']"
0,43.597959,5.117897,Bastien Violette,ChIJkfZc2iD8yRIREL9FWwepfsg,"[u'point_of_interest', u'establishment']"
0,43.5978906,5.1179776,Routya Tino,ChIJ0_O11Bj8yRIRP1NKGQFZrWw,"[u'point_of_interest', u'establishment']"
0,43.5962865,5.1272088,Zuccari Leandro,ChIJOW_ymx78yRIRnI47f2WlJtA,"[u'point_of_interest', u'establishment']"
0,43.5962832,5.1272103,Demaldent Remi Benjamin,ChIJOW_ymx78yRIR-2ge72KyuUE,"[u'doctor', u'health', u'point_of_interest', u'establishment']"
0,43.5962832,5.1272104,Dicaro Sophie Psychomotricienne,ChIJOW_ymx78yRIRWUWUA_z1-aY,"[u'doctor', u'health', u'point_of_interest', u'establishment']"
0,43.596024,5.127351,Champion de Nansouty Ludovic,ChIJScQQnx78yRIRHgM9FiSkyeQ,"[u'point_of_interest', u'establishment']"
0,43.5959873,5.1272376,Serqua,ChIJScQQnx78yRIR2BJKsanmBWk,"[u'food', u'point_of_interest', u'establishment']"
0,43.630199,5.176181,La Barben,ChIJWcwJKa75yRIR6Khumpwi2Bo,"[u'locality', u'political']"
0,43.594752,5.103815,Taberner fleurs,ChIJi_aGiyz8yRIR-EwyqADn9Tg,"[u'food', u'point_of_interest', u'establishment']"
0,43.5914747,5.1118682,La Provencale,ChIJwfJR9i_8yRIRffJoN_gndXE,"[u'veterinary_care', u'point_of_interest', u'establishment']"
0,43.5912427,5.1138829,Baise Installation,ChIJrQujOiX8yRIRV6Pf4xoJIdo,"[u'general_contractor', u'point_of_interest', u'establishment']"
0,43.5914747,5.1118682,Transeb,ChIJrQujOiX8yRIRi8PWD9J-kFg,"[u'moving_company', u'point_of_interest', u'establishment']"
0,43.5912427,5.1138829,Argedis,ChIJrQujOiX8yRIRuOHWaDnnmYA,"[u'point_of_interest', u'establishment']"
0,43.5912427,5.1138829,3AF PISCINES,ChIJrQujOiX8yRIRu-DGM3bbm74,"[u'point_of_interest', u'establishment']"
0,43.5924728,5.1175451,Debessel Marceau,ChIJa2MneRf8yRIRidjGVqzldIM,"[u'roofing_contractor', u'point_of_interest', u'establishment']"
0,43.5912427,5.1138829,Pat Toutnet,ChIJrQujOiX8yRIRrlC57980pOE,"[u'point_of_interest', u'establishment']"
0,43.5911622,5.1138274,Bisico France,ChIJrQujOiX8yRIRVRjMx8yTdto,"[u'point_of_interest', u'establishment']"
0,43.585094,5.21394,Enjis Thomas,ChIJMT5TYRD6yRIRGF5ooq3XR-0,"[u'point_of_interest', u'establishment']"
0,43.5844051,5.2166231,Olivier Toppia Stella Lucie,ChIJo_RhaxD6yRIRANsIlUlP19s,"[u'point_of_interest', u'establishment']"
0,43.5841736,5.2167297,Eilec,ChIJMcWnZhD6yRIRJ1JZnPJY1Kk,"[u'finance', u'point_of_interest', u'establishment']"
0,43.5841736,5.2167297,Lopez Ramon,ChIJV8OnZhD6yRIRN9H5r2AYTTQ,"[u'point_of_interest', u'establishment']"
0,43.588379,5.103964,Cie L'Estock Fish,ChIJc4odATP8yRIR23Bj6XOFn7w,"[u'point_of_interest', u'establishment']"
0,43.5881671,5.107124,ATR CREATIONS,ChIJfVyPBzH8yRIR75E-Js0VN2k,"[u'point_of_interest', u'establishment']"
0,43.5905899,5.1054415,Certa Sud Est Sarl,ChIJ38nPDDL8yRIRsSDpiZGRHbY,"[u'plumber', u'point_of_interest', u'establishment']"
0,43.5882652,5.1072895,Ferronnerie métallerie Daudet Laurent,ChIJfVyPBzH8yRIRZBM9ydG36C0,"[u'point_of_interest', u'establishment']"
0,43.5884811,5.1094527,R Sud Medical,ChIJg6jrVDD8yRIRZJJJK3NZjPY,"[u'point_of_interest', u'establishment']"
0,43.5905547,5.1053616,France Moulures,ChIJ38nPDDL8yRIR2-H_MUEU8W4,"[u'store', u'point_of_interest', u'establishment']"
0,43.5825447,5.2198334,Griffier Bradley,ChIJ58qB6g76yRIR-7pRi6lFOpQ,"[u'point_of_interest', u'establishment']"
0,43.583265,5.217934,unnamed,ChIJ9xZnTA76yRIRzFFrali2IBE,"[u'point_of_interest', u'establishment']"
0,43.5831478,5.217483,Barriere Olivia,ChIJl3JD7g76yRIRt3OOUupCKHU,"[u'point_of_interest', u'establishment']"
0,43.5683742,5.2185543,Sma Vautubière,ChIJCxAV7fr6yRIRCMqEY2bEAwk,"[u'point_of_interest', u'establishment']"
0,43.568309,5.218345,unnamed,ChIJ62n_WnD6yRIRBS7SXheki0A,"[u'point_of_interest', u'establishment']"
0,43.6237893,5.124737,Ma Bergerie,ChIJg6HnKML-yRIR__8LmZFps50,"[u'lodging', u'point_of_interest', u'establishment']"
0,43.6285335,5.1300935,KEEP COOL Salon de Provence,ChIJ9cHaO9v-yRIR9G6ZKE-P-Do,"[u'gym', u'health', u'point_of_interest', u'establishment']"
0,43.6241555,5.1397648,Au Secours Informatique,ChIJM1QDQsz-yRIRPufeD2u2bWo,"[u'point_of_interest', u'establishment']"
0,43.6284866,5.1299178,Kokoon Animal Shop Salon-de-Provence,ChIJVVUiJNv-yRIRlDwz2udVfw8,"[u'pet_store', u'store', u'point_of_interest', u'establishment']"
0,43.6287291,5.12982,Caisse d'Epargne Pelissanne,ChIJj6vIICz5yRIRJYbuT3aW2-c,"[u'bank', u'finance', u'point_of_interest', u'establishment']"
0,43.628604,5.129284,Mil Remorques Salon de Provence,ChIJS_sfMdv-yRIRH89l9JyWL7g,"[u'store', u'point_of_interest', u'establishment']"
0,43.628707,5.12966,GARAGE Café,ChIJb4hWSghu5kcR7-iDxE0W_Gw,"[u'restaurant', u'food', u'point_of_interest', u'establishment']"
0,43.628708,5.129369,Harley-Davidson Sunroad,ChIJ9etiMNv-yRIRustSeZ6nzxg,"[u'store', u'point_of_interest', u'establishment']"
0,43.628962,5.130148,Le Vincennes,ChIJubWKEuD-yRIRF38sJNrtFvg,"[u'restaurant', u'food', u'point_of_interest', u'establishment']"
0,43.629328,5.133461,Aquablue Piscines,ChIJo7vk-xb8yRIRziVGj8GrbQ4,"[u'store', u'point_of_interest', u'establishment']"
0,43.6220315,5.1445863,Michael Paetzold,ChIJQf4IlzT5yRIRfDUulvtsDLM,"[u'point_of_interest', u'establishment']"
0,43.620514,5.127609,unnamed,ChIJBZFILcf-yRIRJDxDBIj8RUw,"[u'point_of_interest', u'establishment']"
0,43.6028854,5.1081659,Golf de l'Ecole de l'air,ChIJq6oFtYP-yRIROzvVC8ukn14,"[u'point_of_interest', u'establishment']"
0,43.6028854,5.1081659,Cassarino Daniel,ChIJq6oFtYP-yRIR7uU9v6LkXh0,"[u'point_of_interest', u'establishment']"
0,43.603333,5.106389,Défense Conseil International,ChIJC0Rje4H-yRIRP2Vt4btREv4,"[u'point_of_interest', u'establishment']"
0,43.5955732,5.1138752,Celma Maeva,ChIJ7-hbdyb8yRIRfYxPFeTDVx8,"[u'point_of_interest', u'establishment']"
0,43.5958863,5.1191186,Constant Claude,ChIJAYhLbiH8yRIRq4I9-ssgabw,"[u'moving_company', u'point_of_interest', u'establishment']"
0,43.5954369,5.1201679,13680,ChIJmSJChCH8yRIRGABbHVRgKWM,"[u'stadium', u'point_of_interest', u'establishment']"
0,43.594814,5.221424,château de Caseneuve à Lançon- Provence,ChIJmcV9AgL6yRIRGoIWOB-p2q4,"[u'point_of_interest', u'establishment']"
0,43.5905547,5.1053616,Aviva,ChIJ38nPDDL8yRIR1mq9dOq3yoQ,"[u'point_of_interest', u'establishment']"
0,43.599623,5.102563,Elior Entreprises,ChIJl2dhvir8yRIRh4tm66qn2bk,"[u'restaurant', u'food', u'point_of_interest', u'establishment']"
0,43.5947966,5.105153,Soc Expl Ets Piras,ChIJa2MneRf8yRIRHOiUNePh19w,"[u'general_contractor', u'point_of_interest', u'establishment']"
0,43.595035,5.103626,Tropic Apéro,ChIJTZqq8v7Ci0cRejCFUqBH86I,"[u'point_of_interest', u'establishment']"
0,43.594262,5.108181,Midi 13 Loisirs,ChIJRyy3jvX7yRIRcLrRZQPwMeY,"[u'parking', u'campground', u'park', u'car_dealer', u'lodging', u'store', u'point_of_interest', u'establishment']"
0,43.5926925,5.1094513,Clôtures Saniez Sud,ChIJE2_jrC_8yRIRrLOkkdzWYIA,"[u'general_contractor', u'point_of_interest', u'establishment']"
0,43.5905547,5.1053616,R.V.B Industries,ChIJ38nPDDL8yRIROEvKHPB3pko,"[u'store', u'point_of_interest', u'establishment']"
0,43.5849203,5.2178312,Penhoat Solene Marie Francoise,ChIJt5Z7lA_6yRIR275v1hDgBSs,"[u'point_of_interest', u'establishment']"
0,43.5848947,5.2176874,Fransyfred Associés,ChIJUZmJlA_6yRIRPsNf1crcPiQ,"[u'point_of_interest', u'establishment']"
0,43.5848977,5.2175818,Salmi,ChIJheuJlA_6yRIREvKRniOSTMI,"[u'point_of_interest', u'establishment']"
0,43.584391,5.2175669,Blachere Dominique,ChIJn6Invw_6yRIRrAFMnr4DTR0,"[u'point_of_interest', u'establishment']"
0,43.558086,5.251238,Coudoux,ChIJQ7WWPovwyRIR11_4Wew9ol8,"[u'locality', u'political']"
0,43.531842,5.113835,SCEA Domaine de Suriane,ChIJ7-bll8_8yRIR6yYjSVnF97M,"[u'food', u'point_of_interest', u'establishment']"
0,43.60243,5.21988,Chambre d'hôtes Le Vallon,ChIJl8_AoPv5yRIRtplcvv2UwKk,"[u'lodging', u'point_of_interest', u'establishment']"
0,43.596182,5.087271,Le Devem De Mirapier,ChIJ9Tph-9v9yRIR640gh--czOA,"[u'lodging', u'restaurant', u'food', u'point_of_interest', u'establishment']"
0,43.5970674,5.0887299,Les Salons du Mirapier,ChIJWaFKjXf9yRIRBxmio8pctGA,"[u'point_of_interest', u'establishment']"
0,43.598419,5.087699,Domaine de Campreoux,ChIJHdb-Gtn9yRIRCOwF-I6Lq_g,"[u'lodging', u'point_of_interest', u'establishment']"
0,43.596642,5.0959782,Sopa bois de chauffage,ChIJF541r9b9yRIRMVHrzmbBOKw,"[u'general_contractor', u'point_of_interest', u'establishment']"
0,43.593112,5.090517,Meiranesio Alain,ChIJe0wXmtr9yRIRmbay4NfVx-o,"[u'point_of_interest', u'establishment']"
0,43.597363,5.102655,ARTEMISIA,ChIJFRkkQ6v_yRIRLSzF2PuAE6g,"[u'park', u'general_contractor', u'point_of_interest', u'establishment']"
0,43.5971199,5.090071,Chapelle Saint-Georges,ChIJZ3LM7dn9yRIR2EoQkO_VilM,"[u'church', u'place_of_worship', u'point_of_interest', u'establishment']"
0,43.5947692,5.1050347,Aslp,ChIJI-ZGaSz8yRIRJ03fZpZ15No,"[u'point_of_interest', u'establishment']"
0,43.5789414,5.2453387,Bastide d'Astres,ChIJT88UZSn9yRIR31wgLMtL69Y,"[u'lodging', u'point_of_interest', u'establishment']"
0,43.570709,5.248893,Grange Camp-Long,ChIJ4UkYaOvwyRIR75bSa80H194,"[u'lodging', u'point_of_interest', u'establishment']"
0,43.5695944,5.2481916,Maria Cycles,ChIJE2oRpezwyRIR6jpcgYQwYWA,"[u'car_repair', u'store', u'point_of_interest', u'establishment']"
0,43.5695691,5.2483107,Mairie,ChIJE2oRpezwyRIR4Cm7MLiXI1k,"[u'local_government_office', u'point_of_interest', u'establishment']"
0,43.5695691,5.2483107,Divita TP,ChIJE2oRpezwyRIRcpRWRCdjAPM,"[u'general_contractor', u'point_of_interest', u'establishment']"
0,43.5695691,5.2483107,Bajolle Suzanne,ChIJE2oRpezwyRIRl4e0yK5tQAc,"[u'point_of_interest', u'establishment']"
0,43.5686589,5.354234,Éguilles,ChIJ3f6pBw3zyRIR6gAWHy_Esjw,"[u'locality', u'political']"
