,Latitude,Longitude,Name,Place_id,Type
0,43.369912,5.252998,Le Rove,ChIJI_rKTJ7CyRIREACX_aUZCAQ,"[u'locality', u'political']"
0,43.36657,5.241507,L'Olivier,ChIJY69GURzoyRIREV65OJMzcz8,"[u'restaurant', u'lodging', u'food', u'point_of_interest', u'establishment']"
0,43.3696783,5.2513118,Mairie,ChIJqz7KzyPoyRIR7GhnuiDkjSE,"[u'city_hall', u'local_government_office', u'point_of_interest', u'establishment']"
0,43.3685146,5.25144,L'instant,ChIJ87GX2CPoyRIRRk6N-6xfSzE,"[u'restaurant', u'lodging', u'food', u'point_of_interest', u'establishment']"
0,43.3684637,5.2515936,Laboratoire de biologie médicale ANALYS,ChIJhwKoACToyRIRfn2ysyL2kQQ,"[u'health', u'point_of_interest', u'establishment']"
0,43.367199,5.246143,Decopro,ChIJJeQhah_oyRIRlu1vtIqx3bo,"[u'general_contractor', u'point_of_interest', u'establishment']"
0,43.3696673,5.2507469,La Poste,ChIJ6d-ZFyLoyRIRLfsfjSORl-k,"[u'point_of_interest', u'establishment']"
0,43.367447,5.251925,Milddream Cigarettes Electroniques Le Rove,ChIJCxpXRCHoyRIRRQXLJyD-gd0,"[u'store', u'point_of_interest', u'establishment']"
0,43.3669226,5.2496007,Résidalya Le Rove,ChIJl1jFtSPoyRIR1t3L0nUyk8g,"[u'health', u'point_of_interest', u'establishment']"
0,43.3673538,5.24964,HOME BUILDER,ChIJaZeZmSHoyRIReuHYFwuoo0g,"[u'general_contractor', u'point_of_interest', u'establishment']"
0,43.3684665,5.2516929,"L'effet Beauté (Onglerie, Salon de Beauté, Uv)",ChIJ7SVj4CPoyRIRbtxtqE5cD8c,"[u'beauty_salon', u'point_of_interest', u'establishment']"
0,43.3684665,5.2516929,Pharmacie du Rove,ChIJWzbc5iPoyRIRNt8ogZDSt7s,"[u'pharmacy', u'health', u'store', u'point_of_interest', u'establishment']"
0,43.367367,5.249165,HOME BUILDER,ChIJez2-QjPnyRIRta0miA3oYig,"[u'general_contractor', u'point_of_interest', u'establishment']"
0,43.3689901,5.2506319,Town Hall,ChIJl4pRziPoyRIRwNWcCoaJlb0,"[u'school', u'point_of_interest', u'establishment']"
0,43.3689901,5.2506319,Mairie - police municipale,ChIJl4pRziPoyRIRhZgCckLid3A,"[u'city_hall', u'local_government_office', u'point_of_interest', u'establishment']"
0,43.3708939,5.2531551,Hauwelle Christian,ChIJB_iQhiToyRIREIlXk1WBAos,"[u'doctor', u'health', u'point_of_interest', u'establishment']"
0,43.36525,5.245263,C3R,ChIJxb7isx_oyRIR5zfX8pDiGoQ,"[u'point_of_interest', u'establishment']"
0,43.3698112,5.2545362,La Maison Bleue,ChIJCabnRCToyRIREZr8aPtpSUU,"[u'point_of_interest', u'establishment']"
0,43.3699643,5.2510501,Jdg Immo-centre Immobilier,ChIJRX0UuyPoyRIRkmd6_d9Jadk,"[u'point_of_interest', u'establishment']"
0,43.366418,5.260822,Les Héritages,ChIJnQnlHinoyRIRmhkb_cQgE_A,"[u'sublocality_level_1', u'sublocality', u'political']"
0,43.3702759,5.253293,Schools,ChIJdWSEfCToyRIRVtnbqZytGLY,"[u'school', u'point_of_interest', u'establishment']"
0,43.3653501,5.2436403,Sarl Montis,ChIJHQkJ8R3oyRIRMlhKFTSJrJ8,"[u'point_of_interest', u'establishment']"
0,43.366871,5.244384,Le Rove Automobiles et Services - Citroën,ChIJkb4N5R7oyRIRH1YsX0hkf9M,"[u'car_repair', u'point_of_interest', u'establishment']"
0,43.37121,5.255777,Ambulances du Rove,ChIJkQGWGyXoyRIRzNDuJhP4sFQ,"[u'health', u'point_of_interest', u'establishment']"
0,43.3668828,5.2445799,Station-service TOTAL,ChIJ3cX4miHoyRIRFa-xDvivrpA,"[u'car_repair', u'point_of_interest', u'establishment']"
0,43.3685529,5.2449676,PRECISIUM Garage AUTOS DU ROVE,ChIJ_2tR1RjoyRIR8taKmxEqBrc,"[u'car_repair', u'point_of_interest', u'establishment']"
0,43.3653501,5.2436403,Etablissements Lanteri,ChIJC7D1QR7oyRIRj4zz1Djl33Q,"[u'point_of_interest', u'establishment']"
0,43.3678994,5.2440038,Renault,ChIJpwboxR7oyRIR2ee6mIJtwxQ,"[u'car_dealer', u'store', u'point_of_interest', u'establishment']"
0,43.364636,5.2420647,Société Marseillaise de Transports Routiers,ChIJC7D1QR7oyRIR5EmiMP2DXG4,"[u'point_of_interest', u'establishment']"
0,43.3716676,5.258607,PLOMBIÊR Arnould,ChIJB7LYwi_oyRIRSmdjegJI-NI,"[u'point_of_interest', u'establishment']"
0,43.3671198,5.2425811,Atelier Phocéen,ChIJeXCszRjoyRIRRq22jf2pJZk,"[u'locksmith', u'point_of_interest', u'establishment']"
0,43.3722553,5.2583702,Nounou du rove,ChIJoRm4-y_oyRIR6hNYmps8n-M,"[u'point_of_interest', u'establishment']"
0,43.3724906,5.259277,Albagnac Gerard,ChIJJxVJ3i_oyRIRp2Xb_ypoXfE,"[u'point_of_interest', u'establishment']"
0,43.3720923,5.2598729,Les Doudous du Soleil,ChIJQ-ZJxS_oyRIRCgo_jOGZSF4,"[u'clothing_store', u'store', u'point_of_interest', u'establishment']"
0,43.367432,5.249742,Agence web - 3W Conseil,ChIJRZ2XVhzoyRIRAg6Yi236F-k,"[u'point_of_interest', u'establishment']"
0,43.367366,5.249648,Casino supermarché,ChIJcZK7OH3pyRIR28UacFT5f4g,"[u'convenience_store', u'grocery_or_supermarket', u'food', u'store', u'point_of_interest', u'establishment']"
0,43.3684665,5.2516929,Milhaud Jean-Yves,ChIJo3C8OH3pyRIRekyyYLIhevI,"[u'doctor', u'health', u'point_of_interest', u'establishment']"
0,43.3684665,5.2516929,PGA Finance,ChIJ3yqc4SPoyRIRwXrVETFVedc,"[u'finance', u'point_of_interest', u'establishment']"
0,43.3684665,5.2516929,Sarl MC Travaux,ChIJ3yqc4SPoyRIR4sZEeTYMnNY,"[u'general_contractor', u'point_of_interest', u'establishment']"
0,43.3684665,5.2516929,Ambre Coiffure,ChIJ3yqc4SPoyRIRMVTv2u9fmXs,"[u'point_of_interest', u'establishment']"
0,43.3684665,5.2516929,SELARL Laboratoire Massif De La Nerthe,ChIJ3yqc4SPoyRIRjQ1sCvO7knk,"[u'point_of_interest', u'establishment']"
0,43.3684665,5.2516929,Mollet Joelle Therese,ChIJ3yqc4SPoyRIRjYJtRT2m_EM,"[u'point_of_interest', u'establishment']"
0,43.3684665,5.2516929,Bolcioni Danièle,ChIJo3C8OH3pyRIRVtXGFrcxFEA,"[u'doctor', u'health', u'point_of_interest', u'establishment']"
0,43.3684665,5.2516929,Sarl ACPA 13,ChIJ3yqc4SPoyRIRVq-X-lf-hAs,"[u'point_of_interest', u'establishment']"
0,43.3684665,5.2516929,Selurl Pharmacie Ripoll-cassarino,ChIJ3yqc4SPoyRIR5MkadveKrAc,"[u'point_of_interest', u'establishment']"
0,43.368461,5.25087,infirmiere liberale Tinard Delphine,ChIJ3yqc4SPoyRIRUeg08PUDPHI,"[u'health', u'point_of_interest', u'establishment']"
0,43.367294,5.24898,Ostéopathe Lisa SERIGNAC,ChIJX1X9lCHoyRIRH3BqrW5qQHM,"[u'health', u'point_of_interest', u'establishment']"
0,43.36734,5.248868,Peggy Pierre,ChIJo3C8OH3pyRIR42v8ss2z1po,"[u'health', u'point_of_interest', u'establishment']"
0,43.3684296,5.2503104,Rastello Zambetta Brigitte,ChIJSZYB1SPoyRIRfZJB6iGLlA0,"[u'point_of_interest', u'establishment']"
0,43.3689627,5.2507887,Zambetta Marco,ChIJqz7KzyPoyRIRhMo7WlGAe2I,"[u'furniture_store', u'home_goods_store', u'store', u'point_of_interest', u'establishment']"
0,43.3688831,5.2500688,Dridi Hichem,ChIJQyNhLSLoyRIRIB9XJt3YvkE,"[u'electrician', u'point_of_interest', u'establishment']"
0,43.3669702,5.2476741,Lo-Nardo Guiseppe Joseph,ChIJ0Sw93yHoyRIRJmaNGykNOpw,"[u'point_of_interest', u'establishment']"
0,43.3669702,5.2476741,Kadaoui Valerie,ChIJ0Sw93yHoyRIRaR3r59Y-JBc,"[u'point_of_interest', u'establishment']"
0,43.369611,5.253947,Crèche Le Rove LMB - Martine Feltrin - La Maison Bleue,ChIJmQIpaiToyRIRH-rE5FA5F04,"[u'point_of_interest', u'establishment']"
0,43.3695382,5.2509786,Piccinno Zanzoni Claire,ChIJk4pfuCPoyRIRzODM0mwSn_c,"[u'point_of_interest', u'establishment']"
0,43.369646,5.2512169,13740,ChIJpVvCviPoyRIR_wXsO0-vNyI,"[u'city_hall', u'local_government_office', u'point_of_interest', u'establishment']"
0,43.369381,5.250209,13740,ChIJdzXFyiPoyRIRIpKUl3d-hlM,"[u'church', u'place_of_worship', u'point_of_interest', u'establishment']"
0,43.3697019,5.251371,13740,ChIJgfRtviPoyRIRt3ohmIFTdC8,"[u'police', u'point_of_interest', u'establishment']"
0,43.3668924,5.2470703,Uregence Coiffure Dépannage,ChIJC7D1QR7oyRIRjG1adV3gkxc,"[u'store', u'point_of_interest', u'establishment']"
0,43.3697533,5.2515081,Harms Eric,ChIJD_4FliPoyRIR79fGO3ALHt4,"[u'bar', u'point_of_interest', u'establishment']"
0,43.373008,5.2620774,Complexe Sportif Blaise Gouiran,ChIJGfvt5THoyRIRw7nKgFnLLDo,"[u'point_of_interest', u'establishment']"
0,43.3713099,5.2549295,Nabet Valérie,ChIJwwE55CToyRIRGi_5qkLskBQ,"[u'doctor', u'health', u'point_of_interest', u'establishment']"
0,43.3708939,5.2531551,Perri-Dubuy Sylvie,ChIJB_iQhiToyRIRLgQsIv0xHKY,"[u'point_of_interest', u'establishment']"
0,43.3722748,5.2567943,Nounou Engel Isabelle Assistante maternelle agréée,ChIJ063RTiXoyRIR3eDUY8SPySM,"[u'point_of_interest', u'establishment']"
0,43.372367,5.257047,Pitchoun Académie,ChIJ063RTiXoyRIRXP_PHDfWurc,"[u'point_of_interest', u'establishment']"
0,43.3704756,5.2520663,Debard Jean-Marc,ChIJDZQmnSPoyRIRjitK2EL9jr8,"[u'point_of_interest', u'establishment']"
0,43.3704119,5.2540962,Ecole Maternelle Publique Jacques Duclos,ChIJOyQ2giPoyRIRYSA4IV5Syr4,"[u'school', u'point_of_interest', u'establishment']"
0,43.3702921,5.2525801,Roussel Mylene,ChIJOx4tgSPoyRIRovZkgJpGBW8,"[u'point_of_interest', u'establishment']"
0,43.3703241,5.2516235,Pompom Dance Crew Du Rove,ChIJVxrVmCPoyRIRB1WUbcQTf6g,"[u'point_of_interest', u'establishment']"
0,43.372008,5.258017,Chanabas Jean-Paul,ChIJSdP1WCXoyRIRLnEcJ7bu2x8,"[u'painter', u'point_of_interest', u'establishment']"
0,43.369902,5.2526316,Sabater Olivier,ChIJjdhdiCPoyRIRkIqp2qAZC50,"[u'point_of_interest', u'establishment']"
0,43.3701752,5.2506392,Roumestan Mylene,ChIJ8URMriPoyRIR1PrD3gMYIU4,"[u'point_of_interest', u'establishment']"
0,43.3698677,5.2525172,Laval Jacques,ChIJjdhdiCPoyRIReqkkVZGMK6Y,"[u'point_of_interest', u'establishment']"
0,43.3701079,5.2507213,Boyer Yanis Alphonse,ChIJ8URMriPoyRIRR_r1k4Aow_c,"[u'electrician', u'point_of_interest', u'establishment']"
0,43.3700294,5.2553687,S2C Castagnier,ChIJc-faUSToyRIRmfnnBLBH4fM,"[u'general_contractor', u'point_of_interest', u'establishment']"
0,43.3698977,5.2508993,sarl - a l'eau plombier,ChIJB_iQhiToyRIRJy0frQW8jXI,"[u'plumber', u'point_of_interest', u'establishment']"
0,43.3698647,5.250696,Berthet Jean-Paul,ChIJk7UdtCPoyRIRr4Pe7xmJ6wI,"[u'health', u'point_of_interest', u'establishment']"
0,43.369582,5.250631,13740,ChIJTwtOtiPoyRIRMWDGjCMtALk,"[u'post_office', u'finance', u'point_of_interest', u'establishment']"
0,43.3696404,5.2503581,Castillo Olivier,ChIJ6d-ZFyLoyRIRjKJzMfXbKbg,"[u'car_repair', u'point_of_interest', u'establishment']"
0,43.370466,5.257433,Isler Patrick,ChIJkQ9HeCXoyRIRraExTusI58E,"[u'point_of_interest', u'establishment']"
0,43.369599,5.250445,église Ste-Anne,ChIJFenPtSPoyRIRx78p2YBbWDg,"[u'point_of_interest', u'establishment']"
0,43.369595,5.250445,T.J.D Transports,ChIJl1jFtSPoyRIRzDDX2rFFRvA,"[u'point_of_interest', u'establishment']"
0,43.369595,5.250445,Herteman DL,ChIJWwzFtSPoyRIRDgAw6aAHTNE,"[u'plumber', u'point_of_interest', u'establishment']"
0,43.369595,5.250445,Sud Habitat - Le Rove 4 Deven (SA),ChIJl1jFtSPoyRIRRkidU3bfIVA,"[u'point_of_interest', u'establishment']"
0,43.369595,5.250445,Ravel Frederic Transport,ChIJl1jFtSPoyRIR-txfQGIVtU0,"[u'point_of_interest', u'establishment']"
0,43.369595,5.250445,Services Ventes et Maintenance,ChIJWwzFtSPoyRIRO7p8RhoJfEM,"[u'point_of_interest', u'establishment']"
0,43.369595,5.250445,Monsieur Marc Beguet,ChIJl1jFtSPoyRIRXMcNCucJATY,"[u'point_of_interest', u'establishment']"
0,43.369595,5.250445,Logistic Transport Sud,ChIJl1jFtSPoyRIRjKlyG0t5PSE,"[u'point_of_interest', u'establishment']"
0,43.369595,5.250445,Gastaud Steven,ChIJl1jFtSPoyRIR6u6aVWyCARw,"[u'point_of_interest', u'establishment']"
0,43.369595,5.250445,Ctms,ChIJl1jFtSPoyRIR5hu2DwlBNg4,"[u'point_of_interest', u'establishment']"
0,43.36959,5.25044,Dynafret,ChIJWwzFtSPoyRIRnx1qKuTHMx0,"[u'point_of_interest', u'establishment']"
0,43.3696293,5.2697555,mylabelmusic,ChIJ-bY_DoDoyRIR8bbo1FBxbxg,"[u'point_of_interest', u'establishment']"
0,43.3701318,5.269899,Eurl Ebtech,ChIJA4wCf9LpyRIRUR7dugvBJK4,"[u'point_of_interest', u'establishment']"
0,43.365687,5.263882,unnamed,ChIJjYMpzivoyRIRLKhfH25Pz_Q,"[u'point_of_interest', u'establishment']"
0,43.3668562,5.2605067,Genie Electriq Informatiq,ChIJ4d3iQSnoyRIR-AxUw-mJfE8,"[u'point_of_interest', u'establishment']"
0,43.3675156,5.2631322,Federation D Acupuncture Relaxation,ChIJ5e2iVSnoyRIRGAJ-V15myAg,"[u'point_of_interest', u'establishment']"
0,43.3678526,5.264223,Cti Sebastien,ChIJ26yaCyzoyRIRXicb18GtIlk,"[u'plumber', u'point_of_interest', u'establishment']"
0,43.3672218,5.2653237,L & A Du Sud,ChIJAQXKhSvoyRIRWb3JNDtkZa0,"[u'point_of_interest', u'establishment']"
0,43.369203,5.2644263,Romero Jean-Luc,ChIJJ1ZhRyzoyRIRomzva-TuDYA,"[u'point_of_interest', u'establishment']"
0,43.368973,5.265045,Devouge Luc,ChIJNakDQyzoyRIRPLE-BH53Ejo,"[u'point_of_interest', u'establishment']"
0,43.3698154,5.2632864,P.E Etancheite,ChIJ1TcZKizoyRIRj3syiU2-cTw,"[u'point_of_interest', u'establishment']"
0,43.3668591,5.2682002,Dussourd Marie,ChIJf7GKTSvoyRIRFB20OXn8qJY,"[u'health', u'point_of_interest', u'establishment']"
0,43.3667065,5.2683282,Nicolay Alain,ChIJf7GKTSvoyRIR28kXEmE5OVk,"[u'point_of_interest', u'establishment']"
0,43.3671626,5.2683952,Dilélio Pierre,ChIJf7GKTSvoyRIRdwWNRUq5CUg,"[u'point_of_interest', u'establishment']"
0,43.3679094,5.2688785,Rafik Alain,ChIJ--GnNtPpyRIRrTyEVR3Nfr8,"[u'point_of_interest', u'establishment']"
0,43.3709675,5.2606887,Gouiran Battung Gouiran Christina,ChIJLfnfTC7oyRIRourg7_DI7ps,"[u'point_of_interest', u'establishment']"
0,43.3707479,5.2645881,Debrie Maryline,ChIJv61ouC3oyRIRy5oq8sPiduY,"[u'point_of_interest', u'establishment']"
0,43.3710603,5.2635803,Guidi Gerard,ChIJi5wi3C3oyRIRNENBQzSlitU,"[u'point_of_interest', u'establishment']"
0,43.3686835,5.2687158,Taxi Di Lelio,ChIJTSahNdPpyRIRujqfu2nW_Hg,"[u'point_of_interest', u'establishment']"
0,43.3693907,5.2689131,Lepage François,ChIJXXkINNPpyRIRqgyuWwUteHI,"[u'general_contractor', u'point_of_interest', u'establishment']"
0,43.371972,5.2615743,Aux Gourmandises Du Rove,ChIJU-5UOy7oyRIRJ0jpVYmBLHo,"[u'point_of_interest', u'establishment']"
0,43.371972,5.2615743,Vahanian Marc,ChIJSWYrii3oyRIReNKj7vhOBko,"[u'restaurant', u'food', u'point_of_interest', u'establishment']"
0,43.371972,5.2615743,Roxane,ChIJU-5UOy7oyRIRPyUm56rGESU,"[u'point_of_interest', u'establishment']"
0,43.372005,5.2603807,Teissier Amelie,ChIJ38yNzS_oyRIRpQIbgIJBMa8,"[u'point_of_interest', u'establishment']"
0,43.370831,5.267354,Fernandez Gilles Bruno,ChIJrYWbPi3oyRIRHlLU3EdN0Jc,"[u'general_contractor', u'point_of_interest', u'establishment']"
0,43.3709739,5.2673721,Soriano Christophe Eric,ChIJ449baS3oyRIRawLRop-6pfU,"[u'general_contractor', u'point_of_interest', u'establishment']"
0,43.3709739,5.2673721,Gouiran Maurice,ChIJvwxQPi3oyRIRppKBToOBRRM,"[u'point_of_interest', u'establishment']"
0,43.3718427,5.2650633,Guzzi Christophe Nicolas,ChIJCyphiS3oyRIRHXx6wqbnjM0,"[u'point_of_interest', u'establishment']"
0,43.3714356,5.2664805,Christophe Hess Investissement,ChIJn4a5OS3oyRIRPT6So-wt3ME,"[u'point_of_interest', u'establishment']"
0,43.372217,5.2648693,Million Eric,ChIJSWYrii3oyRIRcuj9L4x-0Ro,"[u'point_of_interest', u'establishment']"
0,43.3717284,5.2665118,Devis Aimee,ChIJO8f7by3oyRIRZWKTFfry3sg,"[u'point_of_interest', u'establishment']"
0,43.3726079,5.2619854,Durand André,ChIJB_iQhiToyRIRCgG-px0eEQM,"[u'electrician', u'point_of_interest', u'establishment']"
0,43.369621,5.270008,Pellier de Angelis Stephanie,ChIJ0-yLHtPpyRIRZ1CuN1RaKfU,"[u'health', u'point_of_interest', u'establishment']"
0,43.369621,5.270008,Entreprise de Angelis Et Fils,ChIJHZeLHtPpyRIRo1dj3EqXAOo,"[u'point_of_interest', u'establishment']"
0,43.3711064,5.268078,M N M Sarl,ChIJE1AvSi3oyRIRszIhPCi7H0c,"[u'plumber', u'point_of_interest', u'establishment']"
0,43.3711064,5.268078,Lagouardat Nicolas,ChIJF-68SS3oyRIRHdeTYCYUDSM,"[u'point_of_interest', u'establishment']"
0,43.3711865,5.2680219,E.u.r.l 2 Clean'aix Services,ChIJF-68SS3oyRIRJN-CsT8VZfs,"[u'point_of_interest', u'establishment']"
0,43.3700872,5.2696832,Rouzault Yves Christian,ChIJA4wCf9LpyRIRnZ_YJFpUL7k,"[u'furniture_store', u'home_goods_store', u'store', u'point_of_interest', u'establishment']"
0,43.362192,5.23786,Karting Le Rove,ChIJv_6t3KfCyRIRjjW1Q24lzlc,"[u'point_of_interest', u'establishment']"
0,43.36409,5.240509,Le Majestic,ChIJC7D1QR7oyRIR5FHPct-FDwk,"[u'restaurant', u'bar', u'food', u'point_of_interest', u'establishment']"
0,43.362826,5.237703,Cabaret Moulin Bleu du Rove,ChIJreilb6jCyRIRwoyQZIK6_zw,"[u'restaurant', u'bar', u'food', u'point_of_interest', u'establishment']"
0,43.36253,5.2387729,Azurconstruction,ChIJeyKLL6XCyRIRhq0W5NyzU6g,"[u'general_contractor', u'point_of_interest', u'establishment']"
0,43.366909,5.240694,Le Douard,ChIJ0cNUTxzoyRIRN1yao-o6uxo,"[u'sublocality_level_1', u'sublocality', u'political']"
0,43.3610834,5.2378124,Salle de Mariage Jennifer,ChIJeyKLL6XCyRIRIThhjWb9dJw,"[u'point_of_interest', u'establishment']"
0,43.365273,5.243704,Goyne Romain,ChIJC7D1QR7oyRIRMpMpPdcPAj8,"[u'point_of_interest', u'establishment']"
0,43.3653501,5.2436403,Franzap,ChIJHQkJ8R3oyRIRkBdL4Zsb2PM,"[u'real_estate_agency', u'point_of_interest', u'establishment']"
0,43.3653501,5.2436403,Gabriella,ChIJC7D1QR7oyRIREymcW-dKQc8,"[u'bar', u'restaurant', u'food', u'point_of_interest', u'establishment']"
0,43.3653501,5.2436403,Entreprise Générale du Bâtiment TP,ChIJHQkJ8R3oyRIR15IauL2YbLE,"[u'general_contractor', u'point_of_interest', u'establishment']"
0,43.3653501,5.2436403,Kolar Max,ChIJC7D1QR7oyRIRDnmIsWLenH4,"[u'point_of_interest', u'establishment']"
0,43.36535,5.24364,Phocéa Constructions Métalliques,ChIJHQkJ8R3oyRIRS3Deu49gaWg,"[u'general_contractor', u'point_of_interest', u'establishment']"
0,43.3653501,5.2436403,Raymond Christian,ChIJ60qkQx7oyRIR7jo43_p6Nh4,"[u'plumber', u'point_of_interest', u'establishment']"
0,43.3648793,5.2440079,Lang Elec,ChIJw0nGOB7oyRIRLc6lLoeqk-k,"[u'electrician', u'point_of_interest', u'establishment']"
0,43.3646419,5.2440387,Zanotta Mickaella,ChIJxUfnOx7oyRIRVIY52oROrZc,"[u'point_of_interest', u'establishment']"
0,43.3648839,5.242973,VRI,ChIJE819DR7oyRIRl_EV_o3M1HY,"[u'point_of_interest', u'establishment']"
0,43.364467,5.24483,Mve mébalé Stéphanie assistante maternelle agréée,ChIJp6zjMh7oyRIRzgDZ9cKRQ84,"[u'point_of_interest', u'establishment']"
0,43.3644257,5.2417136,Zapata Holding,ChIJZT6l-h3oyRIRRDHwiKfyEgs,"[u'finance', u'point_of_interest', u'establishment']"
0,43.3676018,5.2437361,Fily Roland Robert,ChIJ0y7qwB7oyRIRfsZP92fS3w4,"[u'point_of_interest', u'establishment']"
0,43.3665888,5.2411461,Sinitzki Nathalie Sylvianne Henriette,ChIJaa0HLxzoyRIRV9DYO9pHhTw,"[u'point_of_interest', u'establishment']"
0,43.3677204,5.2429626,Chauvin Vion Fukari Cecile Carole,ChIJFQCqpB7oyRIRKIEvnJlFEDk,"[u'point_of_interest', u'establishment']"
0,43.3671795,5.2406947,Bollej Yvan,ChIJVbYY4BzoyRIRAXDMUwUWyFs,"[u'general_contractor', u'point_of_interest', u'establishment']"
0,43.366742,5.240174,Caroline FAUBEL Assistante maternelle agréée,ChIJ86KSUBzoyRIREUzHEvzNH0E,"[u'point_of_interest', u'establishment']"
0,43.3670604,5.2400699,Ben Haim Sanna Stephanie,ChIJ2e0lWhzoyRIRH4DzYLVx89s,"[u'point_of_interest', u'establishment']"
0,43.3685529,5.2449676,Adr Auto,ChIJ_2tR1RjoyRIRmURtytap8YU,"[u'car_repair', u'point_of_interest', u'establishment']"
0,43.3666615,5.239729,Dutton Boyer Rachel Helen,ChIJccv_VRzoyRIRvbOzFwAhwV4,"[u'point_of_interest', u'establishment']"
0,43.3683817,5.2461894,Pascual Alain,ChIJ2UtpNR_oyRIRZn8zHXs7szI,"[u'point_of_interest', u'establishment']"
0,43.3685546,5.2457561,Gailhac Volfinger Céline,ChIJcTOjzBjoyRIRwETE4kQa8Ec,"[u'point_of_interest', u'establishment']"
0,43.3687383,5.2456704,Delta Electric,ChIJ51uJKBzoyRIRF4ji79MPvbs,"[u'electrician', u'point_of_interest', u'establishment']"
0,43.3399088,5.2583071,Auberge du Mérou,ChIJeb5WCfLCyRIRf4yNw4Ex9-Q,"[u'restaurant', u'food', u'point_of_interest', u'establishment']"
0,43.3393823,5.2565981,Le Cazal,ChIJ-wxl8O3CyRIRdexC8Z_OpQ0,"[u'restaurant', u'natural_feature', u'food', u'point_of_interest', u'establishment']"
0,43.3424585,5.2600402,AU DELA PLONGEE,ChIJkS-rsPPCyRIRMWJu7RQiRco,"[u'store', u'point_of_interest', u'establishment']"
0,43.3420717,5.2606114,Calanque de la Vesse,ChIJ18PB4vLCyRIROJ_8GyvJevw,"[u'bar', u'point_of_interest', u'establishment']"
0,43.3498396,5.2438671,Gare de Niolon,ChIJA2MWde7CyRIRSEdvO_jvt3Q,"[u'real_estate_agency', u'point_of_interest', u'establishment']"
0,43.3401085,5.2583262,Gracette Locations de vacances,ChIJsbe8C_LCyRIRWsu9iIFgj1Q,"[u'travel_agency', u'real_estate_agency', u'point_of_interest', u'establishment']"
0,43.3390019,5.256487,Au Scampy,ChIJjaEVde7CyRIRAk1QCmkirCU,"[u'restaurant', u'bar', u'food', u'point_of_interest', u'establishment']"
0,43.339771,5.257344,Tortilla b,ChIJg4Ig8O3CyRIRwbVKXGnHJec,"[u'point_of_interest', u'establishment']"
0,43.339589,5.2568697,L Ancre,ChIJSxVS5u3CyRIRYXljooS6wCo,"[u'point_of_interest', u'establishment']"
0,43.3393823,5.2565981,L'Ancre,ChIJ2xub3u3CyRIRz-edE5qNYco,"[u'restaurant', u'food', u'point_of_interest', u'establishment']"
0,43.338804,5.256678,UCPA Niolon,ChIJZa5Vc-7CyRIRR305u7NNrpw,"[u'lodging', u'point_of_interest', u'establishment']"
0,43.3403486,5.2596188,Le Grand Bleu,ChIJWZ0rQfLCyRIRGiHfshtn3ek,"[u'travel_agency', u'real_estate_agency', u'point_of_interest', u'establishment']"
0,43.3390019,5.256487,Madec Magali,ChIJjaEVde7CyRIRfw9E8KwV7hU,"[u'point_of_interest', u'establishment']"
0,43.339529,5.258696,Balade en Mer Marseille-Côte Bleue,ChIJ4XTGGvLCyRIRZz032j_f5Mw,"[u'travel_agency', u'point_of_interest', u'establishment']"
0,43.3456454,5.2546023,Cabanon Calanque Marseille,ChIJw-f6EJPCyRIRaRcwEzsiUds,"[u'lodging', u'point_of_interest', u'establishment']"
0,43.3445062,5.2562703,Monnet Arthur,ChIJoZJoz5LCyRIRmqGFrjHOqc4,"[u'point_of_interest', u'establishment']"
0,43.342939,5.260167,Colletta Daniel,ChIJ79mX2_LCyRIRpDguZYRUg_o,"[u'point_of_interest', u'establishment']"
0,43.3401489,5.256983,13740,ChIJA5SC6-3CyRIRB_g1PH-Jwts,"[u'train_station', u'transit_station', u'point_of_interest', u'establishment']"
0,43.343916,5.257961,La Vesse,ChIJtwprvPLCyRIR0OL6kagZCAo,"[u'sublocality_level_1', u'sublocality', u'political']"
0,43.339416,5.257461,Restaurant La Pergola - Restaurant Niolon,ChIJ9xdS--3CyRIRvotWiPgVKDI,"[u'restaurant', u'bar', u'food', u'point_of_interest', u'establishment']"
0,43.3396815,5.2572457,Khedairia Danielle,ChIJvZt17-3CyRIR2paj9QrTtKM,"[u'grocery_or_supermarket', u'food', u'store', u'point_of_interest', u'establishment']"
0,43.3395272,5.2569318,Djeddou Nadia,ChIJSxVS5u3CyRIRKwhfOKpdRZA,"[u'point_of_interest', u'establishment']"
0,43.3393124,5.2563643,Espoir,ChIJl0wt2e3CyRIROWNcUPQZjYc,"[u'point_of_interest', u'establishment']"
0,43.3403241,5.2593696,Nattero Marie Anne Michele,ChIJTyZhQPLCyRIRPgRD6qM1wqo,"[u'point_of_interest', u'establishment']"
0,43.3394159,5.2573618,Sarl Du Port,ChIJ9xdS--3CyRIRfZOcQ8kUsP4,"[u'point_of_interest', u'establishment']"
0,43.3390019,5.256487,La Canne de Bambou,ChIJjaEVde7CyRIRFCgAAVRHzN0,"[u'bar', u'point_of_interest', u'establishment']"
0,43.340639,5.260782,13740,ChIJZdhesvPCyRIRBpSqG_mwnj8,"[u'point_of_interest', u'establishment']"
0,43.355331,5.203593,Ensuès-la-Redonne,ChIJL2b3gmXdyRIRPTzxtaP7BfE,"[u'locality', u'political']"
0,43.3549621,5.2391319,parking,ChIJJ19fJaXCyRIRmdJNUB1C5vg,"[u'park', u'point_of_interest', u'establishment']"
0,43.3549995,5.2392444,A à Z Création,ChIJeyKLL6XCyRIRj9FbGXl8qx0,"[u'furniture_store', u'home_goods_store', u'store', u'point_of_interest', u'establishment']"
0,43.3568899,5.2364864,Genre Peretti Nathalie,ChIJ9XcHeK_CyRIRIRedIXBXSBw,"[u'point_of_interest', u'establishment']"
0,43.3594313,5.2376583,Seksik Amerigo Isabelle,ChIJd-NFBqbCyRIRoubJb330AX8,"[u'point_of_interest', u'establishment']"
0,43.3599223,5.2375896,Giordanengo Alain,ChIJeyKLL6XCyRIRbSiUeTORvVo,"[u'real_estate_agency', u'health', u'point_of_interest', u'establishment']"
0,43.36253,5.2387729,Andrieu Stephane,ChIJeyKLL6XCyRIRLOWRJ1YpJIo,"[u'point_of_interest', u'establishment']"
0,43.390916,5.233463,Gignac-la-Nerthe,ChIJZVkA63PoyRIR4AKX_aUZCAQ,"[u'locality', u'political']"
0,43.392023,5.256157,Aire de Service de Rebuty,ChIJ49vEMkXoyRIRWVK6xLI-tHY,"[u'point_of_interest', u'establishment']"
0,43.391039,5.258095,Relais de la Nerthe,ChIJr9Me6k_oyRIRbKr9pBGI9lg,"[u'point_of_interest', u'establishment']"
0,43.390844,5.2587981,Station-service TOTAL,ChIJ6zP3MR_pyRIRx64F04ndfck,"[u'gas_station', u'point_of_interest', u'establishment']"
0,43.3908907,5.2588731,Brioche Dorée,ChIJ4wv27E_oyRIR9_3gE8y7pXA,"[u'restaurant', u'food', u'point_of_interest', u'establishment']"
0,43.39101,5.259233,Aire de Service de la Nerthe,ChIJr9Me6k_oyRIRzBG-iNp2dX0,"[u'point_of_interest', u'establishment']"
0,43.3732449,5.2691599,Olympique Rovenain Sté,ChIJoTraR83pyRIRsuoQrm5s-pI,"[u'point_of_interest', u'establishment']"
0,43.3736381,5.2622866,Juanole Laurent,ChIJ1yGQ7DHoyRIRts8Lhb5ASZo,"[u'point_of_interest', u'establishment']"
0,43.3738285,5.2627419,Grillere Veronique,ChIJp6W7jDHoyRIRwtdX_m1NNMA,"[u'point_of_interest', u'establishment']"
0,43.3738285,5.2627419,Guissani Gomez Losa SCP,ChIJp6W7jDHoyRIRe1RiyzCKmm4,"[u'health', u'point_of_interest', u'establishment']"
0,43.373548,5.262225,Ostéopathe Le Rove Christophe GOMEZ,ChIJoV2J6zHoyRIRXw4FEz_iMiA,"[u'health', u'point_of_interest', u'establishment']"
0,43.3727489,5.2637838,Sautet Jacques,ChIJSeVyBjLoyRIR6554P5iQDnY,"[u'point_of_interest', u'establishment']"
0,43.370146,5.269885,Les Bastides,ChIJf28k59LpyRIRFQcwqpt_uKk,"[u'sublocality_level_1', u'sublocality', u'political']"
0,43.3728565,5.2645264,Cihanek Jean-Luc,ChIJG3Qfii3oyRIR2e_kvwlatd8,"[u'furniture_store', u'home_goods_store', u'store', u'point_of_interest', u'establishment']"
0,43.372614,5.2643306,Fernandez Fabrice,ChIJQ6mtCzLoyRIRCI5prbybd2U,"[u'post_office', u'finance', u'point_of_interest', u'establishment']"
0,43.377332,5.26356,Tunnel du Rove,ChIJo0NSBzToyRIRO3Fhj1QiogM,"[u'point_of_interest', u'establishment']"
0,43.3728517,5.2659255,Abonneau Isabelle,ChIJP7KUndLpyRIRrV61G2kGl1Y,"[u'health', u'point_of_interest', u'establishment']"
0,43.3727665,5.2664637,La Belle Vie,ChIJMQbOhDLoyRIRxJFhYx5XKTk,"[u'lodging', u'point_of_interest', u'establishment']"
0,43.3731267,5.2671204,Gouiran Andre Jean,ChIJoTraR83pyRIRL0p5pDWaIOg,"[u'food', u'point_of_interest', u'establishment']"
0,43.3727086,5.2673703,Gouiran Mireille,ChIJWyi8ozLoyRIR1-ZHR1gactI,"[u'point_of_interest', u'establishment']"
0,43.3730721,5.2686257,Gouiran Clement,ChIJoTraR83pyRIRBP2GuYgdevk,"[u'point_of_interest', u'establishment']"
0,43.3730721,5.2686257,Gouiran Botella Elisabeth Helene,ChIJoTraR83pyRIRxXOM2A0ze6s,"[u'beauty_salon', u'point_of_interest', u'establishment']"
0,43.3730721,5.2686257,Camoin Cyril,ChIJnYZeTM3pyRIRfhRPxEPu_1s,"[u'point_of_interest', u'establishment']"
0,43.3695505,5.2489942,Griffon Electrique,ChIJeXCszRjoyRIRTDFS7U11ODs,"[u'electrician', u'point_of_interest', u'establishment']"
0,43.378658,5.237133,Tunnel du Rove,ChIJA-p9ABLoyRIR15UynXk2ZgQ,"[u'point_of_interest', u'establishment']"
0,43.3695743,5.2500768,Pascal Cecile,ChIJ1w1VtSPoyRIRIdsM_5JIwvs,"[u'point_of_interest', u'establishment']"
0,43.3682142,5.2479061,Fusco Jean-Claude,ChIJ6d-ZFyLoyRIRPOZq616KU7U,"[u'point_of_interest', u'establishment']"
0,43.296482,5.36978,Marseille,ChIJM1PaREO_yRIRIAKX_aUZCAQ,"[u'locality', u'political']"
0,43.3753856,5.305023,16e Arrondissement,ChIJzSEdKAfqyRIRsBmY_aUZCAU,"[u'sublocality_level_1', u'sublocality', u'political']"
0,43.3717369,5.271978,Santiago Pierre Daniel,ChIJA4wCf9LpyRIRzEDJ-GALfqk,"[u'point_of_interest', u'establishment']"
0,43.3717369,5.271978,Santiago Louis,ChIJA4wCf9LpyRIRTwRArpTGlik,"[u'point_of_interest', u'establishment']"
0,43.362697,5.281716,unnamed,ChIJM_GSiNjpyRIRV6XnpNx5qfQ,"[u'point_of_interest', u'establishment']"
0,43.3726475,5.269913,Stade Municipal du Rove,ChIJF-mBaM3pyRIRDOBXsXB9Hm0,"[u'premise', u'stadium', u'point_of_interest', u'establishment']"
0,43.370706,5.23248,Hôtel Restaurant Les Pielettes,ChIJ9XbEJAToyRIR1FonzAeVimQ,"[u'restaurant', u'food', u'point_of_interest', u'establishment']"
0,43.362411,5.232656,13740,ChIJRfaSmqnCyRIRi1Eu1U7R_6A,"[u'point_of_interest', u'establishment']"
0,43.361436,5.2316589,13740,ChIJJeoZ16vCyRIR1J_BPSl5QGE,"[u'point_of_interest', u'establishment']"
0,43.3594957,5.2271323,Trabuc Henri,ChIJ2QBboqzCyRIR0mPLdP6YZis,"[u'point_of_interest', u'establishment']"
0,43.337871,5.246061,Le Fort de Niolon Haut,ChIJJakYQ8LCyRIRQyqs1ZyFxaM,"[u'point_of_interest', u'establishment']"
0,43.337947,5.256423,13740,ChIJI5AOau7CyRIR7nZbQoTR_rM,"[u'point_of_interest', u'establishment']"
0,43.338984,5.256773,Niolon,ChIJXV9V5e3CyRIRwOL6kagZCAo,"[u'sublocality_level_1', u'sublocality', u'political']"
0,43.338655,5.256775,MIDI-10,ChIJDfAfDe7CyRIRj3xyBDjQb_s,"[u'health', u'point_of_interest', u'establishment']"
0,43.338132,5.258008,13740,ChIJuYb-4fHCyRIR-NHYPd6TvOw,"[u'lodging', u'point_of_interest', u'establishment']"
0,43.339162,5.258331,calanque de Niolon,ChIJVaUpAvLCyRIR_XLXRxtwBxU,"[u'point_of_interest', u'establishment']"
0,43.346587,5.269864,Fort de Figuerolles,ChIJrQ_FuGHCyRIRuVAJ1hHUDKo,"[u'point_of_interest', u'establishment']"
0,43.3539648,5.2814894,Café - Hôtel du Resquiadou,ChIJQ_Vbs3HCyRIRK35UHXBOygM,"[u'cafe', u'lodging', u'food', u'point_of_interest', u'establishment']"
0,43.3542772,5.2817025,AEC Conseil,ChIJTUgRrXHCyRIR3KHlscjpLJQ,"[u'insurance_agency', u'point_of_interest', u'establishment']"
0,43.354009,5.277785,Moreno Cortes Richard,ChIJr-jllHrCyRIRmjDMoBQe7cs,"[u'clothing_store', u'store', u'point_of_interest', u'establishment']"
0,43.3539371,5.2815677,Gari Lombardo Elisabeth Andree,ChIJrwxcs3HCyRIRIq1A7rT5FOM,"[u'point_of_interest', u'establishment']"
0,43.4212739,5.218332,Marignane,ChIJz2Y1kSLmyRIRMAKX_aUZCAQ,"[u'locality', u'political']"
0,43.3976278,5.2539385,Centrale de la caravane,ChIJCZy-dVnoyRIRktA4EG4creg,"[u'car_dealer', u'store', u'point_of_interest', u'establishment']"
0,43.396325,5.254509,Pro Sud Isolation,ChIJuy3PxFvoyRIR8YgclnNmtjg,"[u'general_contractor', u'point_of_interest', u'establishment']"
0,43.398074,5.2543735,Atoll Form,ChIJNUmMcVnoyRIRll-pGCSg-A8,"[u'gym', u'health', u'point_of_interest', u'establishment']"
0,43.3972124,5.2479673,Auto Casse Gignac,ChIJQWPJ5l3oyRIRyPNZjRv65rM,"[u'car_repair', u'store', u'point_of_interest', u'establishment']"
0,43.394695,5.259425,Spiruline de la côte bleue,ChIJg2Jt81DoyRIRBWxDOZ-MwE0,"[u'health', u'food', u'store', u'point_of_interest', u'establishment']"
0,43.3955338,5.2476382,Accomplice,ChIJnS7ha2foyRIRE9GgTqzW__M,"[u'general_contractor', u'point_of_interest', u'establishment']"
0,43.397264,5.253301,PRO FUN 4X4,ChIJFX6Yb1noyRIRCWZgWESSWS0,"[u'car_repair', u'point_of_interest', u'establishment']"
0,43.39602,5.247409,Automatic Distribution Drinks,ChIJy3BZiV3oyRIRkHgXq3eoNWI,"[u'point_of_interest', u'establishment']"
0,43.3956525,5.2485911,Sarl Saris Elec,ChIJUwM7kV3oyRIR5bXi9E_Lihw,"[u'electrician', u'point_of_interest', u'establishment']"
0,43.3959128,5.2527797,Mairie,ChIJ82pg9VvoyRIRHUA6f3oW6dc,"[u'point_of_interest', u'establishment']"
0,43.3957695,5.255267,Xam Batiment,ChIJrRyCtVvoyRIRhKWJKMl8MWE,"[u'furniture_store', u'home_goods_store', u'store', u'point_of_interest', u'establishment']"
0,43.3979478,5.2550456,M.a.c.,ChIJ5-EBdl7oyRIRuHSjcFZH6Q4,"[u'furniture_store', u'home_goods_store', u'store', u'point_of_interest', u'establishment']"
0,43.3985887,5.2545842,Gignac Matériaux Sanchez,ChIJ1TIuEFnoyRIRgYPxrb0Dr7A,"[u'store', u'point_of_interest', u'establishment']"
0,43.396325,5.254509,Sarl Pro Sud Isolation Julien,ChIJuy3PxFvoyRIRSRa_A8Mo_xM,"[u'general_contractor', u'point_of_interest', u'establishment']"
0,43.3949772,5.2484804,Taulier Gérard,ChIJ1b2wd13oyRIRJEFNLBrumBY,"[u'point_of_interest', u'establishment']"
0,43.396726,5.2517303,Uni-Ytech Group,ChIJR0xBGVzoyRIR6G5Ta8I5HtA,"[u'electrician', u'point_of_interest', u'establishment']"
0,43.3970857,5.2508032,S.t.o,ChIJN44IKFzoyRIR9YNTu7zLrfQ,"[u'point_of_interest', u'establishment']"
0,43.3971686,5.2551945,SoDesign PACA,ChIJvXfcflnoyRIRyskAW4zNC_0,"[u'home_goods_store', u'store', u'point_of_interest', u'establishment']"
0,43.39602,5.247409,Abyxo,ChIJs0xhYGfoyRIRQUEGdQGY80k,"[u'point_of_interest', u'establishment']"
0,43.3968454,5.2471169,ERM Ferronnerie à Gignac-la-Nerthe,ChIJ10-UUGfoyRIRqUcUj900waI,"[u'point_of_interest', u'establishment']"
0,43.39754,5.2459646,Alliance Construction,ChIJA2bpxWDoyRIR_ucDCvBBES8,"[u'general_contractor', u'point_of_interest', u'establishment']"
0,43.3996292,5.2589899,Espaces Modulaires de Prov,ChIJ6fXem1foyRIRRoSBhcIJdtI,"[u'point_of_interest', u'establishment']"
0,43.3933224,5.2409862,Cabinet K2D Expertises,ChIJa1tthmXoyRIRlCBDWGMoEiU,"[u'finance', u'point_of_interest', u'establishment']"
0,43.3964361,5.2419498,Navarro Piscines,ChIJBZ2jGGToyRIRY7tLt_GOncA,"[u'general_contractor', u'point_of_interest', u'establishment']"
0,43.3977868,5.2545819,Pro Form,ChIJNUmMcVnoyRIRF1ntseXINPM,"[u'gym', u'health', u'point_of_interest', u'establishment']"
0,43.399396,5.245124,CHAUSS'FIGHT - siège administratif,ChIJuwFM_GDoyRIRsAXfFj00mU8,"[u'gym', u'health', u'point_of_interest', u'establishment']"
0,43.3957257,5.2577012,Gangitano Claude,ChIJ-30HC1royRIR3Vmy8PIeUDo,"[u'plumber', u'point_of_interest', u'establishment']"
0,43.3949326,5.2534462,Discazaux,ChIJXxs9hFvoyRIRq7rzhAG5IJs,"[u'electronics_store', u'store', u'point_of_interest', u'establishment']"
0,43.3923,5.2566,Gignac Rebuty,ChIJ49vEMkXoyRIRo51a-hVAtoc,"[u'point_of_interest', u'establishment']"
0,43.3952789,5.2537823,Langa Celine Aline Laetitia,ChIJSXHellvoyRIR-_KD4YZdjx8,"[u'point_of_interest', u'establishment']"
0,43.3955495,5.2509352,Garcia Respaud Maryse,ChIJ51OgRVzoyRIRCqiL5nA6elo,"[u'health', u'point_of_interest', u'establishment']"
0,43.3945476,5.2566959,Choy Marcel,ChIJ6322X1royRIRQbdeBuk5__o,"[u'point_of_interest', u'establishment']"
0,43.3953486,5.2558645,Pascual Alain,ChIJIcvRSFroyRIRW3XTU77s2R0,"[u'point_of_interest', u'establishment']"
0,43.396325,5.254509,"Crea' Center,",ChIJuy3PxFvoyRIRo3SbFXU8Sf0,"[u'point_of_interest', u'establishment']"
0,43.396325,5.254509,Yixin Baits,ChIJuy3PxFvoyRIRT8RpAaXFqco,"[u'point_of_interest', u'establishment']"
0,43.396325,5.254509,Boisson 13,ChIJuy3PxFvoyRIRdEB2W1rWlFU,"[u'liquor_store', u'food', u'store', u'point_of_interest', u'establishment']"
0,43.3951377,5.2476055,Marguerie Corinne,ChIJm-y2FWfoyRIRJcYwWylLLCU,"[u'point_of_interest', u'establishment']"
0,43.3956514,5.257765,Sarisymeonoglou Nicolas Bernard Luc Nicolas,ChIJR02tBFroyRIRwygR65bOyms,"[u'point_of_interest', u'establishment']"
0,43.3963708,5.2568147,Eurl Relgad,ChIJfX5QGFroyRIRDcrSWXab5tg,"[u'point_of_interest', u'establishment']"
0,43.3963708,5.2568147,Sci les Goelands,ChIJ81bVvVnoyRIRO2xMIQZZSmA,"[u'real_estate_agency', u'point_of_interest', u'establishment']"
0,43.3963708,5.2568147,Menuiserie Sahman,ChIJfX5QGFroyRIRsUCkb0oiFEQ,"[u'point_of_interest', u'establishment']"
0,43.3970857,5.2508032,Jean Louis Travaux Publics,ChIJN44IKFzoyRIReFdbVFCPuHk,"[u'general_contractor', u'point_of_interest', u'establishment']"
0,43.3958187,5.2478431,Delmas Yoann,ChIJy3BZiV3oyRIRJoflrG164hs,"[u'hardware_store', u'store', u'point_of_interest', u'establishment']"
0,43.3943702,5.2592818,Egb Sud Est Ghirardi,ChIJwf-xilDoyRIRX3TjVK-gw8U,"[u'general_contractor', u'point_of_interest', u'establishment']"
0,43.3965987,5.248408,Lozzi Daniele,ChIJSYX_5V3oyRIRtwbBzi6Envo,"[u'point_of_interest', u'establishment']"
0,43.396889,5.2569974,Kmga,ChIJc31q9lnoyRIRYNSCYpiu1vw,"[u'point_of_interest', u'establishment']"
0,43.3978207,5.2551689,Distriferm Provence,ChIJXaWddlnoyRIRYonkHFgOjfU,"[u'hardware_store', u'store', u'point_of_interest', u'establishment']"
0,43.3981929,5.2562618,A.C.A.M Transport Express,ChIJF1bVvVnoyRIRq89cZVl65P8,"[u'moving_company', u'point_of_interest', u'establishment']"
0,43.3981929,5.2562618,Sarl Sahman,ChIJ81bVvVnoyRIR9bxNtHRdsQU,"[u'furniture_store', u'home_goods_store', u'store', u'point_of_interest', u'establishment']"
0,43.3985887,5.2545842,Aquilina Daniel,ChIJ1TIuEFnoyRIRueUR9qnFzJA,"[u'point_of_interest', u'establishment']"
0,43.396769,5.245985,La Nerthe Pneus,ChIJfxRcN2foyRIRk8KLw4h8U-k,"[u'car_repair', u'point_of_interest', u'establishment']"
0,43.3967276,5.2455202,PB Concept,ChIJ84zqYL6NyRIRezDIWNkOhug,"[u'general_contractor', u'store', u'point_of_interest', u'establishment']"
0,43.398564,5.2576429,Poirier Eric,ChIJh8cb2lnoyRIR5Pakjbwptd4,"[u'point_of_interest', u'establishment']"
0,43.3830079,5.235769,Chapelle Saint-Michel,ChIJf5kiNg3oyRIRtClEUWUC0Gs,"[u'church', u'place_of_worship', u'point_of_interest', u'establishment']"
0,43.3864493,5.2358702,Massa Rull Mireille,ChIJy26YQnLoyRIRF-8k663AdEU,"[u'point_of_interest', u'establishment']"
0,43.3854886,5.2346003,Reinhart Véronique,ChIJOWsl_HLoyRIRLnUrzSLM5iU,"[u'roofing_contractor', u'point_of_interest', u'establishment']"
0,43.389741,5.235749,Mairie,ChIJNWm6uHHoyRIRfuYckDImlqg,"[u'point_of_interest', u'establishment']"
0,43.3876389,5.2407825,Vasseur Thierry Roger Johann,ChIJTZvdI2zoyRIRErTCtZPnsXw,"[u'point_of_interest', u'establishment']"
0,43.3874078,5.2399912,Amiche Majdid Malik,ChIJ22XlK2zoyRIRLwSHt0Vk5q0,"[u'point_of_interest', u'establishment']"
0,43.3879896,5.2414336,Bery Yohann Georges Jean-Paul,ChIJrZZ1pm7oyRIRrJ4xDtn49uo,"[u'furniture_store', u'home_goods_store', u'store', u'point_of_interest', u'establishment']"
0,43.388953,5.2415795,Vecker Amanda Nadege,ChIJ9cOwuW7oyRIRL2oUM0cjPWk,"[u'point_of_interest', u'establishment']"
0,43.388953,5.2415795,Authentik Clik,ChIJx4tVum7oyRIRFHXVS8yHPC8,"[u'point_of_interest', u'establishment']"
0,43.3881305,5.238853,Maret Didier,ChIJx8v6eW7oyRIRmtifk7RdiLs,"[u'painter', u'point_of_interest', u'establishment']"
0,43.3876152,5.2380238,Leone Olivier,ChIJUaGQ5W3oyRIRs2T9WJqBIRQ,"[u'furniture_store', u'home_goods_store', u'store', u'point_of_interest', u'establishment']"
0,43.3881367,5.2382121,Richard Marc,ChIJk2kQ4W3oyRIR7xR2ks5wEuM,"[u'point_of_interest', u'establishment']"
0,43.3864094,5.2352958,Diaz Simonne,ChIJ56LUWnLoyRIRcZ3G0Ifn0pI,"[u'point_of_interest', u'establishment']"
0,43.3854886,5.2346003,Vitraux D Art,ChIJOWsl_HLoyRIRGUCe-tiRXBU,"[u'point_of_interest', u'establishment']"
0,43.3889729,5.2378334,Hirles Michel,ChIJm1IIE27oyRIRW_IIyPqBy1U,"[u'store', u'point_of_interest', u'establishment']"
0,43.3852922,5.234233,Sci Consolin Contreras,ChIJNzVPA3PoyRIRp72rwd_VnbE,"[u'point_of_interest', u'establishment']"
0,43.3860343,5.2343781,SH & Vcm Magi Immobilier,ChIJ69Aaq3PoyRIRmdYIuBuA8V4,"[u'point_of_interest', u'establishment']"
0,43.3861601,5.2343678,Campanella Claude,ChIJ8-CQq3PoyRIRuRkanlm4eB4,"[u'point_of_interest', u'establishment']"
0,43.3882859,5.2361172,Sci Lafana Ste,ChIJ39K69XHoyRIRqNO7n8XcEVI,"[u'point_of_interest', u'establishment']"
0,43.3890057,5.236845,Brentini Alain Guy,ChIJawzD_HHoyRIRHOTPghZ2kEI,"[u'point_of_interest', u'establishment']"
0,43.3883763,5.2356576,Seghier Aissa,ChIJ45AGi3HoyRIRHfCrcLr8clo,"[u'point_of_interest', u'establishment']"
0,43.3859655,5.2332449,Pace Jeremy Mario Adolphe,ChIJCdkWoHPoyRIRQC50HlZ1qak,"[u'electrician', u'point_of_interest', u'establishment']"
0,43.3860118,5.2330715,Antombrandi Sylvain,ChIJxwu6n3PoyRIRL9RWK3OgrTg,"[u'point_of_interest', u'establishment']"
0,43.3852882,5.2327347,Transport Bernard l'Urgence,ChIJgzIwbnPoyRIRGnRCBmbBLGQ,"[u'point_of_interest', u'establishment']"
0,43.3905431,5.2378066,Borgognoni Gilbert,ChIJ6yGvM27oyRIRgaoYO3FB4OM,"[u'point_of_interest', u'establishment']"
0,43.3854946,5.2326231,Cortes Francois,ChIJY0kccXPoyRIRi_PZtXhXch8,"[u'clothing_store', u'store', u'point_of_interest', u'establishment']"
0,43.389741,5.235749,Hall Schools - Mother David Douillet,ChIJNWm6uHHoyRIRlNPy5TtJde0,"[u'school', u'point_of_interest', u'establishment']"
0,43.3893008,5.2346298,Cantine Du Groupe Viguière,ChIJNWm6uHHoyRIRzHQcRjyKVY0,"[u'school', u'point_of_interest', u'establishment']"
0,43.3892987,5.2346614,Groupe Scolaire David Douillet,ChIJ8wCKn3HoyRIRONY_m3RRhHs,"[u'school', u'premise', u'point_of_interest', u'establishment']"
0,43.379491,5.273767,La Vérune,ChIJ42TGgMnpyRIRIqEp5KH_1y8,"[u'premise', u'point_of_interest', u'establishment']"
0,43.376136,5.226526,Les Pielettes,ChIJ4XbEJAToyRIRN_3E1PR3mT4,"[u'lodging', u'point_of_interest', u'establishment']"
0,43.376438,5.2266,Les Pielettes,ChIJWcs0gOLnyRIRQyp-xkuNmSY,"[u'restaurant', u'cafe', u'food', u'point_of_interest', u'establishment']"
0,43.376553,5.226464,Arma Tech,ChIJJTAGiuPnyRIR2UIljgWsVnc,"[u'point_of_interest', u'establishment']"
0,43.376963,5.225624,Institut de beauté Jacqueline SGHIRLA Centre de formation,ChIJESS3ZuLnyRIRcrv0_tYbF9g,"[u'beauty_salon', u'spa', u'health', u'point_of_interest', u'establishment']"
0,43.3769549,5.225206,Climatisation PACA - Le Froid Mediterraneen,ChIJExmDhuPnyRIRh_Paszo5WWg,"[u'general_contractor', u'furniture_store', u'home_goods_store', u'store', u'point_of_interest', u'establishment']"
0,43.3776039,5.2249445,JPG MECA,ChIJiX-XRuLnyRIRszyuyHNLfcA,"[u'store', u'point_of_interest', u'establishment']"
0,43.3775985,5.2245676,LINK FRANCE,ChIJUaCJdeTnyRIRGcPSQXcP_-Y,"[u'point_of_interest', u'establishment']"
0,43.3762029,5.226577,Hôtel Les pielettes,ChIJx10gguLnyRIRBHFyJBpWGic,"[u'lodging', u'restaurant', u'food', u'point_of_interest', u'establishment']"
0,43.376553,5.226464,Contrôle Techniques Services,ChIJCTqQgOLnyRIR7pH3T-Ro9fM,"[u'point_of_interest', u'establishment']"
0,43.376553,5.226464,C.I.T.T (Compagnie Internationale de Transport et Transit),ChIJCTqQgOLnyRIRMTh9BU86erc,"[u'moving_company', u'point_of_interest', u'establishment']"
0,43.376553,5.226464,Societe Nouvelle Habitat Plus,ChIJleGPgOLnyRIRnePb7A4g4jk,"[u'point_of_interest', u'establishment']"
0,43.3799394,5.2281766,Quartier Roquebarbe,ChIJLU3lPgroyRIRvn8-_R5r2zQ,"[u'point_of_interest', u'establishment']"
0,43.353295,5.278427,L'Establon,ChIJC2aspXrCyRIRyVZaLXgKhPY,"[u'sublocality_level_1', u'sublocality', u'political']"
0,43.356222,5.2870449,Fondation Monticelli,ChIJTbjnOQrCyRIRDlSr4St_gKk,"[u'museum', u'point_of_interest', u'establishment']"
0,43.363113,5.286054,PROGECO,ChIJc8WYEt_pyRIRlRcQd9Y7Tl8,"[u'point_of_interest', u'establishment']"
0,43.3583265,5.291242,Nauti Services,ChIJgWr2VleYyRIRJsb6-3Ro1z8,"[u'point_of_interest', u'establishment']"
0,43.356129,5.284302,Carrière de l'Aiguillon,ChIJ44Bz4XPCyRIRwHRUdZ0tvV0,"[u'point_of_interest', u'establishment']"
0,43.357262,5.287257,13016,ChIJ36OChHTCyRIR4OGnMnJ4Gpw,"[u'parking', u'point_of_interest', u'establishment']"
0,43.35832,5.287754,MP BOAT,ChIJIxoD4tHAyRIRCdAmcI9VIeE,"[u'store', u'point_of_interest', u'establishment']"
0,43.358151,5.287931,Plage des Corbières,ChIJU6fO6nTCyRIR_CdSO1zKnyc,"[u'bus_station', u'transit_station', u'point_of_interest', u'establishment']"
0,43.357906,5.28803,13016,ChIJTcKKlXTCyRIRIgLRqdelVG4,"[u'parking', u'point_of_interest', u'establishment']"
0,43.3610091,5.2866144,Ecoles Elémentaires Publiques,ChIJ35FenHXCyRIRf60952Vm_dk,"[u'point_of_interest', u'establishment']"
0,43.362501,5.284276,Carrière du Vallon,ChIJt4yAUt_pyRIR_WrW-HM6UW4,"[u'point_of_interest', u'establishment']"
0,43.3574466,5.290146,L'estaque Plage,ChIJx9grRQvCyRIRH6vAdBb9chc,"[u'point_of_interest', u'establishment']"
0,43.3577542,5.2907367,Мой пляж до Марселя,ChIJ6cE9agvCyRIRVillR94aI24,"[u'park', u'point_of_interest', u'establishment']"
0,43.3584092,5.2911931,Corbières Port Services,ChIJFcjqEQvCyRIRqIMdkl_Ey-M,"[u'point_of_interest', u'establishment']"
0,43.3584092,5.2911931,Marine Côte Réparation,ChIJFcjqEQvCyRIR50NL41B1cmk,"[u'store', u'point_of_interest', u'establishment']"
0,43.391273,5.273706,E.G.F Electricité Générale Forasetto,ChIJfavNmArryRIRcxxjSDI-Qbc,"[u'electrician', u'point_of_interest', u'establishment']"
0,43.3881863,5.2313192,Bibliothèque,ChIJ-SwUBHHoyRIRdVDEeobxOQ4,"[u'library', u'point_of_interest', u'establishment']"
0,43.3879739,5.2293256,Post Office,ChIJWXgl6G3oyRIRL32KsABupFA,"[u'post_office', u'finance', u'point_of_interest', u'establishment']"
0,43.387018,5.231315,Consultimmo,ChIJsYNncnToyRIR0eWcIC2_H2Q,"[u'finance', u'point_of_interest', u'establishment']"
0,43.387038,5.2261879,Eurl la Nerthe-immobilier,ChIJVWj9ZN_nyRIRtJq6lflxr5o,"[u'real_estate_agency', u'point_of_interest', u'establishment']"
0,43.3889411,5.2280619,Middle School Le Petit Prince,ChIJN7IDzXfoyRIRRmigTK-3DWk,"[u'school', u'point_of_interest', u'establishment']"
0,43.3883471,5.2294902,Laboratoire de biologie médicale ANALYS,ChIJb3zSLnToyRIRXV-PVpO5sgQ,"[u'health', u'point_of_interest', u'establishment']"
0,43.3907047,5.2358129,Somatic,ChIJI-NiNXDoyRIRQu5k_Wcpdgo,"[u'point_of_interest', u'establishment']"
0,43.391022,5.233258,Sud aspiration,ChIJc0dp4XDoyRIRxjKo2an4ilw,"[u'home_goods_store', u'store', u'point_of_interest', u'establishment']"
0,43.3823202,5.2242288,Aiko.fr Lingerie&Mode,ChIJl_5iWeDnyRIRMYiLuOlstq8,"[u'clothing_store', u'store', u'point_of_interest', u'establishment']"
0,43.3913231,5.2339617,Best off-road,ChIJHR1w-3DoyRIR-7CcpZTOtII,"[u'point_of_interest', u'establishment']"
0,43.3898073,5.228165,Riportella Christian,ChIJzVF0anboyRIR3d9-ywCptcI,"[u'point_of_interest', u'establishment']"
0,43.3841189,5.223705,Coaching Patricia CASTANET,ChIJhdBJqVTHyRIRMPPQpfbpJAo,"[u'point_of_interest', u'establishment']"
0,43.3918911,5.2349212,Crédit Agricole Alpes Provence,ChIJffGBCnDoyRIREcb2w9TCqNQ,"[u'bank', u'finance', u'point_of_interest', u'establishment']"
0,43.3868186,5.2236074,au jardin fleuri,ChIJWT0ijDzmyRIRqpwajTJstr4,"[u'florist', u'store', u'point_of_interest', u'establishment']"
0,43.3846297,5.2230647,Serge Marie DOEBEL,ChIJgX2VAf7ByRIRlZdetf50zT8,"[u'point_of_interest', u'establishment']"
0,43.3923685,5.2351756,Glagly,ChIJwRWwb3DoyRIR4K0T1rawLO0,"[u'clothing_store', u'store', u'point_of_interest', u'establishment']"
0,43.3889599,5.2292334,Launay Stéphane,ChIJVWuf_3foyRIRKgxCN7FGmIw,"[u'furniture_store', u'home_goods_store', u'store', u'point_of_interest', u'establishment']"
0,43.3870558,5.2237349,Sociéte générale,ChIJdY55497nyRIRKmWVnBbHLBc,"[u'bank', u'finance', u'point_of_interest', u'establishment']"
0,43.384064,5.230738,Transports Daures,ChIJsxNVtnToyRIReedYbpX2pwE,"[u'moving_company', u'point_of_interest', u'establishment']"
0,43.3861901,5.232162,Soussi Samy,ChIJJXvwg3PoyRIRZ3MNhsE7Uw4,"[u'point_of_interest', u'establishment']"
0,43.3861952,5.2321587,Olivano Bernard,ChIJ-7T2g3PoyRIRBrOFl-wCL7s,"[u'furniture_store', u'home_goods_store', u'store', u'point_of_interest', u'establishment']"
0,43.386718,5.2324189,Cano René,ChIJg35vjnPoyRIREnPsIgIBCro,"[u'electrician', u'point_of_interest', u'establishment']"
0,43.3866735,5.2318075,Rodriguez Jessyca,ChIJp_c9iHPoyRIRLYsKKnyXYgo,"[u'point_of_interest', u'establishment']"
0,43.3875679,5.232679,D.s.e,ChIJlZaO7nPoyRIRUwAFd4Qdq7g,"[u'point_of_interest', u'establishment']"
0,43.3875679,5.232679,Bladis,ChIJlZaO7nPoyRIRFKWJyyr1gCw,"[u'grocery_or_supermarket', u'food', u'store', u'point_of_interest', u'establishment']"
0,43.3858117,5.2296786,Glonin Pierre,ChIJ93X4-3ToyRIR18JhBqJZEcM,"[u'point_of_interest', u'establishment']"
0,43.3858117,5.2296786,Nardo Valdo Alain,ChIJ93X4-3ToyRIRe8TO4K9ZEGI,"[u'food', u'point_of_interest', u'establishment']"
0,43.3858117,5.2296786,Sejalon Nathalie,ChIJ93X4-3ToyRIRziJcKyozAyM,"[u'health', u'point_of_interest', u'establishment']"
0,43.388722,5.2335668,Reant Pierre,ChIJWcYOZHHoyRIRsUsP1byAyZA,"[u'electrician', u'point_of_interest', u'establishment']"
0,43.3886909,5.2331106,Heranval Francois,ChIJ1dMIZHHoyRIRElzDY66Hrt4,"[u'point_of_interest', u'establishment']"
0,43.3886812,5.232839,Allarousse Pierre Emmanuel,ChIJFRLxW3HoyRIRusgBHSQhgUY,"[u'point_of_interest', u'establishment']"
0,43.3872159,5.2294602,Boulangerie de Marie Blachère,ChIJ85SO7nPoyRIRGbOz7hSC96w,"[u'bakery', u'restaurant', u'food', u'store', u'point_of_interest', u'establishment']"
0,43.3890786,5.2335586,Bonnard Antoine,ChIJayJJaXHoyRIRwgxHFznzJQg,"[u'point_of_interest', u'establishment']"
0,43.3890345,5.2330846,Girard Emmanuel,ChIJ4-6kQnHoyRIRPPgLJkbOtt0,"[u'point_of_interest', u'establishment']"
0,43.3851048,5.2270566,Reinhart Tony,ChIJFx3EYHXoyRIRlrYscxdfwEs,"[u'store', u'point_of_interest', u'establishment']"
0,43.378252,5.285905,unnamed,ChIJiaupG8HpyRIRGSz4mwMtIqE,"[u'point_of_interest', u'establishment']"
