,Latitude,Longitude,Name,Place_id,Type
0,43.521487,5.512822,Le Tholonet,ChIJTWEEQjaOyRIR-c-wm2pWcE8,"[u'locality', u'political']"
0,43.522035,5.501665,Les Lodges Sainte Victoire,ChIJS2uOXjaOyRIRp-qfZ8860Fc,"[u'lodging', u'point_of_interest', u'establishment']"
0,43.522734,5.512583,Cemagref,ChIJwbTMRzaOyRIRQHuqwt2BzlM,"[u'point_of_interest', u'establishment']"
0,43.520088,5.508978,Société du Canal de Provence - Comptoir du matériel,ChIJl4l_JD-OyRIRqhZc3ctgc2E,"[u'general_contractor', u'store', u'point_of_interest', u'establishment']"
0,43.521073,5.511187,Chez thomé,ChIJSzn22jCOyRIRJlWjASN5VCs,"[u'restaurant', u'bar', u'food', u'point_of_interest', u'establishment']"
0,43.521581,5.511696,Le Relais Cezanne,ChIJTyD_ShSOyRIR0nEmrGVpWvM,"[u'restaurant', u'bar', u'food', u'point_of_interest', u'establishment']"
0,43.521897,5.511195,La Bastide la Croix,ChIJH6LUpzeOyRIRS7ztojhz7tY,"[u'point_of_interest', u'establishment']"
0,43.524283,5.509332,Société du Canal de Provence (SCP),ChIJ6cdNITiOyRIRFQi4R5nqxP8,"[u'general_contractor', u'point_of_interest', u'establishment']"
0,43.521684,5.512302,Mairie du Tholonet,ChIJRdSdZBGOyRIR3OseD_t9xlk,"[u'city_hall', u'local_government_office', u'point_of_interest', u'establishment']"
0,43.5169631,5.502513,Cesi,ChIJyzfs8zyOyRIRJPnrSWF7Lsw,"[u'point_of_interest', u'establishment']"
0,43.5169631,5.502513,Eco-Emballages - Région Sud-Est,ChIJyzfs8zyOyRIRMuBTgJ8LlNM,"[u'point_of_interest', u'establishment']"
0,43.520104,5.5089676,Comptoir du matériel - SCP,ChIJwxFF4zmOyRIRMQfQ6WNkEBI,"[u'point_of_interest', u'establishment']"
0,43.5227477,5.5125339,Irstea,ChIJ2zRCpDWOyRIRVsPlV9fNMMw,"[u'point_of_interest', u'establishment']"
0,43.52196,5.51132,Netafim France,ChIJ0U7TpzeOyRIRFDRa5jif6DM,"[u'point_of_interest', u'establishment']"
0,43.5183994,5.5045395,Tennis Club du Tholonet,ChIJLRYUjTuOyRIRqbgaZu7YAng,"[u'point_of_interest', u'establishment']"
0,43.5169631,5.502513,Association Bâtiments Durables Méditerranéens,ChIJyzfs8zyOyRIRyWKd9eFQ7Aw,"[u'point_of_interest', u'establishment']"
0,43.52196,5.51132,La Jardinière,ChIJ0U7TpzeOyRIR4LSqsMNYwlM,"[u'grocery_or_supermarket', u'food', u'store', u'point_of_interest', u'establishment']"
0,43.5225887,5.5030185,Ortec Meca,ChIJl4l_JD-OyRIR-RxoecDzxlQ,"[u'point_of_interest', u'establishment']"
0,43.52196,5.51132,Comasud,ChIJ0U7TpzeOyRIRA0Ws391bz90,"[u'store', u'point_of_interest', u'establishment']"
0,43.518236,5.508711,Les Pins,ChIJCVnFcjqOyRIRrTHRX9lbx9g,"[u'sublocality_level_1', u'sublocality', u'political']"
0,43.486821,5.495122,Meyreuil,ChIJtX1x-r-RyRIRS7vw_1rOjWI,"[u'locality', u'political']"
0,43.504,5.5098,Station B.a.c.a Sarl,ChIJ6f9b8teRyRIRJ9t1vtM-EGU,"[u'point_of_interest', u'establishment']"
0,43.5030379,5.5081634,EUROSTEO,ChIJgXG8NtiRyRIR5Q_lDXzlaDY,"[u'point_of_interest', u'establishment']"
0,43.509453,5.502407,Dégriff'Stock,ChIJ7SRfqh6OyRIREHcYOnO3nes,"[u'clothing_store', u'store', u'point_of_interest', u'establishment']"
0,43.50936,5.49762,Lidl,ChIJZ2CqQR-OyRIRORFFic2bA6M,"[u'grocery_or_supermarket', u'food', u'store', u'point_of_interest', u'establishment']"
0,43.512783,5.512172,Château Crémade,ChIJ92nnTS6OyRIRAnnyw6tj6uU,"[u'food', u'point_of_interest', u'establishment']"
0,43.508582,5.5020959,MDA Electroménager,ChIJcQeWDumSyRIRdSDO2Pnjrm0,"[u'home_goods_store', u'store', u'point_of_interest', u'establishment']"
0,43.5082012,5.498818,Fitnessboutique Aix-en-Provence,ChIJYYGaNxyOyRIRgeoMEo7-DAw,"[u'store', u'point_of_interest', u'establishment']"
0,43.511355,5.511086,Latina Way,ChIJY4Hg7dWPyRIRRSyCXpl3lx8,"[u'point_of_interest', u'establishment']"
0,43.5082012,5.498818,Bose Palette - Aix-en-Provence (ASC Multimédia),ChIJCSXCfx-OyRIRZuHkwZQlwek,"[u'electronics_store', u'home_goods_store', u'store', u'point_of_interest', u'establishment']"
0,43.513482,5.503968,772424.com - Hébergement e-commerce Prestashop / Magento,ChIJJWPdYSOOyRIRhN1CnroXH6I,"[u'point_of_interest', u'establishment']"
0,43.5071207,5.5122466,Marketing Création,ChIJfwBxCCmOyRIRKX--c7V0cEk,"[u'point_of_interest', u'establishment']"
0,43.509623,5.504558,Le service pose,ChIJHdugryaOyRIRn62qnO68Pjg,"[u'point_of_interest', u'establishment']"
0,43.5078951,5.4999411,L' Escalier Bois,ChIJm3ngyiGOyRIRiqMmHLUrdNU,"[u'point_of_interest', u'establishment']"
0,43.5082012,5.498818,CG Expert,ChIJXxlI-eSNyRIR-cb6XQjfPyI,"[u'real_estate_agency', u'point_of_interest', u'establishment']"
0,43.503898,5.509584,Station-service TOTAL,ChIJWytf89eRyRIRR5qa2QPR-M8,"[u'car_repair', u'point_of_interest', u'establishment']"
0,43.5082173,5.4988378,Cellarium,ChIJKee51SGOyRIRHAe-dUUjEM4,"[u'food', u'store', u'point_of_interest', u'establishment']"
0,43.529742,5.447427,Aix-en-Provence,ChIJWRK5BKONyRIRo4i2yL5TuVw,"[u'locality', u'political']"
0,43.5312179,5.5008136,Carrières de Bibémus,ChIJT5sHUEKOyRIRbNXQbVzlTmc,"[u'point_of_interest', u'establishment']"
0,43.53391,5.509239,TANCREDE MATTHIEU - CHIROPRATICIEN,ChIJJyZMPaSNyRIRcXV-8_gT-60,"[u'health', u'point_of_interest', u'establishment']"
0,43.5313059,5.4998052,Parking Bibemus,ChIJJ7weZkKOyRIRo8qU70LqM54,"[u'parking', u'point_of_interest', u'establishment']"
0,43.5338335,5.509247,Motimage Sarl,ChIJy2XQUxeNyRIRM0-yLaS5iNw,"[u'health', u'point_of_interest', u'establishment']"
0,43.526101,5.504341,La Cause Toiture,ChIJU1F8MUeOyRIReCzzX_8LPz4,"[u'roofing_contractor', u'point_of_interest', u'establishment']"
0,43.5323,5.51137,Café Wango,ChIJ71Agt0-OyRIROlvKapw1dkk,"[u'bar', u'point_of_interest', u'establishment']"
0,43.5338335,5.509247,Darjeeling,ChIJq6qqqlqOyRIRFijA_knATFw,"[u'clothing_store', u'store', u'point_of_interest', u'establishment']"
0,43.5338335,5.509247,Carré d'Artistes,ChIJT5A0LeuNyRIROvrXqYApqtA,"[u'art_gallery', u'point_of_interest', u'establishment']"
0,43.5338335,5.509247,Home Life Design,ChIJq6qqqlqOyRIR9H6A6vFn8mo,"[u'home_goods_store', u'store', u'point_of_interest', u'establishment']"
0,43.522794,5.509251,Grand Site Sainte Victoire - Kiosque d'information,ChIJR4TxrjeOyRIRzIgKYp4KPr0,"[u'travel_agency', u'point_of_interest', u'establishment']"
0,43.5223834,5.5144474,Moulin Cézanne,ChIJWTUA2TWOyRIRjXLrIpLuNvU,"[u'art_gallery', u'point_of_interest', u'establishment']"
0,43.5223753,5.5166716,Sci la Havane Crosnier Mangeat,ChIJrTVCpDWOyRIRPoUqzzLt1lU,"[u'point_of_interest', u'establishment']"
0,43.5219715,5.5200425,Le Tholonaix,ChIJyWHkzcqPyRIR0rzXSA5JGP0,"[u'point_of_interest', u'establishment']"
0,43.5219715,5.5200425,SAS du Tholonet Hôtel et Spa,ChIJyWHkzcqPyRIRn-u4n3ravJ0,"[u'point_of_interest', u'establishment']"
0,43.52196,5.51132,Bobinage Aixois,ChIJ0U7TpzeOyRIRywDXhvjUqKU,"[u'point_of_interest', u'establishment']"
0,43.521487,5.5128221,Firehead,ChIJjSJs4DiOyRIRE9oPEDrj7Ts,"[u'point_of_interest', u'establishment']"
0,43.5186459,5.511374,CS La Plantation,ChIJSzn22jCOyRIRZVeQzWJTDfM,"[u'point_of_interest', u'establishment']"
0,43.5114189,5.546729,Beaurecueil,ChIJaQQRqe2PyRIR0ASX_aUZCAQ,"[u'locality', u'political']"
0,43.5135032,5.4943129,Centre Aéré l'Arc en Ciel,ChIJRdSdZBGOyRIRu2mgNhV4Ly8,"[u'point_of_interest', u'establishment']"
0,43.5204052,5.5003707,Monville Denis,ChIJ2QdOcj6OyRIRFXtXDuy620Y,"[u'furniture_store', u'home_goods_store', u'store', u'point_of_interest', u'establishment']"
0,43.521956,5.501404,Le St Estéve,ChIJ8cBQ_z6OyRIRZS4YDCnO8cc,"[u'restaurant', u'lodging', u'food', u'point_of_interest', u'establishment']"
0,43.5170291,5.5024287,Direct Fleet,ChIJyzfs8zyOyRIRolOZEEGpc_E,"[u'point_of_interest', u'establishment']"
0,43.5170291,5.5024287,Areva Stockage d'Energie,ChIJyzfs8zyOyRIRAiZPIdAEHtI,"[u'point_of_interest', u'establishment']"
0,43.5170291,5.5024287,Alcina Forêts,ChIJyzfs8zyOyRIRGMZOSZwHsEM,"[u'point_of_interest', u'establishment']"
0,43.5169631,5.502513,Alumni Entreprendre Provence,ChIJyzfs8zyOyRIRPez5l9mXS5Q,"[u'point_of_interest', u'establishment']"
0,43.5169631,5.502513,I.n.e.r.i.s,ChIJyzfs8zyOyRIRJ7oK47JvznE,"[u'point_of_interest', u'establishment']"
0,43.5199853,5.4916486,Mairie,ChIJRdSdZBGOyRIRAQL2Ihp1maY,"[u'city_hall', u'local_government_office', u'point_of_interest', u'establishment']"
0,43.5199853,5.4916486,Auto-maitrise,ChIJRdSdZBGOyRIRME8FHYrPfJA,"[u'point_of_interest', u'establishment']"
0,43.5199853,5.4916486,Primary School,ChIJRdSdZBGOyRIRM_MXWM7jEAw,"[u'school', u'point_of_interest', u'establishment']"
0,43.509655,5.524729,Château Henri Bonnaud,ChIJdckBFdqPyRIRMAOcfdtAssY,"[u'food', u'point_of_interest', u'establishment']"
0,43.5041984,5.5215615,LC Organisation,ChIJRyddmyqQyRIRilBNed_jm0E,"[u'point_of_interest', u'establishment']"
0,43.502705,5.514632,Groupagef,ChIJs8N41tWRyRIR4mIuWBha0J4,"[u'general_contractor', u'point_of_interest', u'establishment']"
0,43.5086287,5.5147866,La Dibona,ChIJ646lEiyOyRIRN1P-pj5EsOk,"[u'lodging', u'point_of_interest', u'establishment']"
0,43.501958,5.517389,Location villa sur Aix en provence,ChIJV_FM-dSRyRIRaul9tsr6NCs,"[u'travel_agency', u'real_estate_agency', u'lodging', u'point_of_interest', u'establishment']"
0,43.501982,5.517486,Stéphane Dagatti Webmaster,ChIJH1cP_NSRyRIRdXDiQk_9ShA,"[u'point_of_interest', u'establishment']"
0,43.5091589,5.529196,Ecurie Calcus,ChIJq0IatNCPyRIRnh-VJNuavxk,"[u'point_of_interest', u'establishment']"
0,43.510165,5.5157619,Calimar,ChIJ646lEiyOyRIRqGVlTrR6UyY,"[u'point_of_interest', u'establishment']"
0,43.5101869,5.5156416,Brugnans Claude,ChIJ646lEiyOyRIRumxca5f9tcQ,"[u'grocery_or_supermarket', u'food', u'store', u'point_of_interest', u'establishment']"
0,43.5101869,5.5156416,Euphrasie Volle Marie,ChIJ646lEiyOyRIROosTQuR0q1A,"[u'health', u'point_of_interest', u'establishment']"
0,43.5124655,5.5129693,De Monte-Gilbert Géraldine,ChIJf9VaGy-OyRIRMn-_PlrnJxY,"[u'health', u'point_of_interest', u'establishment']"
0,43.5093985,5.5227093,Dioum Sidy,ChIJBaYtD9qPyRIRBJWwiRgJHuY,"[u'car_repair', u'point_of_interest', u'establishment']"
0,43.5114982,5.5115016,Morlière Hélène,ChIJf9VaGy-OyRIRsc5R0gOYKaQ,"[u'doctor', u'health', u'point_of_interest', u'establishment']"
0,43.5103949,5.488692,Le Comptoir de Seb,ChIJrSpyrhyOyRIRI4lKzKJAyjM,"[u'restaurant', u'bar', u'food', u'point_of_interest', u'establishment']"
0,43.50954,5.4899722,Le Cabanon,ChIJbVcaRxyOyRIRy3vS0rnedf0,"[u'restaurant', u'food', u'point_of_interest', u'establishment']"
0,43.5103949,5.488692,COURT'IMMO,ChIJrSpyrhyOyRIR1Kf1XZOIw00,"[u'finance', u'point_of_interest', u'establishment']"
0,43.505089,5.493895,Château Simone,ChIJ7-vE8OGRyRIRJGyC45aMxFc,"[u'food', u'point_of_interest', u'establishment']"
0,43.511561,5.48776,Toocamp,ChIJrSpyrhyOyRIRLtTavLUskYY,"[u'point_of_interest', u'establishment']"
0,43.50912,5.491451,Aix Store Palette,ChIJHyQQEASOyRIRG7fGhMN1hC8,"[u'store', u'point_of_interest', u'establishment']"
0,43.508294,5.495645,Pâtisserie Leroy Création,ChIJQzAUWxyOyRIRUuBYmP2ae-M,"[u'bakery', u'food', u'store', u'point_of_interest', u'establishment']"
0,43.508036,5.493636,Armes & Histoire,ChIJj_kFfx6OyRIRrPL2RJGLPo4,"[u'clothing_store', u'store', u'point_of_interest', u'establishment']"
0,43.509151,5.491107,Thiriet,ChIJE1oSYwSOyRIR5C92NBlhKF0,"[u'food', u'store', u'point_of_interest', u'establishment']"
0,43.5090362,5.491406,L'Atelier du Pain et Compagnie,ChIJQzAUWxyOyRIRq6uahXTj-Lw,"[u'bakery', u'food', u'store', u'point_of_interest', u'establishment']"
0,43.50929,5.4922763,Place de Palette - Le Tholonet,ChIJvSD5XxyOyRIRmYMQaqXO-0w,"[u'point_of_interest', u'establishment']"
0,43.5219715,5.5200425,Aix'elec,ChIJyWHkzcqPyRIRynRjngUP8SQ,"[u'electrician', u'point_of_interest', u'establishment']"
0,43.5226997,5.5205954,Albisser Yves,ChIJrTVCpDWOyRIRs2i8AvlPKw8,"[u'point_of_interest', u'establishment']"
0,43.5193182,5.5336976,Massages du Monde - Laurence Belle,ChIJBa0Ak8aPyRIRXpuROlwxBMs,"[u'health', u'point_of_interest', u'establishment']"
0,43.5223022,5.5166814,Botella Julien,ChIJrTVCpDWOyRIRJAakUWxG5fI,"[u'point_of_interest', u'establishment']"
0,43.520598,5.515005,Villa Tiphéret,ChIJXaB0IzSOyRIR7fKtdnEOqOM,"[u'lodging', u'point_of_interest', u'establishment']"
0,43.511821,5.531194,Lagorce Jean Pierre,ChIJHc37kdqPyRIRPuiGNwvHA3c,"[u'point_of_interest', u'establishment']"
0,43.5207763,5.5142713,Brasseur Hervé,ChIJZbs4nDaOyRIRKRLYZ6Rnh6s,"[u'point_of_interest', u'establishment']"
0,43.514446,5.489387,Laetitia Landreau HOME ORGANISER,ChIJ2ZpwvxqOyRIRv9u3mEA8f9A,"[u'point_of_interest', u'establishment']"
0,43.51373,5.492164,Aix a Part,ChIJQ2OZXjaOyRIRHm8080ItI3s,"[u'real_estate_agency', u'point_of_interest', u'establishment']"
0,43.51182,5.487813,G-SYS,ChIJCVmgKsaRyRIRSkdzsFJpqVA,"[u'point_of_interest', u'establishment']"
0,43.512214,5.488411,Act Pro,ChIJc9X9NBuOyRIRWzPd-csrY3M,"[u'point_of_interest', u'establishment']"
0,43.511961,5.487689,Résidence étudiante Odalys Campus - Le Tholonet,ChIJWVjvuQSOyRIRR2yo2e8SRTY,"[u'lodging', u'point_of_interest', u'establishment']"
0,43.512186,5.487239,Appart'hôtel Odalys Campus le Tholonet,ChIJ50RjjASOyRIRtzzkt9NudrI,"[u'lodging', u'point_of_interest', u'establishment']"
0,43.511805,5.487804,La Jonchère Patrimoine,ChIJAc_o16GSyRIRCFX11FCvYAE,"[u'insurance_agency', u'finance', u'point_of_interest', u'establishment']"
0,43.512175,5.484806,L'Autre Cave,ChIJb6fOaQSOyRIRU_I_7oq3JvQ,"[u'liquor_store', u'food', u'store', u'point_of_interest', u'establishment']"
0,43.511585,5.487795,Avocat Sonia MORENO,ChIJXwrlmDvtyRIRJ6mhaKpRXCs,"[u'lawyer', u'point_of_interest', u'establishment']"
0,43.5120582,5.4857022,Dentiste Vincent CHOQUET,ChIJG2ckk5eNyRIRahA1iI5WJCc,"[u'dentist', u'health', u'point_of_interest', u'establishment']"
0,43.511746,5.487244,"SELARL ANDREANI-HUMBERT, Avocats à la Cour",ChIJZ7yKQL6NyRIRWPeB_jom-pw,"[u'point_of_interest', u'establishment']"
0,43.506545,5.532927,Haras de la sainte victoire,ChIJnX6sY9aPyRIRPrwP7KjH_xQ,"[u'point_of_interest', u'establishment']"
0,43.5083131,5.5350728,Jules SAS,ChIJ1WC1VtmPyRIR1RHEq8fgck4,"[u'point_of_interest', u'establishment']"
0,43.5092428,5.5291513,Duby Andree,ChIJq0IatNCPyRIR-S0R11RdxY4,"[u'point_of_interest', u'establishment']"
0,43.5092428,5.5291513,Eurl Tae,ChIJq0IatNCPyRIRjWC929gyS3I,"[u'point_of_interest', u'establishment']"
0,43.5092428,5.5291513,Lagier Michel,ChIJq0IatNCPyRIRJndswsDirQA,"[u'food', u'point_of_interest', u'establishment']"
0,43.5091589,5.529196,Global Jump,ChIJq0IatNCPyRIRU0ekCGUuA-w,"[u'point_of_interest', u'establishment']"
0,43.5099137,5.5313387,Earl De Pecout,ChIJdckBFdqPyRIRAzlgmLEkHGg,"[u'food', u'point_of_interest', u'establishment']"
0,43.511214,5.532675,Blandine Thoulon - La Sierra,ChIJC8qto9uPyRIRJc2dnP4Y1KI,"[u'health', u'point_of_interest', u'establishment']"
0,43.5111742,5.5339197,Sci Andurand,ChIJBx44CtuPyRIRxo4fQF7QFs0,"[u'point_of_interest', u'establishment']"
0,43.5048063,5.5263897,Halstead Martin,ChIJy6HJItaPyRIRNsxO4P9u39U,"[u'point_of_interest', u'establishment']"
0,43.5048063,5.5263897,Dagatti Stephane,ChIJy6HJItaPyRIRFX9fEHzZlJY,"[u'point_of_interest', u'establishment']"
0,43.5048063,5.5263897,Di Fraja Bruchet Marie Francoise,ChIJy6HJItaPyRIRq1KuRBh_gnE,"[u'point_of_interest', u'establishment']"
0,43.5108792,5.4878948,Ecole du massage du Pays d'Aix,ChIJrSpyrhyOyRIRKkWvwtBuYTc,"[u'point_of_interest', u'establishment']"
0,43.509006,5.479925,Villa Valbelle,ChIJwX7ncIiNyRIRptU8YAXhYyg,"[u'lodging', u'point_of_interest', u'establishment']"
0,43.5109242,5.487051,B&B Hôtel Aix-en-Provence Le Tholonet,ChIJ-acUowSOyRIRgZPPXII6olc,"[u'lodging', u'point_of_interest', u'establishment']"
0,43.5121021,5.4843614,La Palette de Perles,ChIJ0U7TpzeOyRIRzyTXSZGE7No,"[u'department_store', u'store', u'point_of_interest', u'establishment']"
0,43.5108792,5.4878949,Centre Georges Duby,ChIJQzAUWxyOyRIR0zKpPO9UXxA,"[u'point_of_interest', u'establishment']"
0,43.5121254,5.4845888,SII Aix,ChIJz06rPwSOyRIRBtC79GBae40,"[u'point_of_interest', u'establishment']"
0,43.5300425,5.5381057,Réserve Naturelle de Sainte-Victoire,ChIJubAx-JePyRIRBs3GVCNhrtY,"[u'park', u'point_of_interest', u'establishment']"
0,43.547599,5.523524,Saint-Marc-Jaumegarde,ChIJSS2FYfiOyRIRY0G3rc559SM,"[u'locality', u'political']"
