,Latitude,Longitude,Name,Place_id,Type
0,43.832349,4.782098,Maillane,ChIJy6XaOzvmtRIRkboPmypRras,"[u'locality', u'political']"
0,43.8188116,4.7867802,Stade Maillanais,ChIJRz2ZyEPmtRIR4-S4E-t3SCU,"[u'point_of_interest', u'establishment']"
0,43.8188379,4.786661,Mairie,ChIJRz2ZyEPmtRIRuN5ummb1vvk,"[u'point_of_interest', u'establishment']"
0,43.822539,4.79241,Crouzet David,ChIJ14RO_WrmtRIRKFOVgGCMkV8,"[u'food', u'point_of_interest', u'establishment']"
0,43.8298276,4.781152,Menuiserie Dagon,ChIJJyEzJDrmtRIRU2aS_N_eUTI,"[u'furniture_store', u'home_goods_store', u'store', u'point_of_interest', u'establishment']"
0,43.831335,4.782403,Restaurant L'Oustalet Maianen,ChIJYfIYrjvmtRIRc7QSGbmel0Q,"[u'restaurant', u'food', u'point_of_interest', u'establishment']"
0,43.8314126,4.7827154,Musée Frédéric Mistral,ChIJA0kttzvmtRIRMb111pyoOL0,"[u'point_of_interest', u'establishment']"
0,43.8264669,4.7732655,Société Pipeline Méditerranée Rhône,ChIJo4v6wDXmtRIRUQxWj5RUMSc,"[u'point_of_interest', u'establishment']"
0,43.8317437,4.7825037,Mairie,ChIJdxZzqTvmtRIRvaxiF5nl02U,"[u'city_hall', u'local_government_office', u'point_of_interest', u'establishment']"
0,43.820783,4.780612,Alexandre Le Danvic,ChIJib3teUDktRIR-FvIuYk-WPA,"[u'painter', u'point_of_interest', u'establishment']"
0,43.8188116,4.7867802,S.n.d.g,ChIJRz2ZyEPmtRIRBz8rj7FD1Po,"[u'point_of_interest', u'establishment']"
0,43.8188116,4.7867802,Sarl Riousset,ChIJRz2ZyEPmtRIRQ2JYVSFbnuM,"[u'food', u'point_of_interest', u'establishment']"
0,43.8188116,4.7867802,Yvan Christian Marie Pierre,ChIJRz2ZyEPmtRIRdKGub6HL0H4,"[u'point_of_interest', u'establishment']"
0,43.8188116,4.7867802,Gaffet Olivier,ChIJRz2ZyEPmtRIRPNYACYaXjWM,"[u'plumber', u'point_of_interest', u'establishment']"
0,43.8188116,4.7867802,Merlos David Andre,ChIJRz2ZyEPmtRIRFgRF71qd-k4,"[u'point_of_interest', u'establishment']"
0,43.823814,4.792463,Le Mas de Mouret,ChIJi9Xh12rmtRIRwDIF_LKMw3o,"[u'lodging', u'point_of_interest', u'establishment']"
0,43.829109,4.780533,chambres d'hotes belleviste,ChIJn5A88jnmtRIRSMLqmqWz8Cc,"[u'lodging', u'point_of_interest', u'establishment']"
0,43.830722,4.7861713,Tornier Chavenon Virginie Corinne,ChIJHQMCQTzmtRIRooAZ_9ie3U4,"[u'point_of_interest', u'establishment']"
0,43.8310236,4.7824737,Hoirie Cyprien Simian,ChIJ7R1qzzvmtRIR8Lpco72QCCQ,"[u'point_of_interest', u'establishment']"
0,43.829926,4.7778524,Voinier Marc,ChIJLTxuzDDmtRIRr7JgF5HbY_M,"[u'electronics_store', u'store', u'point_of_interest', u'establishment']"
0,43.788652,4.831343,Saint-Rémy-de-Provence,ChIJ80hgrDHktRIR3XcOUlvR8rU,"[u'locality', u'political']"
0,43.8077771,4.7872354,Manade Caillan,ChIJt1LFqV_mtRIRGkTmeHKXHT0,"[u'point_of_interest', u'establishment']"
0,43.8340398,4.7804677,Mas à l’Improviste,ChIJqy9MsTrmtRIRFR_ua0NCEF4,"[u'lodging', u'point_of_interest', u'establishment']"
0,43.8321668,4.7817657,Mairie,ChIJ6fF6qTvmtRIRaCeyxl5QJ5Q,"[u'city_hall', u'local_government_office', u'point_of_interest', u'establishment']"
0,43.8334871,4.7824061,La Casa Pizza,ChIJAQF2HDvmtRIR-epiJCiNMfA,"[u'restaurant', u'food', u'point_of_interest', u'establishment']"
0,43.8323297,4.782266,Le Bureau D Adresses,ChIJ-7-0AzvmtRIRUmnw0nGVHBI,"[u'real_estate_agency', u'point_of_interest', u'establishment']"
0,43.832112,4.7791651,School Frédéric Mistral,ChIJ9UTKfTDmtRIRGombtMtFYHM,"[u'school', u'point_of_interest', u'establishment']"
0,43.8325528,4.782607,Pharmacie de Maillane,ChIJZ7mVEjvmtRIRRWkcJsnUA74,"[u'pharmacy', u'health', u'store', u'point_of_interest', u'establishment']"
0,43.834234,4.78062,Le platane,ChIJhTaGvjrmtRIR5YN2vuJ86w8,"[u'lodging', u'point_of_interest', u'establishment']"
0,43.8333793,4.7856376,Betech SARL,ChIJu819UiPmtRIRSV_wrXEwEHQ,"[u'general_contractor', u'point_of_interest', u'establishment']"
0,43.8326356,4.7786503,Clé Tech,ChIJmzACYjDmtRIRMZp9CyZNO7c,"[u'point_of_interest', u'establishment']"
0,43.831397,4.778557,EURL Heurtaux Thomas Electricité Générale,ChIJVZMAjDDmtRIRStjosCcLhD0,"[u'electrician', u'point_of_interest', u'establishment']"
0,43.832248,4.784948,Makars Nathalie,ChIJPy_PJjvmtRIRAg8zjXY0Bxs,"[u'point_of_interest', u'establishment']"
0,43.8322417,4.7824511,PLOMBIÊR Marc,ChIJEzsEBDvmtRIR889uqwc2Po0,"[u'point_of_interest', u'establishment']"
0,43.832815,4.7826967,L' univers de Naille,ChIJU-z2GTvmtRIRQP8sLDuVsCo,"[u'hair_care', u'point_of_interest', u'establishment']"
0,43.8317808,4.780405,Private School Notre Dame De Grâce,ChIJM9d3ZDrmtRIRxJF08m9S8pw,"[u'school', u'point_of_interest', u'establishment']"
0,43.8531509,4.769296,Graveson,ChIJkVZLW33otRIRwAKX_aUZCAQ,"[u'locality', u'political']"
0,43.823431,4.7988424,Emballages Lambert,ChIJa6uncZ3ptRIRjuOufutrF3g,"[u'point_of_interest', u'establishment']"
0,43.8237295,4.7977854,Association Admr Des Jeunes Pousses,ChIJ9aimKW3mtRIRjXgFtUqlfec,"[u'point_of_interest', u'establishment']"
0,43.8190854,4.8029783,NSE,ChIJoaxWkG7mtRIRpapChjEqxbI,"[u'point_of_interest', u'establishment']"
0,43.818523,4.803965,Alltex,ChIJOQ0zanHmtRIRXwS1EPXm_SA,"[u'point_of_interest', u'establishment']"
0,43.8237295,4.7977854,Ital Bains,ChIJ9aimKW3mtRIRtuBXM-jPwN0,"[u'home_goods_store', u'store', u'point_of_interest', u'establishment']"
0,43.8237295,4.7977854,Vulpian Sophie,ChIJ9aimKW3mtRIR2vX_e-7DZZE,"[u'point_of_interest', u'establishment']"
0,43.823431,4.798842,1.6Te,ChIJlzxUOG3mtRIRlH6JIB-E-xg,"[u'real_estate_agency', u'point_of_interest', u'establishment']"
0,43.823431,4.7988424,Dayre Bouisson Rose,ChIJlzxUOG3mtRIRYuJQkPqvmv8,"[u'food', u'point_of_interest', u'establishment']"
0,43.823431,4.7988424,Societe Nutrition Animale,ChIJlzxUOG3mtRIRoMCKNC-VXsE,"[u'point_of_interest', u'establishment']"
0,43.823431,4.7988424,Martelli Milhaud Margaret,ChIJlzxUOG3mtRIRF7k86wH47rM,"[u'store', u'point_of_interest', u'establishment']"
0,43.823431,4.7988424,Etudelec,ChIJlzxUOG3mtRIR7dH8yExL1Xo,"[u'point_of_interest', u'establishment']"
0,43.823431,4.7988424,Julliard Firmin Helene Louise Michel,ChIJd_6ZjDvmtRIRh_-tePMArEc,"[u'food', u'point_of_interest', u'establishment']"
0,43.8263488,4.7976587,VALOREX sarl,ChIJvUjH_xLmtRIR3vbjhgO1AVk,"[u'food', u'point_of_interest', u'establishment']"
0,43.8317484,4.7763813,Com and Color Sarl,ChIJzTnKwDHmtRIRR1NRzLUMcsw,"[u'point_of_interest', u'establishment']"
0,43.823426,4.77173,Les Calèches de Mado,ChIJS0X_90rmtRIRlhIWe2DE5Zg,"[u'travel_agency', u'point_of_interest', u'establishment']"
0,43.8264669,4.7732655,Nicolas Vincent Frederic,ChIJ5wSaRIbotRIRGzl-Ooh5g8g,"[u'funeral_home', u'point_of_interest', u'establishment']"
0,43.8264669,4.7732655,Sicard Stéphane,ChIJo4v6wDXmtRIRoZSQ0fasJhY,"[u'grocery_or_supermarket', u'food', u'store', u'point_of_interest', u'establishment']"
0,43.829625,4.776478,unnamed,ChIJd4io0zbmtRIRPc7mlOAlyoc,"[u'point_of_interest', u'establishment']"
0,43.82274,4.76534,Eurl Simian Jocelyn,ChIJIwrsSbTntRIR3wuu5FfBySQ,"[u'electrician', u'point_of_interest', u'establishment']"
0,43.8306342,4.7774321,Bonnaud Ludivine,ChIJxcNSqjvmtRIRKMQ9hiq9r2M,"[u'hair_care', u'point_of_interest', u'establishment']"
0,43.8306918,4.77926,La Cigaleto,ChIJYceIoTDmtRIRMMJrMNXRVBc,"[u'food', u'point_of_interest', u'establishment']"
0,43.82791,4.766521,13910,ChIJZ9qQqsvntRIRM6CuFnbhV9Q,"[u'point_of_interest', u'establishment']"
0,43.8313131,4.7734488,Fontaine André,ChIJax08xDPmtRIRPEPfQYsQqiY,"[u'lawyer', u'finance', u'point_of_interest', u'establishment']"
0,43.8312149,4.7802683,Courrias Frasse Perange Marcelle,ChIJV53SbzrmtRIR2BCkiu22Kvw,"[u'point_of_interest', u'establishment']"
0,43.8248268,4.7845319,Tennis Club Maillanais,ChIJFRbAVD_mtRIRczqPadGS-RY,"[u'premise', u'point_of_interest', u'establishment']"
0,43.807612,4.798694,13210,ChIJL_y_HmPmtRIR9NFko3K0sM4,"[u'point_of_interest', u'establishment']"
0,43.8154253,4.763524,Le mas de la Christine - Location saisonnière,ChIJk4L_Ba7ntRIRg420gB05jTM,"[u'lodging', u'point_of_interest', u'establishment']"
0,43.8154253,4.763524,Durand Jean-Pierre,ChIJk4L_Ba7ntRIRK-oHO8kjULg,"[u'food', u'point_of_interest', u'establishment']"
0,43.805168,4.776174,Bonnet Alex,ChIJ38SwkfjmtRIRyJMjnqzlJLs,"[u'car_dealer', u'store', u'point_of_interest', u'establishment']"
0,43.847148,4.7789106,Le Moulin d'Aure,ChIJ2-Ug84HotRIR6HpseiqjgVw,"[u'lodging', u'restaurant', u'food', u'point_of_interest', u'establishment']"
0,43.8441285,4.7808625,Les Micocouliers,ChIJq6qqqnrotRIRUt1xvbT4dMA,"[u'real_estate_agency', u'rv_park', u'campground', u'park', u'lodging', u'point_of_interest', u'establishment']"
0,43.8400489,4.7819971,GOM&CO,ChIJcTEdSyTmtRIRdq1yjoGvk3A,"[u'general_contractor', u'point_of_interest', u'establishment']"
0,43.8399643,4.7826844,Imprimerie st Rémy Idéal'Graphic,ChIJmYU1mybmtRIRNGp5YPWHzBg,"[u'point_of_interest', u'establishment']"
0,43.8437106,4.7843641,Equina Poney Club,ChIJ9R1iTx7mtRIRkGEvt71zsD0,"[u'point_of_interest', u'establishment']"
0,43.837772,4.7823372,Le Mazet,ChIJcTEdSyTmtRIR5DG1kdRyAqE,"[u'grocery_or_supermarket', u'food', u'store', u'point_of_interest', u'establishment']"
0,43.8462716,4.7802113,Provence Matériaux,ChIJlzxUOG3mtRIR_ITD6w-xthM,"[u'store', u'point_of_interest', u'establishment']"
0,43.836503,4.783019,ABM Plombier/Chauffagiste Saint Rémy de Pce/Maillane Antoine BROSSARD (Plumber/Heating engineer),ChIJaypD9iTmtRIRtbqc0spDhY0,"[u'plumber', u'general_contractor', u'electrician', u'home_goods_store', u'store', u'point_of_interest', u'establishment']"
0,43.847697,4.780447,Sabatier Nicolas Ferronnerie,ChIJ5wSaRIbotRIRcUpXvHDQPD4,"[u'point_of_interest', u'establishment']"
0,43.837853,4.793686,Maillane Primeurs,ChIJ8YuKOBnmtRIRTd172vJzHHE,"[u'grocery_or_supermarket', u'food', u'store', u'point_of_interest', u'establishment']"
0,43.844233,4.7753828,Hypnose Sophrologie Coaching Alpilles Valérie Peltier,ChIJ_7cj0UDktRIRkeewn3YYn_0,"[u'health', u'point_of_interest', u'establishment']"
0,43.8482335,4.7785956,PiscineMateriel.fr,ChIJt6fmZoPotRIR56ycTi4g1qM,"[u'point_of_interest', u'establishment']"
0,43.84796,4.777572,TRAÇAMATRIX,ChIJGZ_icYPotRIR7CHUVALPnWE,"[u'store', u'point_of_interest', u'establishment']"
0,43.841579,4.841977,Eyragues,ChIJpwtyXIbltRIRjx2enjt8Zjk,"[u'locality', u'political']"
0,43.837054,4.799007,LE TIO'BIO,ChIJL9DLPxvmtRIRSEm9xwjZnJc,"[u'food', u'point_of_interest', u'establishment']"
0,43.837853,4.793686,Les Sources,ChIJ8YuKOBnmtRIRmnp2UZ79vW8,"[u'food', u'point_of_interest', u'establishment']"
0,43.834901,4.788929,Gazzan Sa,ChIJifwt3nPmtRIRNc36YBPH1Ms,"[u'grocery_or_supermarket', u'food', u'store', u'point_of_interest', u'establishment']"
0,43.8373034,4.7926638,PRECISIUM Garage et Carrosserie COMBE SARL MISTRAL ENTREPRISES,ChIJQ-MCHxnmtRIRTMDvLv7muCw,"[u'car_repair', u'point_of_interest', u'establishment']"
0,43.8319939,4.7770874,School Group Frédéric Mistral,ChIJhZuj_zDmtRIRb-1HrbG6FlU,"[u'school', u'point_of_interest', u'establishment']"
0,43.8334795,4.7760617,LA COMPAGNIE ETHIQUE - Ethic ShopFactory,ChIJzTnKwDHmtRIRYkm1ZhyWvbo,"[u'point_of_interest', u'establishment']"
0,43.831827,4.7796288,Maison de retraite Oustau di Daillan,ChIJ6fF6qTvmtRIRwENV_EpX17M,"[u'health', u'point_of_interest', u'establishment']"
0,43.8190635,4.8055474,Ferronnerie Herranz,ChIJlzxUOG3mtRIRI9Xu-ACl4a4,"[u'point_of_interest', u'establishment']"
0,43.827684,4.808277,EQUIDOMIA,ChIJc8GuNgrmtRIRebpo_d3lORw,"[u'point_of_interest', u'establishment']"
0,43.816816,4.808406,Pépinière de la Praderie,ChIJmxPgU3bmtRIRg_Kb45w_pHI,"[u'food', u'point_of_interest', u'establishment']"
0,43.819156,4.804638,Garage Bonnet,ChIJzzry4nPmtRIRNBTFXcYy1Bg,"[u'car_dealer', u'car_repair', u'store', u'point_of_interest', u'establishment']"
0,43.8272,4.804723,Gîtes Estelle en Provence,ChIJTxKSbQzmtRIRB1Mf_Y2rzvs,"[u'lodging', u'point_of_interest', u'establishment']"
0,43.8190163,4.8060564,Zone d'Activités la Praderie,ChIJN9MR4HPmtRIRcCCsYS6khIM,"[u'point_of_interest', u'establishment']"
0,43.8246895,4.7615656,Tenaille Patrick Marcel,ChIJdzOdM7bntRIRBPPW1Af_N4I,"[u'point_of_interest', u'establishment']"
0,43.814085,4.813515,Jardins du Vigueirat,ChIJv-qB1tnltRIRgckl8WWq-7s,"[u'park', u'general_contractor', u'food', u'point_of_interest', u'establishment']"
0,43.814788,4.814071,Mas du Vigueirat,ChIJGWX0p0DktRIRebFLXBZcE6I,"[u'lodging', u'point_of_interest', u'establishment']"
0,43.8183568,4.8065564,Bourgier Gèrard,ChIJlzxUOG3mtRIRX4vAJ-UGCes,"[u'point_of_interest', u'establishment']"
0,43.8186362,4.8059809,SAS JEAN CHABAUD LES MATERIAUX ANCIENS,ChIJKUZar3bmtRIRz3LenKADXUE,"[u'store', u'point_of_interest', u'establishment']"
0,43.80662,4.8052,Haccart Solange,ChIJsQMR133mtRIRNe3fCl1iYno,"[u'point_of_interest', u'establishment']"
0,43.805744,4.79934,13210,ChIJuZeYu2LmtRIRrJC3NDcwthM,"[u'point_of_interest', u'establishment']"
0,43.814812,4.810618,Pont Neuf,ChIJFUjRCdjltRIR3svBOHFt3H4,"[u'premise', u'point_of_interest', u'establishment']"
0,43.800445,4.781069,Le Mas De La Chouette,ChIJhYfj-_DmtRIRNzwTWhQF2Ig,"[u'lodging', u'point_of_interest', u'establishment']"
0,43.7965203,4.7793251,Maison Eco Nature,ChIJ81fOq_rmtRIRlTrWnnnMePQ,"[u'general_contractor', u'point_of_interest', u'establishment']"
0,43.7965203,4.7793251,LMA Provence,ChIJ81fOq_rmtRIRibcc9RMEzUo,"[u'point_of_interest', u'establishment']"
0,43.79652,4.779325,Guzman Grégory,ChIJ81fOq_rmtRIRVxrmRucqaZc,"[u'electrician', u'point_of_interest', u'establishment']"
0,43.797019,4.780207,SAS COTE FENETRE,ChIJj0DFEfDmtRIREbzqp9bZS3U,"[u'point_of_interest', u'establishment']"
0,43.7967942,4.7799969,JC Batiment,ChIJdSU0-sjotRIRvcAtHKpUcd0,"[u'painter', u'point_of_interest', u'establishment']"
0,43.7965203,4.7793251,Sorel-vettese,ChIJ81fOq_rmtRIRTmnVVNqSGUY,"[u'point_of_interest', u'establishment']"
0,43.812871,4.762474,unnamed,ChIJmX9E7K7ntRIRyEKSr9xLsKU,"[u'point_of_interest', u'establishment']"
0,43.815568,4.756907,La Perdrigone,ChIJG2zaOqXntRIRHy--0mIJkhk,"[u'food', u'point_of_interest', u'establishment']"
0,43.780147,4.72617,Saint-Étienne-du-Grès,ChIJfYiNo13ntRIRsP-W_aUZCAQ,"[u'locality', u'political']"
0,43.837853,4.793686,Bouisson Jean-Jacques,ChIJ8YuKOBnmtRIRRvoUFcMtIco,"[u'food', u'point_of_interest', u'establishment']"
0,43.837853,4.793686,Chaussende Robert,ChIJU3_W4hjmtRIROACs-bV91sM,"[u'point_of_interest', u'establishment']"
0,43.837853,4.793686,Béraud Jean-François,ChIJEdunrjzmtRIRBj_mPfHFNIE,"[u'point_of_interest', u'establishment']"
0,43.837853,4.793686,Koifman Boris,ChIJHSxIWbbltRIR3oz9cixcs3s,"[u'point_of_interest', u'establishment']"
0,43.837853,4.793686,Gras Pecout Martine,ChIJ8YuKOBnmtRIRfIkj-n8Jwwk,"[u'food', u'point_of_interest', u'establishment']"
0,43.837853,4.793686,Feral Laurent Delphine Andree Helene,ChIJU3_W4hjmtRIRO3x1mvAe1AY,"[u'point_of_interest', u'establishment']"
0,43.837389,4.7926691,Tattoo,ChIJJ5ptHxnmtRIRBp8sfnjnRec,"[u'real_estate_agency', u'point_of_interest', u'establishment']"
0,43.837772,4.7823372,Earl Des Valleyguettes,ChIJcTEdSyTmtRIREXvrr26k5fg,"[u'food', u'point_of_interest', u'establishment']"
0,43.8288091,4.8026653,Van Der Valk Vigne Johanna,ChIJJRJffg7mtRIRV4_cWBFZJgs,"[u'food', u'point_of_interest', u'establishment']"
0,43.836893,4.798706,Pont Courquiou,ChIJg1SeFhvmtRIRSohAgfEJDhg,"[u'premise', u'point_of_interest', u'establishment']"
0,43.81806,4.81754,Pépinière du Vigueirat,ChIJlxtUjtvltRIR5bcOXIQRZts,"[u'food', u'point_of_interest', u'establishment']"
0,43.81806,4.81754,Bouault Jeanniard Catherine,ChIJlxtUjtvltRIRf4BWWNpNSZg,"[u'real_estate_agency', u'point_of_interest', u'establishment']"
0,43.8237175,4.7468065,musée des arômes et du parfum,ChIJazBTjsPntRIRpf2YS9JXfPg,"[u'museum', u'point_of_interest', u'establishment']"
0,43.8157121,4.747173,Clamasix Domaine Breuil,ChIJ58XcDprntRIRfFJdGBTcNYI,"[u'travel_agency', u'real_estate_agency', u'point_of_interest', u'establishment']"
