,Latitude,Longitude,Name,Place_id,Type
0,43.4212739,5.218332,Marignane,ChIJz2Y1kSLmyRIRMAKX_aUZCAQ,"[u'locality', u'political']"
0,43.417049,5.2162608,Crédit Mutuel,ChIJ7WuzTDvmyRIREVuVC2k_YO4,"[u'bank', u'atm', u'finance', u'point_of_interest', u'establishment']"
0,43.4169525,5.2162492,Société Générale,ChIJnVa_tCTmyRIROGNJ2yOVzks,"[u'bank', u'atm', u'finance', u'point_of_interest', u'establishment']"
0,43.4145817,5.2139701,Home Le,ChIJ4UvtWjvmyRIRxxwjiP5s3KM,"[u'store', u'point_of_interest', u'establishment']"
0,43.4178408,5.216817,Chamajesté,ChIJnaUjqCTmyRIR8Oeh6NVMov0,"[u'pet_store', u'zoo', u'store', u'point_of_interest', u'establishment']"
0,43.4178144,5.2141277,LCL - Le Crédit Lyonnais,ChIJUb3rfDvmyRIRgOIEfQcyiek,"[u'bank', u'atm', u'finance', u'point_of_interest', u'establishment']"
0,43.416531,5.2137916,Le Mekong,ChIJEyhhBDvmyRIRZx8WxrnL6Lw,"[u'bar', u'restaurant', u'food', u'point_of_interest', u'establishment']"
0,43.4111676,5.2088282,E.Leclerc Marignane,ChIJ6RIDdS_myRIRVq2njdk4eiw,"[u'grocery_or_supermarket', u'food', u'store', u'point_of_interest', u'establishment']"
0,43.4113062,5.2191449,Auto Bilan Du 8 Mai,ChIJt6AvDy_myRIRBCUoFOPOO0s,"[u'point_of_interest', u'establishment']"
0,43.414438,5.2064593,CPAM des Bouches-du-Rhône / Marignane,ChIJ08Q4CTjmyRIRyfW99V7K9OI,"[u'point_of_interest', u'establishment']"
0,43.410844,5.205134,Middle School Georges Brassens,ChIJF0oTEUjmyRIRL5FF93zLUUs,"[u'school', u'point_of_interest', u'establishment']"
0,43.4184231,5.2142703,Saint Algue,ChIJ5wRfhDzmyRIRS6sElzGuL9U,"[u'beauty_salon', u'hair_care', u'point_of_interest', u'establishment']"
0,43.4170872,5.215754,Mairie de Marignane,ChIJNxyKizvmyRIRzyLkAdPd0UY,"[u'city_hall', u'local_government_office', u'point_of_interest', u'establishment']"
0,43.4209779,5.2065874,Mairie Service des Sports,ChIJ62cpu0DmyRIRKERpeKMSR9I,"[u'city_hall', u'local_government_office', u'point_of_interest', u'establishment']"
0,43.4181873,5.2174039,BNP Paribas - Marignane,ChIJn24lUTvmyRIRI5P2OK_P6W4,"[u'bank', u'atm', u'finance', u'point_of_interest', u'establishment']"
0,43.4176792,5.2155828,MAGASIN BOUYGUES TELECOM Fermé - MARIGNANE,ChIJc0mlUDvmyRIRa3MI5nZ1cog,"[u'store', u'point_of_interest', u'establishment']"
0,43.420868,5.220288,Somatrim,ChIJlX3dIiLmyRIRbAgso3zv42Q,"[u'real_estate_agency', u'point_of_interest', u'establishment']"
0,43.4132531,5.2052084,Lycée Maurice Genevoix,ChIJF0oTEUjmyRIRXLegXO3yAQg,"[u'school', u'point_of_interest', u'establishment']"
0,43.4171543,5.2142663,Marylin Création,ChIJLbRVbjvmyRIRnoTq7iLU7Rw,"[u'clothing_store', u'store', u'point_of_interest', u'establishment']"
0,43.419799,5.206906,Les Rascas,ChIJn-iYaz_myRIRZc6jbqByRbY,"[u'sublocality_level_1', u'sublocality', u'political']"
0,43.4063454,5.2037993,Troc.com Marignane,ChIJ5UIc5ErmyRIRGtgsVivH2FY,"[u'furniture_store', u'home_goods_store', u'store', u'point_of_interest', u'establishment']"
0,43.409428,5.214729,Clinique de Marignane,ChIJp08VmzHmyRIRGlerRDoVZ0U,"[u'health', u'point_of_interest', u'establishment']"
0,43.4123847,5.2189792,Commissariat de Police,ChIJ6RIDdS_myRIReWpvAlveWC4,"[u'police', u'point_of_interest', u'establishment']"
0,43.412034,5.219439,Carnivor Boucherie MARIGNANE (13700),ChIJW415-zDmyRIRdLIfATdZ5q8,"[u'food', u'store', u'point_of_interest', u'establishment']"
0,43.4064337,5.2029647,Curves,ChIJZXzXAEvmyRIRWFqxk1WBtuk,"[u'gym', u'health', u'point_of_interest', u'establishment']"
0,43.410989,5.217134,Matmut,ChIJvZcBLDDmyRIRK7yLWugOZM8,"[u'point_of_interest', u'establishment']"
0,43.4064337,5.2029647,OKA DANCE,ChIJW_TKqUvmyRIRwnbZn1vQJ9g,"[u'point_of_interest', u'establishment']"
0,43.4088884,5.2084529,BNP Paribas - Marignane Le Taulet,ChIJWwVXirPnyRIRR8aeryLCELs,"[u'bank', u'atm', u'insurance_agency', u'finance', u'point_of_interest', u'establishment']"
0,43.41247,5.20725,Lidl,ChIJyzTRvTfmyRIRCcV8VRM6qBE,"[u'grocery_or_supermarket', u'food', u'store', u'point_of_interest', u'establishment']"
0,43.412812,5.220673,Grande Pharmacie du 8 Mai,ChIJv9sQVy_myRIRG4B-hl4YlVg,"[u'pharmacy', u'health', u'store', u'point_of_interest', u'establishment']"
0,43.4099001,5.2151543,Sci Galea,ChIJi8G2EjLmyRIRgB8eT51n_gQ,"[u'general_contractor', u'real_estate_agency', u'point_of_interest', u'establishment']"
0,43.412679,5.203418,L'Éstéou,ChIJryMfYUjmyRIRVHXztAEw6VA,"[u'sublocality_level_1', u'sublocality', u'political']"
0,43.42093,5.213438,MODELISME 13,ChIJQZK2qT3myRIRqLtQPf8QSt8,"[u'store', u'point_of_interest', u'establishment']"
0,43.4186508,5.2139303,La Provence,ChIJg90qjzzmyRIRvHxhcp6kNHU,"[u'health', u'store', u'point_of_interest', u'establishment']"
0,43.4203348,5.2107242,Association des Commerçants de Marignane,ChIJ8eyGSzvmyRIRVJnggcQj_gE,"[u'point_of_interest', u'establishment']"
0,43.4239966,5.2108631,"TAXI DRAGON - taxis, visite guidée, déplacement express,Marignane",ChIJbSaf4RXmyRIRB6yOSx5CUmU,"[u'travel_agency', u'point_of_interest', u'establishment']"
0,43.4199929,5.2135653,Le Versailles,ChIJAzLtVzzmyRIR8kYkIcb-7AQ,"[u'point_of_interest', u'establishment']"
0,43.421447,5.215935,Club Marignanais des Sports d'Aviron,ChIJW2_aNT3myRIRhG9qGLjosuI,"[u'point_of_interest', u'establishment']"
0,43.4272652,5.2132277,coaching sportif sylvie,ChIJa88lzhbmyRIRnsSSheuMFOw,"[u'health', u'point_of_interest', u'establishment']"
0,43.424888,5.21269,Pharmacie Mermoz,ChIJe_6aWxbmyRIRB1cgn9DJ0FU,"[u'pharmacy', u'health', u'store', u'point_of_interest', u'establishment']"
0,43.4236328,5.2133686,LIEUTAUD Alain MECA-POMPES-FORAGE,ChIJT4KhKxbmyRIRqLHjSqv8Fxg,"[u'point_of_interest', u'establishment']"
0,43.4231259,5.2137695,Chambre Funéraire,ChIJSyd_0xfmyRIRqTWZhu4_-cc,"[u'funeral_home', u'point_of_interest', u'establishment']"
0,43.419347,5.217846,La Cadière,ChIJiew7ESPmyRIRMpn4jxWsMbw,"[u'restaurant', u'real_estate_agency', u'food', u'point_of_interest', u'establishment']"
0,43.4212739,5.218332,Le manège à bijoux,ChIJ_cVT8iLmyRIRz1mmQbV5Wus,"[u'jewelry_store', u'shopping_mall', u'clothing_store', u'store', u'point_of_interest', u'establishment']"
0,43.424016,5.210223,www.entre2clic.com,ChIJD4Lm6BXmyRIRRc4Hw_XG2fw,"[u'point_of_interest', u'establishment']"
0,43.4209703,5.2053413,AGENCE IMMOBILIÈRE PONS-CAVELIER,ChIJRbsZfUDmyRIRIvWxUtHedgE,"[u'real_estate_agency', u'finance', u'point_of_interest', u'establishment']"
0,43.4208394,5.2249905,Assedic Alpes Provence,ChIJaToclSHmyRIRjw_XxvbsvTU,"[u'point_of_interest', u'establishment']"
0,43.414771,5.225004,SIAP MARIGNANE,ChIJtXwnASfmyRIRLVgjO_8ukJ8,"[u'car_dealer', u'car_repair', u'store', u'point_of_interest', u'establishment']"
0,43.416091,5.224215,Soprema,ChIJi28jHyfmyRIR62rU5j4T9-A,"[u'roofing_contractor', u'point_of_interest', u'establishment']"
0,43.4218576,5.2259639,Kids Park,ChIJH8TB9p_oyRIRqknT4DRGd4Q,"[u'amusement_park', u'point_of_interest', u'establishment']"
0,43.4182145,5.2285201,Renault Marignane,ChIJQ4h2Zp7oyRIR0r3NuGYvlgA,"[u'car_dealer', u'car_rental', u'car_repair', u'store', u'point_of_interest', u'establishment']"
0,43.420234,5.236007,Saint-Victoret,ChIJo5mh35noyRIRsRK688rJ2eY,"[u'locality', u'political']"
0,43.4156319,5.2056481,Day Hospital Erasme,ChIJn_wnh0fmyRIRp7ZZ6pSroK4,"[u'hospital', u'point_of_interest', u'establishment']"
0,43.4191367,5.2057383,Tennis Club Marignanais,ChIJqwoTdT_myRIRr7DCD8wyFdM,"[u'point_of_interest', u'establishment']"
0,43.4174882,5.211571,Trefle Immo Services,ChIJMVc-8jvmyRIRgsQyG8OfIlM,"[u'real_estate_agency', u'point_of_interest', u'establishment']"
0,43.419659,5.2060991,La Pausa,ChIJ62cpu0DmyRIRyT7FZO4hxEQ,"[u'point_of_interest', u'establishment']"
0,43.413908,5.209751,Alain Roche | Crèches du Sud,ChIJk24LFTjmyRIRaOTjQik5_48,"[u'point_of_interest', u'establishment']"
0,43.394609,5.208388,Vial Menuiseries Gignac,ChIJAY_2fcjnyRIRhb998kEcvYo,"[u'store', u'point_of_interest', u'establishment']"
0,43.3953202,5.2140499,LES SERENADES,ChIJhzVsos_nyRIRZq7HnxVoDz0,"[u'restaurant', u'bar', u'food', u'point_of_interest', u'establishment']"
0,43.4045652,5.2158817,Aroma Beauté,ChIJQTO-mTLmyRIR3whQIF3iIpg,"[u'beauty_salon', u'point_of_interest', u'establishment']"
0,43.3953259,5.2073506,Bernard Philibert,ChIJo3C8OH3pyRIRXIBzcXE6OSY,"[u'hardware_store', u'store', u'point_of_interest', u'establishment']"
0,43.4034185,5.219289,Nautimat,ChIJk0ps1tLnyRIRS7EvYmYxH78,"[u'store', u'point_of_interest', u'establishment']"
0,43.394775,5.205288,DADDI SRI SAS,ChIJK_TjE8XnyRIRffFk_0TUuUw,"[u'general_contractor', u'point_of_interest', u'establishment']"
0,43.3997937,5.2070421,BARJANE - Projet bâtiment d'activités,ChIJU6_pF8rnyRIRTbkTEV_Mlkc,"[u'storage', u'point_of_interest', u'establishment']"
0,43.400045,5.217441,Cabinet Canovas,ChIJoydDatLnyRIRt3LkNQdSdN0,"[u'real_estate_agency', u'point_of_interest', u'establishment']"
0,43.395611,5.209268,Le New Juke Box,ChIJH-lLhXHpyRIRLy-5vF0rSkw,"[u'restaurant', u'food', u'point_of_interest', u'establishment']"
0,43.395192,5.209746,Autovision Contrôle Technique,ChIJ8Uw7vsjnyRIRjuSgVxET210,"[u'car_repair', u'point_of_interest', u'establishment']"
0,43.4033491,5.2182051,S.a.r.l Marignane electric,ChIJq2AlSi3myRIR-EeOm4p4WT4,"[u'electrician', u'point_of_interest', u'establishment']"
0,43.3975286,5.2184406,Sarl Cat,ChIJoVLcmNHnyRIRIkLJWcxpVTw,"[u'point_of_interest', u'establishment']"
0,43.4041926,5.2170078,Dr Vidal (urologue),ChIJd6f_Ti3myRIRXjMqW_Tbvvo,"[u'doctor', u'health', u'point_of_interest', u'establishment']"
0,43.4013402,5.2055491,DAHER AEROSPACE,ChIJCVr3ZbTnyRIRQLdX_sxCFzQ,"[u'point_of_interest', u'establishment']"
0,43.4026677,5.2200517,Alliance Color,ChIJ22afd-HfyRIRHvrJaiWvaGQ,"[u'car_repair', u'point_of_interest', u'establishment']"
0,43.404193,5.217008,Docteur Strouc Stéphane,ChIJpT5cRS3myRIRDr2dPI8SkzY,"[u'doctor', u'health', u'point_of_interest', u'establishment']"
0,43.4041926,5.2170078,MV Clean,ChIJpT5cRS3myRIRVwnWr5nzZGc,"[u'point_of_interest', u'establishment']"
0,43.4034117,5.2062622,PIEME,ChIJiTd3r8rnyRIRXZso5vWTQ6c,"[u'point_of_interest', u'establishment']"
0,43.390916,5.233463,Gignac-la-Nerthe,ChIJZVkA63PoyRIR4AKX_aUZCAQ,"[u'locality', u'political']"
0,43.4043659,5.2239534,Middle School Emilie De Mirabeau,ChIJv40X6i7myRIRsxmIQSxw9wU,"[u'school', u'point_of_interest', u'establishment']"
0,43.412584,5.220994,Défi Night,ChIJebgvUS_myRIRzdzhmfXxfwQ,"[u'bar', u'night_club', u'restaurant', u'food', u'point_of_interest', u'establishment']"
0,43.4070831,5.2280843,Greta,ChIJM5O18IHoyRIRxACmu1Fu_xY,"[u'point_of_interest', u'establishment']"
0,43.4138364,5.2221621,Etoile Service Provence,ChIJv4TDDibmyRIRcXrF78RuCmE,"[u'car_dealer', u'car_repair', u'store', u'point_of_interest', u'establishment']"
0,43.411828,5.218956,Point Service Mobiles Marignane,ChIJu-0xdS_myRIR_UxsPc9Ydg0,"[u'point_of_interest', u'establishment']"
0,43.4090738,5.2250167,Pharmacie Lacanau,ChIJQXjXvSnmyRIR9klRqESZhQI,"[u'pharmacy', u'health', u'store', u'point_of_interest', u'establishment']"
0,43.4049837,5.2229923,Corso Menuiserie,ChIJv40X6i7myRIR_I06FS0YJkQ,"[u'furniture_store', u'home_goods_store', u'store', u'point_of_interest', u'establishment']"
0,43.405959,5.226108,Bouvier,ChIJY4HoeirmyRIR7Mo8d1YEQQA,"[u'sublocality_level_1', u'sublocality', u'political']"
0,43.4075276,5.2008984,Sori,ChIJ31qplkvmyRIRCb9JtLhmCJs,"[u'point_of_interest', u'establishment']"
0,43.4117516,5.2041607,Tissier Marc,ChIJIdcbNkjmyRIRi5F6LwyE0Pg,"[u'dentist', u'health', u'point_of_interest', u'establishment']"
0,43.4054498,5.1998767,Société Industrielle Littoral Méditerranée Environnement,ChIJV9kPmEzmyRIR1GF10WHoMk0,"[u'point_of_interest', u'establishment']"
0,43.4099501,5.2057362,Pharmacie Saint-Pierre,ChIJF0oTEUjmyRIRyvuVlklmlRQ,"[u'pharmacy', u'health', u'store', u'point_of_interest', u'establishment']"
0,43.4106633,5.2048696,Karate Club Marignane N.k.d,ChIJJ-r-AzbmyRIR4H9Mm_w0980,"[u'health', u'point_of_interest', u'establishment']"
0,43.4062207,5.2037993,Freeness,ChIJQREc5ErmyRIRTHe9e7GGOSc,"[u'gym', u'health', u'point_of_interest', u'establishment']"
0,43.4029693,5.2030547,Les Petits Pilotes | Crèches du Sud,ChIJSyVJJrXnyRIRZWilegnUBgo,"[u'point_of_interest', u'establishment']"
0,43.4077834,5.1985874,Logtrans-fret,ChIJVTGoSEzmyRIR3u2SX46_nUw,"[u'moving_company', u'point_of_interest', u'establishment']"
0,43.4392337,5.2141565,Travelex Marseille,ChIJb8imAv7lyRIRuvy-5npBGGk,"[u'finance', u'point_of_interest', u'establishment']"
0,43.4329218,5.2086182,Base Hélicoptère de la Sécurité Civile,ChIJRTd_yBLmyRIRi7S5A8_lZBY,"[u'point_of_interest', u'establishment']"
0,43.4341516,5.2052236,Daher,ChIJtXRVtBLmyRIRflr7Mh6dM_U,"[u'point_of_interest', u'establishment']"
0,43.4384235,5.214414,Haagen Dazs,ChIJmRGNlgjmyRIRiwF9AScAGcI,"[u'restaurant', u'food', u'store', u'point_of_interest', u'establishment']"
0,43.4384235,5.214414,Enterprise Rent-A-Car MARIGNANE LIVRAISONS,ChIJb8imAv7lyRIRcadbLqkGjCc,"[u'car_rental', u'point_of_interest', u'establishment']"
0,43.438367,5.214555,Chefs en Provence - Restaurant Marignane,ChIJUUPAwQjmyRIRXF6oqTmdUFc,"[u'restaurant', u'food', u'point_of_interest', u'establishment']"
0,43.4384235,5.214414,Transequity International Logistics,ChIJY4KGwgjmyRIR2KP82Ap17ng,"[u'point_of_interest', u'establishment']"
0,43.4384235,5.214414,Icts Marseille Provence,ChIJY4KGwgjmyRIRIHeowHh8wVY,"[u'point_of_interest', u'establishment']"
0,43.4384235,5.214414,Turkish Air Lines,ChIJY4KGwgjmyRIRv_HycieO_1I,"[u'point_of_interest', u'establishment']"
0,43.4384235,5.214414,Relay France,ChIJY4KGwgjmyRIRIe9rgyHYEE8,"[u'point_of_interest', u'establishment']"
0,43.4384235,5.214414,Aigle Azur Transports Aeriens,ChIJY4KGwgjmyRIRSqHwlV2ojR4,"[u'point_of_interest', u'establishment']"
0,43.4384235,5.214414,CCIMP,ChIJY4KGwgjmyRIR_l23zPrpqxM,"[u'point_of_interest', u'establishment']"
0,43.4384235,5.214414,Tunis Air,ChIJY4KGwgjmyRIRQCZ7tfqzxhA,"[u'point_of_interest', u'establishment']"
0,43.4282147,5.2080777,Douche italienne Marseille,ChIJJ2SqfhPmyRIRJ-CdSiBrPDA,"[u'general_contractor', u'point_of_interest', u'establishment']"
0,43.436855,5.201598,DEIVA,ChIJTTr76HPmyRIRJtqkYR81K-A,"[u'point_of_interest', u'establishment']"
0,43.4360521,5.200699,Aeromecanic,ChIJRTd_yBLmyRIRkT2y3yXk1K0,"[u'point_of_interest', u'establishment']"
0,43.4272484,5.2130238,Point com',ChIJBUwz0BbmyRIRdLxsuSApLys,"[u'point_of_interest', u'establishment']"
0,43.443815,5.211753,Jetex FBO Marseille,ChIJMx0fO-LlyRIRWaaZEt_6sSo,"[u'point_of_interest', u'establishment']"
0,43.420585,5.225176,LIDL,ChIJaToclSHmyRIRIg0f4kOmVcE,"[u'grocery_or_supermarket', u'food', u'store', u'point_of_interest', u'establishment']"
0,43.422256,5.224173,Contrôle Technique Autovision Marignane,ChIJh_9UMCDmyRIRjn91tIr7XfY,"[u'car_repair', u'point_of_interest', u'establishment']"
0,43.4208887,5.224258,SCP ROSA Guy,ChIJi3G2SCDmyRIR_rASAizW3cw,"[u'finance', u'lawyer', u'point_of_interest', u'establishment']"
0,43.4190942,5.2221418,Immobilier Info,ChIJYXJAEiHmyRIRG-mOb4czUQQ,"[u'real_estate_agency', u'point_of_interest', u'establishment']"
0,43.4195893,5.2173761,Vocational High School Louis Blériot,ChIJJYVrsTzmyRIRKpvSi6eF8aA,"[u'point_of_interest', u'establishment']"
0,43.4233346,5.2240009,P.b.k,ChIJx6m8dR_myRIR7zk5NyCb6j4,"[u'general_contractor', u'point_of_interest', u'establishment']"
0,43.4212739,5.217817,AXA Assurance JEAN MARC BERNARD,ChIJm4rx59LdyRIRp_1xuevVfrI,"[u'insurance_agency', u'bank', u'health', u'finance', u'point_of_interest', u'establishment']"
0,43.4212739,5.218332,SOPHROLOGUE,ChIJ_cVT8iLmyRIR1gDOjXd_fJU,"[u'point_of_interest', u'establishment']"
0,43.4208596,5.2245397,PLIE MPM Ouest,ChIJi3G2SCDmyRIROYwYdzEL9mg,"[u'point_of_interest', u'establishment']"
0,43.420386,5.219483,Martino Cara Experts Comptables Capexpert,ChIJhwd1TSLmyRIR2RRXrp446K4,"[u'accounting', u'finance', u'point_of_interest', u'establishment']"
0,43.4207,5.201085,Ronin Sports,ChIJhcEs2UPmyRIRXNlYzo2CzDg,"[u'store', u'point_of_interest', u'establishment']"
0,43.4208496,5.2025129,De Roues De Pointes,ChIJbwLGCEHmyRIR6yqNGKoX_Qw,"[u'point_of_interest', u'establishment']"
0,43.419762,5.205695,CMS NATATION,ChIJH1-0n0DmyRIRNGgCa0XD2RU,"[u'point_of_interest', u'establishment']"
0,43.4274125,5.2062731,ATHALIA,ChIJA8iIhRPmyRIRfHkLdFZVxO4,"[u'store', u'point_of_interest', u'establishment']"
0,43.425098,5.2042339,Thermo Est,ChIJEz5s5mrmyRIRlimTDmDkccc,"[u'point_of_interest', u'establishment']"
0,43.4222266,5.2027389,Loera Services,ChIJ37XHyUHmyRIRCEpjy81hsXU,"[u'point_of_interest', u'establishment']"
0,43.4214877,5.2030099,Cyril LIONDOR graphiste webmaster illustrateur,ChIJP6WWrUHmyRIReBwhg5Y9haM,"[u'point_of_interest', u'establishment']"
0,43.4208647,5.2063398,Sanchez André-José,ChIJ111Vgj_myRIRN6sYmmB0iyU,"[u'painter', u'point_of_interest', u'establishment']"
0,43.420843,5.205989,Elit'Pub,ChIJf0DQgT_myRIR5zMxQ4Czs_I,"[u'point_of_interest', u'establishment']"
0,43.4206802,5.2069884,Town Hall,ChIJqwoTdT_myRIRWaso-xPKJ24,"[u'school', u'point_of_interest', u'establishment']"
0,43.4196763,5.204266,Louf Isabelle,ChIJhY2a6kDmyRIRD9Wqm8rsJ5E,"[u'real_estate_agency', u'point_of_interest', u'establishment']"
0,43.4112458,5.1950754,ALPHA ELEC Multiservices,ChIJgWYv0FHmyRIRorH8-MFQD6Y,"[u'car_repair', u'point_of_interest', u'establishment']"
0,43.414209,5.199583,CMS GYM,ChIJva3N4kXmyRIR40DFjGVgX1U,"[u'point_of_interest', u'establishment']"
0,43.4143376,5.1999015,SMAA 13,ChIJgwbKhkfmyRIRFYYOq0605JY,"[u'health', u'point_of_interest', u'establishment']"
0,43.4153395,5.2012539,Le Stadium Club Marignanais,ChIJhUl5tDnmyRIRx7a5jAgl9LM,"[u'point_of_interest', u'establishment']"
0,43.411649,5.1946879,Construction Rénovation Carrelage Façade CRCF,ChIJBR8iNiHmyRIRwOGPyNfFyx4,"[u'roofing_contractor', u'general_contractor', u'point_of_interest', u'establishment']"
0,43.4165349,5.2022066,Town Hall,ChIJi0Rf8UbmyRIRrGetM_i-GlQ,"[u'school', u'point_of_interest', u'establishment']"
0,43.4114871,5.1959758,Provence Aeraulique Environnement,ChIJTQmDLU7myRIRMMFq1qnoBUI,"[u'point_of_interest', u'establishment']"
0,43.413304,5.2024461,Armand Déménagements,ChIJ_wBrm0jmyRIRqOSL-6dVOBM,"[u'moving_company', u'point_of_interest', u'establishment']"
0,43.4098559,5.1960107,PrestaRef.com - Daniel Bonnaure,ChIJBUr0EJvAyRIRMAQyMesyrCw,"[u'point_of_interest', u'establishment']"
0,43.4178527,5.2054811,Parc Ferrage,ChIJm8FTV0fmyRIRO9T8-PbqgCg,"[u'park', u'point_of_interest', u'establishment']"
0,43.3938376,5.2304285,BDK Menuiseries La boutique du Menuisier,ChIJEc1riHroyRIR9PRHtp0V8Gk,"[u'point_of_interest', u'establishment']"
0,43.3938848,5.2264433,A.F.G. AUTO garage gignac la nerthe,ChIJq4vK-tfnyRIRjvZUTE4QfLs,"[u'car_repair', u'point_of_interest', u'establishment']"
0,43.402732,5.224744,Atelier David Corral,ChIJb2TbMdXnyRIRd9FSpajJgjY,"[u'furniture_store', u'home_goods_store', u'store', u'point_of_interest', u'establishment']"
0,43.4025711,5.224359,David Turco - Kinésiologue spécialisé - Praticien mieux-être,ChIJDyNBL9XnyRIRMrifbL9vcY8,"[u'point_of_interest', u'establishment']"
0,43.4044874,5.2211111,School Le Carestier,ChIJm8V64CjmyRIRc_RvQp9X2Y4,"[u'school', u'point_of_interest', u'establishment']"
0,43.3966334,5.2251917,Terre de Pub,ChIJGQkgR9bnyRIRWb5XsY0jlow,"[u'point_of_interest', u'establishment']"
0,43.4025174,5.2243963,Turco David Et Elisabeth,ChIJDyNBL9XnyRIRRn2_W7DRyKA,"[u'point_of_interest', u'establishment']"
0,43.3947011,5.2267492,agence immobilier des calanques,ChIJT7-N39fnyRIRwSlolSfKlsg,"[u'real_estate_agency', u'point_of_interest', u'establishment']"
0,43.3925124,5.1996231,A.b Bois,ChIJX3e8OH3pyRIRQXGa0JXnXJk,"[u'general_contractor', u'point_of_interest', u'establishment']"
0,43.3951483,5.1943553,KDI,ChIJWwVXirPnyRIRuZqjAoJMHO8,"[u'point_of_interest', u'establishment']"
0,43.3943135,5.1980959,Espace 96,ChIJUbJ726XnyRIRIK_c0pESo1c,"[u'point_of_interest', u'establishment']"
0,43.4009045,5.2012647,Midi Piles Services,ChIJqeSF4UHpyRIRzTTaiMRAgDQ,"[u'store', u'point_of_interest', u'establishment']"
0,43.397914,5.199408,Auto G R - Pole AUTOmobiles,ChIJq5pQBDvmyRIR_njoTWtAxIE,"[u'car_dealer', u'store', u'point_of_interest', u'establishment']"
0,43.3967678,5.1987853,Alliance Piscines,ChIJq5pQBDvmyRIRsYoRpH4eGR4,"[u'point_of_interest', u'establishment']"
0,43.397837,5.199569,SARL AUTO GR (Dans le Pole Automobile),ChIJpbh7PLHnyRIRdu59duJ5SrI,"[u'car_dealer', u'car_repair', u'store', u'point_of_interest', u'establishment']"
0,43.4014024,5.2007484,Brossette,ChIJWwVXirPnyRIREp6gjqgODVs,"[u'general_contractor', u'point_of_interest', u'establishment']"
0,43.39931,5.201168,VSPLocation,ChIJzY1sqLbnyRIRAvgdzZrAUck,"[u'car_rental', u'point_of_interest', u'establishment']"
0,43.3943287,5.2025835,Point P Provence,ChIJVZ8qhXHpyRIRQMqZruItpMw,"[u'point_of_interest', u'establishment']"
0,43.3973667,5.2013878,Association Cultuelle Témoins Jehovah,ChIJq5pQBDvmyRIR2qKCEWPOzY8,"[u'place_of_worship', u'point_of_interest', u'establishment']"
0,43.38296,5.164636,Châteauneuf-les-Martigues,ChIJXQqlUDTnyRIR8AOX_aUZCAQ,"[u'locality', u'political']"
0,43.4118154,5.2360243,Private School Sainte-Marie,ChIJ94TMxI_oyRIRBm1S0JsEI_Q,"[u'school', u'point_of_interest', u'establishment']"
0,43.4144939,5.2355862,Dolcéa - Maison de retraite La Filosette,ChIJMaCIPZroyRIRK-CRQxK4Cco,"[u'hospital', u'point_of_interest', u'establishment']"
0,43.411181,5.237442,Envol et Garrigue APEAHM,ChIJ_e6K84_oyRIRv9uO5vZNdZs,"[u'point_of_interest', u'establishment']"
0,43.409496,5.22475,Cabinet d'Ostéopathie Rossi romain D.O.,ChIJn2ExuynmyRIR7CAv-iteIwI,"[u'health', u'point_of_interest', u'establishment']"
0,43.4068165,5.2264112,ECOLAVE lavage écologique automobile à domicile,ChIJAX01aSrmyRIR_pSQurIWYtI,"[u'car_wash', u'point_of_interest', u'establishment']"
0,43.4063496,5.2289232,Jasno Shutters,ChIJS2WlooHoyRIRnUrWfoPweN8,"[u'point_of_interest', u'establishment']"
0,43.4122413,5.2299142,Alliance Sud Expertise (ASE Marignane),ChIJJ-CAMoPoyRIR_8tnFj0FJ0g,"[u'health', u'finance', u'point_of_interest', u'establishment']"
0,43.4075675,5.227481,Sarl Entreprise Mathieu,ChIJM5O18IHoyRIRKRvDDwXIXfI,"[u'plumber', u'point_of_interest', u'establishment']"
0,43.4081314,5.2212837,MS Coiffure,ChIJv40X6i7myRIRF8hqS_r4ZcY,"[u'hair_care', u'point_of_interest', u'establishment']"
0,43.4075006,5.2273982,Red card's,ChIJM5O18IHoyRIR3a2GMoexrgA,"[u'clothing_store', u'store', u'point_of_interest', u'establishment']"
0,43.4045627,5.2277917,Afonso Goncalves Joan-manuel,ChIJWZVPOYDoyRIR7XXA8nr5b9Y,"[u'point_of_interest', u'establishment']"
0,43.407617,5.1984898,SIDERIS,ChIJr0BEWEzmyRIRujffU4gG5Xc,"[u'home_goods_store', u'store', u'point_of_interest', u'establishment']"
0,43.4088115,5.2004104,Effet Clim,ChIJ2XUB90vmyRIRDKQxjHZwMv8,"[u'plumber', u'general_contractor', u'point_of_interest', u'establishment']"
0,43.4078082,5.199501,Sun Logistics Sarl,ChIJSYb_9kvmyRIRCZ4OA9cpiFw,"[u'moving_company', u'point_of_interest', u'establishment']"
0,43.40852,5.2007299,Tubosider France,ChIJ2XUB90vmyRIRKzm1FkNMcyo,"[u'store', u'point_of_interest', u'establishment']"
0,43.4088462,5.2011317,Beton de France Sud Est,ChIJEQuM_EvmyRIRoo37hAKLjeM,"[u'general_contractor', u'point_of_interest', u'establishment']"
0,43.4073464,5.2027985,Gl Oxy,ChIJj_TmokvmyRIRebd-FPkiU-w,"[u'point_of_interest', u'establishment']"
0,43.4085075,5.201048,Carrara,ChIJ2XUB90vmyRIRIwno4861Sl4,"[u'moving_company', u'point_of_interest', u'establishment']"
0,43.4064337,5.2029647,SAM Menuiserie Marignane Aluminium PVC,ChIJZXzXAEvmyRIRgtHcFitN7Ic,"[u'point_of_interest', u'establishment']"
0,43.4414412,5.2215819,Daher,ChIJi28jHyfmyRIRMU79rcnPBWg,"[u'moving_company', u'point_of_interest', u'establishment']"
0,43.4415068,5.2236128,Avis Location Voiture Marseille Aeroport,ChIJ2-xlHf7lyRIRJBvm76jl6vc,"[u'car_rental', u'point_of_interest', u'establishment']"
0,43.444304,5.212347,Aéroclub Marseille Provence,ChIJUWUOSuLlyRIRaLQ9flBfoAk,"[u'point_of_interest', u'establishment']"
0,43.4414412,5.2215819,Marmara,ChIJEWd8qwDmyRIRAEd_hORUb7Q,"[u'travel_agency', u'point_of_interest', u'establishment']"
0,43.4424785,5.2221816,Parking P2 Aéroport Marseille Provence,ChIJF4IsyP_lyRIRzwm2kzIUsBI,"[u'parking', u'point_of_interest', u'establishment']"
0,43.4439661,5.2221373,Parking P3 Aéroport Marseille Provence,ChIJPyxAUvnlyRIRphoClQkdhCg,"[u'parking', u'point_of_interest', u'establishment']"
0,43.4419431,5.2228896,Parking P1 Aéroport Marseille Provence,ChIJF4IsyP_lyRIRXk2Q99jH12s,"[u'parking', u'point_of_interest', u'establishment']"
0,43.444871,5.220705,SCHENKER SA,ChIJX6_pOvzlyRIRAVkahrlBcAc,"[u'point_of_interest', u'establishment']"
0,43.4434432,5.2193236,MP2,ChIJ1fXVWvzlyRIRzY9JRni3Jn4,"[u'airport', u'point_of_interest', u'establishment']"
0,43.4414412,5.2215819,Air Cargo International,ChIJi28jHyfmyRIRe1zvspK-dqo,"[u'point_of_interest', u'establishment']"
0,43.458598,5.249703,Vitrolles,ChIJJdMaTCbvyRIRQP6W_aUZCAQ,"[u'locality', u'political']"
0,43.4401265,5.2240581,Parking P6 Aéroport Marseille Provence,ChIJpU9cZgDmyRIRoYafG7qo2IM,"[u'parking', u'point_of_interest', u'establishment']"
0,43.4417395,5.223645,Europcar - Aéroport Marseille Provence,ChIJmRGNlgjmyRIRgg6ujFvLggM,"[u'car_rental', u'point_of_interest', u'establishment']"
0,43.4415475,5.2233877,Hertz - Marseille Aéroport,ChIJR2cogwDmyRIRYjXJqhocT9k,"[u'car_rental', u'point_of_interest', u'establishment']"
0,43.442,5.227533,Selecta,ChIJJYVbSFXvyRIRD9vmxbIuAOg,"[u'food', u'point_of_interest', u'establishment']"
0,43.4414254,5.2237459,Budget Location de Voitures Marseille Aeroport,ChIJsYp8qwDmyRIRHhPc0VvAwZ4,"[u'car_rental', u'point_of_interest', u'establishment']"
0,43.4412367,5.2253229,Parking P10 Aéroport Marseille Provence,ChIJOQ9UbADmyRIRLHHxk8eTEHQ,"[u'parking', u'point_of_interest', u'establishment']"
0,43.4417544,5.2236305,Enterprise Rent-A-Car (Citer),ChIJb8imAv7lyRIRKbPu4FhVqFY,"[u'car_rental', u'point_of_interest', u'establishment']"
0,43.4414412,5.2215819,Post Office,ChIJEWd8qwDmyRIRYHbv9f0dAXs,"[u'post_office', u'finance', u'point_of_interest', u'establishment']"
0,43.4414412,5.2215819,Gondrand Frères,ChIJi28jHyfmyRIRSRTpxb6JRP4,"[u'moving_company', u'point_of_interest', u'establishment']"
0,43.4414412,5.2215819,Douanes,ChIJEWd8qwDmyRIRr9lUglMpF3o,"[u'point_of_interest', u'establishment']"
0,43.4414412,5.2215819,Shell,ChIJEWd8qwDmyRIRvol4q7_nqW4,"[u'point_of_interest', u'establishment']"
0,43.4357489,5.1959915,Insomnie (Fermé),ChIJ0eJJUnDmyRIR5YDdzpt-yBw,"[u'point_of_interest', u'establishment']"
0,43.4365163,5.1944216,Yacht Club Marignanais,ChIJ_3MEcnrmyRIRHN7NCIjfdMs,"[u'point_of_interest', u'establishment']"
0,43.438555,5.198851,J2MC nautisme,ChIJjxFnkHDmyRIRElMX8yJ8_Qk,"[u'point_of_interest', u'establishment']"
0,43.43569,5.1940537,Activités Subaquatiques Marignane,ChIJsYkCeXrmyRIRB33G0rBm-2w,"[u'point_of_interest', u'establishment']"
0,43.4357489,5.1959915,Le Labo,ChIJ0eJJUnDmyRIRF4QaLvq9Tng,"[u'point_of_interest', u'establishment']"
0,43.4353412,5.1936111,La Galère,ChIJfyC1tGTmyRIRv0726BxwbYc,"[u'restaurant', u'food', u'point_of_interest', u'establishment']"
0,43.4298529,5.2396471,La Sochalienne,ChIJIdfi8rroyRIRCHFltyNkICA,"[u'car_dealer', u'store', u'point_of_interest', u'establishment']"
0,43.4197823,5.2355877,Nicolas Devine DO mROF,ChIJCzDmSZjoyRIR89zjOzRXTeI,"[u'health', u'point_of_interest', u'establishment']"
0,43.4229752,5.2391508,Auto Export Ivanov,ChIJ52oKDb3oyRIRqHn_-ZTcBio,"[u'car_repair', u'point_of_interest', u'establishment']"
0,43.423409,5.2359778,Hammam Onsen Spa,ChIJWUpKVZ_oyRIR3ozRxAUXHT4,"[u'beauty_salon', u'spa', u'store', u'point_of_interest', u'establishment']"
0,43.4306003,5.235555,Eurosud Airbus Helicopters,ChIJn4acZKXoyRIR8v-VB4vELpw,"[u'point_of_interest', u'establishment']"
0,43.4270887,5.2371848,Surplus Auto,ChIJs-VzUrvoyRIRz2ai8J84Vb4,"[u'car_repair', u'point_of_interest', u'establishment']"
0,43.4271972,5.2374099,Démolisseur automobile Agréé,ChIJeVdtUrvoyRIR_g4-uGQ14q4,"[u'point_of_interest', u'establishment']"
0,43.4233411,5.2359027,Cob'n Sport,ChIJqTAC6qLoyRIRgQx-H46v6Hw,"[u'gym', u'health', u'point_of_interest', u'establishment']"
0,43.421637,5.232027,Le Carrefour,ChIJP_i7dZ_oyRIRS1PUd3nG23g,"[u'bar', u'lodging', u'restaurant', u'food', u'point_of_interest', u'establishment']"
0,43.423263,5.2343505,BOVERO AUTOMOBILES,ChIJ82u4X6LoyRIRMTTN_kdfzlo,"[u'car_dealer', u'car_repair', u'store', u'point_of_interest', u'establishment']"
0,43.4227145,5.23796,B&B Hôtel Marseille Aéroport Saint-Victoret,ChIJf1rqv6LoyRIR_Bj-Y_F5wkg,"[u'lodging', u'point_of_interest', u'establishment']"
0,43.428335,5.236903,Restaurant La Tour,ChIJr0r5zaToyRIR6HYBpZ47oeY,"[u'restaurant', u'food', u'point_of_interest', u'establishment']"
0,43.4216235,5.2314672,Immobilière de la résidence - Marignane,ChIJbz3cVZ_oyRIR5JBIc7BtRRo,"[u'real_estate_agency', u'point_of_interest', u'establishment']"
0,43.4269205,5.2381722,Filpack Sud,ChIJRwgBXLvoyRIRnWQJttJKXCs,"[u'food', u'store', u'point_of_interest', u'establishment']"
0,43.423545,5.2342409,UCAR Marignane,ChIJRZONjaLoyRIR5QGg5omyI4M,"[u'car_rental', u'point_of_interest', u'establishment']"
0,43.4318471,5.1904319,Extrem-piscine,ChIJDQVrm2TmyRIRa86CH7w37R8,"[u'furniture_store', u'home_goods_store', u'store', u'point_of_interest', u'establishment']"
0,43.4300185,5.1884597,Accueil Accent Provence,ChIJLYanuGPmyRIRAKmK2jooqLY,"[u'point_of_interest', u'establishment']"
0,43.43195,5.190468,2C Traiteur,ChIJbxhKmmTmyRIRXzlzL_g9Drg,"[u'food', u'point_of_interest', u'establishment']"
0,43.4306414,5.1873884,Studio Soluna,ChIJ0cp7TWLmyRIRK5o-JNCoPn8,"[u'point_of_interest', u'establishment']"
0,43.4305993,5.1873347,Houdet Christopher,ChIJx4QJTWLmyRIRAWMAAHFplKs,"[u'point_of_interest', u'establishment']"
0,43.427998,5.1854298,AUDIBERT PAYSAGE,ChIJJUvh5WHmyRIR8QL1-y9r4D8,"[u'general_contractor', u'point_of_interest', u'establishment']"
0,43.4322077,5.1896387,Amitech,ChIJ4U9RZmPmyRIRayGSJOSedKw,"[u'electrician', u'point_of_interest', u'establishment']"
0,43.4322309,5.188906,Zen Par Nature,ChIJqVpXaGPmyRIRTmFIu8BnjBU,"[u'point_of_interest', u'establishment']"
0,43.426927,5.184019,fashion-photo,ChIJrxYLZIrmyRIRl9OdKZ63td4,"[u'point_of_interest', u'establishment']"
0,43.4269275,5.1840191,Le Jaï,ChIJrxYLZIrmyRIRnL2l5Y8qCs4,"[u'campground', u'park', u'lodging', u'point_of_interest', u'establishment']"
0,43.4264223,5.1826921,Camping Le Jaï,ChIJpQFmZormyRIRqX09UH0Y7-U,"[u'campground', u'park', u'lodging', u'point_of_interest', u'establishment']"
0,43.4233178,5.1975384,La Scala Laëtitia,ChIJU1c-DELmyRIRPKhptxNRpmk,"[u'beauty_salon', u'point_of_interest', u'establishment']"
0,43.4235225,5.1988815,George Laurie,ChIJ822SYELmyRIRY2nZzNhu16Y,"[u'point_of_interest', u'establishment']"
0,43.423721,5.178981,piercing kor 2 métal,ChIJ690iRfPmyRIROUN8vNvqlN4,"[u'point_of_interest', u'establishment']"
0,43.4095368,5.1901904,CMS Tir,ChIJpQBbVVHmyRIR4XmMyPeOibs,"[u'point_of_interest', u'establishment']"
0,43.4251897,5.1828188,Belaval Frederic,ChIJkykYIYvmyRIRpAhH3xUaMrI,"[u'point_of_interest', u'establishment']"
0,43.4245912,5.1819988,Mercelat Damien,ChIJz_z-K4vmyRIRTOhqClG33jE,"[u'point_of_interest', u'establishment']"
0,43.423721,5.178981,Plage du Jai,ChIJ690iRfPmyRIRcJT4RNA1us0,"[u'point_of_interest', u'establishment']"
0,43.4256639,5.1830457,Galise Remi,ChIJDamU6IrmyRIRy_-kLKs4AqY,"[u'point_of_interest', u'establishment']"
0,43.39389,5.23597,Société Générale,ChIJY9kqvHroyRIR5a8zu1jz9lw,"[u'bank', u'atm', u'finance', u'point_of_interest', u'establishment']"
0,43.396954,5.234083,Aqua Evasion,ChIJTTaambHdyRIRwYzSAu_TrMk,"[u'store', u'point_of_interest', u'establishment']"
0,43.3956249,5.2350642,Private School Saint Louis,ChIJy-_58QzpyRIR8msW9ZDai20,"[u'school', u'point_of_interest', u'establishment']"
0,43.393377,5.235573,Mairie de Gignac-la-Nerthe,ChIJ-SwUBHHoyRIRIMhiijai5Lc,"[u'city_hall', u'local_government_office', u'point_of_interest', u'establishment']"
0,43.3957,5.239,Sécuritest - Sarl auto controle 2000,ChIJc0dp4XDoyRIRVQ8E89fWAtY,"[u'car_repair', u'store', u'point_of_interest', u'establishment']"
0,43.3938676,5.2358082,Immobiliere Le Cabanon,ChIJLwAFvXroyRIR7zuisOUrZic,"[u'real_estate_agency', u'point_of_interest', u'establishment']"
0,43.3943042,5.2320473,Société Nouvelle Borel et Féraud,ChIJB1DFH3royRIRawrJwFsiyRQ,"[u'store', u'point_of_interest', u'establishment']"
0,43.3981028,5.2310374,Di Chiappari Gilbert,ChIJAaZes37oyRIRPRDHRmDiFjI,"[u'point_of_interest', u'establishment']"
0,43.395728,5.2298203,Quincaillerie P. Favier,ChIJr2QYqHnoyRIRZBe4pyGPM6k,"[u'hardware_store', u'store', u'point_of_interest', u'establishment']"
0,43.3993206,5.2316583,Tradi Charpentes,ChIJD_p6n37oyRIRNXtKEFkJ0PE,"[u'point_of_interest', u'establishment']"
0,43.3934232,5.2312212,La Clef des Songes,ChIJo2F8-nnoyRIR2G8ZhbjQGA8,"[u'point_of_interest', u'establishment']"
0,43.3956409,5.2322975,FRED 13 ELEC SERVICES. Frédéric TRAVERSARI,ChIJUdmf03voyRIRo8axv93tBWo,"[u'electrician', u'point_of_interest', u'establishment']"
0,43.40052,5.19331,Elevage et chiot yorkshire,ChIJo4Bixa3nyRIRJxE5osOiYuA,"[u'point_of_interest', u'establishment']"
0,43.3941209,5.1966996,Alu Vigouroux,ChIJq5pQBDvmyRIRlgrWsoqmkRU,"[u'store', u'point_of_interest', u'establishment']"
0,43.396836,5.198773,Gardiennage Europa Caravaning Serv,ChIJxejvA7HnyRIRVvYjiFxNw2s,"[u'storage', u'point_of_interest', u'establishment']"
0,43.3936906,5.1909985,Houra,ChIJa81PwqXnyRIR8ekxk7oak7I,"[u'point_of_interest', u'establishment']"
0,43.3969224,5.1983515,Eden Blue,ChIJq5pQBDvmyRIRIEBCsehl0W8,"[u'point_of_interest', u'establishment']"
0,43.400521,5.193313,Purmet Transport,ChIJNaIMz63nyRIR-KHz6fjxGLg,"[u'point_of_interest', u'establishment']"
0,43.3980036,5.1965667,Derichebourg Environnement,ChIJB4QTx7HnyRIRf6gy_qvGI9E,"[u'point_of_interest', u'establishment']"
0,43.3972302,5.1894404,Pierdon Evelyne,ChIJNaIMz63nyRIRsOaGfa8RAAU,"[u'point_of_interest', u'establishment']"
0,43.4136916,5.2431882,Mairie,ChIJCe7fbpPoyRIRqFtc2r1deqg,"[u'local_government_office', u'point_of_interest', u'establishment']"
0,43.4120107,5.2378945,Nursery School Jean Cocteau,ChIJcdeH95royRIRyGhRuZ67NoU,"[u'school', u'point_of_interest', u'establishment']"
0,43.4114022,5.2388263,A.p.e.a.h.m,ChIJ94TMxI_oyRIRGPhaiXax2aU,"[u'point_of_interest', u'establishment']"
0,43.4126813,5.2444663,AQUARIOSHOP.COM,ChIJ4W8eZJLoyRIRN1zDfM_pvhY,"[u'store', u'point_of_interest', u'establishment']"
0,43.4153165,5.2432097,Impact Karate Club,ChIJvzZuMJLoyRIRR8YguM51k_w,"[u'health', u'point_of_interest', u'establishment']"
0,43.4109367,5.2461325,Mairie,ChIJ45XzN5joyRIRiatEeQ8YIXA,"[u'city_hall', u'local_government_office', u'point_of_interest', u'establishment']"
0,43.4104292,5.2486657,Docteur Thierry SAGE,ChIJJ17xwPLoyRIRqXjpTWEk3Vc,"[u'doctor', u'health', u'point_of_interest', u'establishment']"
0,43.4136916,5.2431882,FC SAINT VICTORET,ChIJNaz315PoyRIRqEFtXkVpB3o,"[u'point_of_interest', u'establishment']"
0,43.40765,5.230469,Sun Autos Ventes,ChIJObElYIHoyRIRkoeUTMTqc1k,"[u'car_dealer', u'store', u'point_of_interest', u'establishment']"
0,43.414176,5.234792,Mairie,ChIJh6SZ_JroyRIReIyI1PHVxP4,"[u'local_government_office', u'point_of_interest', u'establishment']"
0,43.403838,5.2318919,Sani-sav,ChIJWUErS4foyRIRJcrjcb_KpTw,"[u'point_of_interest', u'establishment']"
0,43.4042797,5.2472765,CRT,ChIJ3Vebgn3oyRIRTRk7uAgo2IA,"[u'general_contractor', u'point_of_interest', u'establishment']"
0,43.414461,5.24665,Auto Sécurité - Auto bilan abbadie,ChIJr_nPC5PoyRIRvw51hMOSf8Y,"[u'car_repair', u'store', u'point_of_interest', u'establishment']"
0,43.410353,5.248669,Clinéa - Clinique l'Escale,ChIJA17xwPLoyRIR9vZtfs2QblU,"[u'health', u'point_of_interest', u'establishment']"
0,43.4147573,5.2461963,Asia D'ko,ChIJTWB_CpPoyRIRSlivrJU-wdc,"[u'grocery_or_supermarket', u'food', u'store', u'point_of_interest', u'establishment']"
0,43.407961,5.1932029,13700,ChIJWYUZSVLmyRIRL3se7NecXrk,"[u'parking', u'point_of_interest', u'establishment']"
0,43.407115,5.193464,unnamed,ChIJ13XLWVLmyRIRWobkPoc9a7U,"[u'point_of_interest', u'establishment']"
0,43.4080202,5.193623,Skatepark de Marignane,ChIJi6K5X1HmyRIR6Fg-WH0Muyk,"[u'point_of_interest', u'establishment']"
0,43.4108233,5.1947537,Espasa Eric,ChIJ-ypa21HmyRIRdfKmLy_JoI4,"[u'point_of_interest', u'establishment']"
0,43.4104159,5.1949599,Cremona Marie-Noëlle,ChIJp4Lr5lHmyRIRl_xLygBACps,"[u'doctor', u'health', u'point_of_interest', u'establishment']"
0,43.4098507,5.1954894,Audureau Feraud Magali Nelly Beatrix,ChIJzQW9Ak7myRIRldzpVUvBHRI,"[u'hair_care', u'point_of_interest', u'establishment']"
0,43.4107508,5.195454,Sidolle Eric,ChIJ_W40IU7myRIRJ3JRpT-k0mE,"[u'point_of_interest', u'establishment']"
0,43.408704,5.196752,Diaccess Fermetures,ChIJW4AT3U3myRIR9tjI5VgXiWg,"[u'point_of_interest', u'establishment']"
0,43.410263,5.196809,Sid Mohamed,ChIJmzv-ak7myRIRXCMxfiyrV58,"[u'point_of_interest', u'establishment']"
0,43.4106905,5.1966982,taillefond,ChIJs25VRk7myRIRdpah0Ms550U,"[u'point_of_interest', u'establishment']"
0,43.4100165,5.1970231,Valente Antonio,ChIJYfBSbE7myRIRVBct5b9yCqQ,"[u'general_contractor', u'point_of_interest', u'establishment']"
0,43.4069,5.1890919,Bastide de la Palun,ChIJ9bLti1TmyRIRThquphMT9L0,"[u'premise', u'point_of_interest', u'establishment']"
0,43.443797,5.227078,Best Western Hotel Marseille Aeroport,ChIJfZDqeFXvyRIR9-RSXmFuh9c,"[u'lodging', u'restaurant', u'food', u'point_of_interest', u'establishment']"
0,43.446136,5.2265309,Hotel Pullman Marseille Provence Aeroport,ChIJmRGNlgjmyRIRuNCPCuFd2aM,"[u'lodging', u'point_of_interest', u'establishment']"
0,43.446026,5.225887,Hotel ibis budget Aéroport Marseille Provence,ChIJ4cVT8iLmyRIRfYMFeYW2c94,"[u'lodging', u'point_of_interest', u'establishment']"
0,43.4477629,5.2311773,hotelF1 Marseille Aéroport,ChIJcaTDMFHvyRIRT1DrH9FR0jY,"[u'lodging', u'point_of_interest', u'establishment']"
0,43.444421,5.233324,My Suite Airport,ChIJPy7IvVPvyRIRybNYSzLLDyI,"[u'lodging', u'point_of_interest', u'establishment']"
0,43.443645,5.227875,Thales Avionics,ChIJFd7pdFXvyRIRpWy7ZoTEKKk,"[u'point_of_interest', u'establishment']"
0,43.4440239,5.211766,Camas Formation Marseille,ChIJ531uMOLlyRIRvgk9pN8A_vI,"[u'point_of_interest', u'establishment']"
0,43.4443536,5.213247,AVIAPARTNER EXECUTIVE FBO MARSEILLE,ChIJEz6dU-LlyRIRaY3nHlqMh8g,"[u'point_of_interest', u'establishment']"
0,43.4443935,5.2133701,Terminal Aviation Générale,ChIJT6OSVOLlyRIRV8pBsSbQZDk,"[u'airport', u'point_of_interest', u'establishment']"
0,43.4447808,5.2135796,Ups Zone De Frete De L Aeroport,ChIJRzYDquPlyRIRQpcvuN9X4FQ,"[u'point_of_interest', u'establishment']"
0,43.4367688,5.2012609,Rexiaa - Site Du Jaï,ChIJ5SF76HPmyRIRwo_hGwUVB9U,"[u'point_of_interest', u'establishment']"
0,43.4416869,5.2338642,Comfort Hotel Marseille Airport,ChIJR45k_VLvyRIRpkihfRK5uNM,"[u'lodging', u'point_of_interest', u'establishment']"
0,43.4354173,5.2376337,Michaud Chailly Vitrolles,ChIJcy5FnLHoyRIRfh5Of5AepmA,"[u'point_of_interest', u'establishment']"
0,43.4338497,5.2409714,LE FIVE VITROLLES,ChIJi4A-IrHoyRIRunoYLEGNeYI,"[u'point_of_interest', u'establishment']"
0,43.4362281,5.2412273,Fedex,ChIJUROi_rPoyRIRpkfyq-ddHEc,"[u'point_of_interest', u'establishment']"
0,43.4417977,5.235298,SDV Logistique International,ChIJJYVbSFXvyRIRyVz5N7hh7kE,"[u'moving_company', u'point_of_interest', u'establishment']"
0,43.4306023,5.2377206,Espace Concorde,ChIJu7fq6rroyRIRoavMKxpz-_A,"[u'restaurant', u'bar', u'food', u'point_of_interest', u'establishment']"
0,43.4355755,5.2396617,Savi,ChIJyQkjnbHoyRIRKGMBCpPWGls,"[u'car_rental', u'point_of_interest', u'establishment']"
0,43.4310958,5.2371533,Dépannage Gaz,ChIJ-96cRBXvyRIRrkK6FegRJs4,"[u'plumber', u'general_contractor', u'point_of_interest', u'establishment']"
0,43.435746,5.193501,13700,ChIJ83XE93rmyRIRwtjuOYhvQrI,"[u'point_of_interest', u'establishment']"
0,43.4352993,5.192984,Festi Jaï,ChIJs5Lq_HrmyRIRWucSO0hKHow,"[u'restaurant', u'food', u'point_of_interest', u'establishment']"
0,43.435357,5.1926439,13700,ChIJWX_xAnvmyRIRjI0AAXdNJ4U,"[u'parking', u'point_of_interest', u'establishment']"
0,43.427117,5.183868,Pupin Wallart Maryse,ChIJpQFmZormyRIRISCvy8z5d90,"[u'home_goods_store', u'store', u'point_of_interest', u'establishment']"
0,43.4280802,5.1855161,Duffaut Anthony,ChIJh8Pl5WHmyRIRIChoHA_zmFk,"[u'point_of_interest', u'establishment']"
0,43.4291652,5.1863104,Lahaye Barroso Regine,ChIJ2X5QI2LmyRIRBczoOgH1C3Q,"[u'general_contractor', u'point_of_interest', u'establishment']"
0,43.4297185,5.1866913,Maury Robert,ChIJbwUUO2LmyRIRubKDbMx86GU,"[u'point_of_interest', u'establishment']"
0,43.3933451,5.239183,Association Tennis Club Gignac,ChIJm97bVGXoyRIRbeusTiXpBsY,"[u'health', u'point_of_interest', u'establishment']"
0,43.3972124,5.2479673,Auto Casse Gignac,ChIJQWPJ5l3oyRIRyPNZjRv65rM,"[u'car_repair', u'store', u'point_of_interest', u'establishment']"
0,43.4002386,5.2447145,La Goutte d'Eau,ChIJ4Qjdq2HoyRIRtSUyYPsWoyE,"[u'health', u'point_of_interest', u'establishment']"
0,43.3964051,5.2416921,Deco Granit,ChIJ_fKtGGToyRIR_h8FILlawm8,"[u'point_of_interest', u'establishment']"
0,43.3929191,5.2359244,Caisse d'Epargne Gignac la Nerthe,ChIJAfS7zCPoyRIRNDUOfqHtIBA,"[u'bank', u'atm', u'finance', u'point_of_interest', u'establishment']"
0,43.399396,5.245124,CHAUSS'FIGHT - siège administratif,ChIJuwFM_GDoyRIRsAXfFj00mU8,"[u'gym', u'health', u'point_of_interest', u'establishment']"
0,43.3933224,5.2409862,Cabinet K2D Expertises,ChIJa1tthmXoyRIRlCBDWGMoEiU,"[u'finance', u'point_of_interest', u'establishment']"
0,43.3964361,5.2419498,Navarro Piscines,ChIJBZ2jGGToyRIRY7tLt_GOncA,"[u'general_contractor', u'point_of_interest', u'establishment']"
0,43.39754,5.2459646,Alliance Construction,ChIJA2bpxWDoyRIR_ucDCvBBES8,"[u'general_contractor', u'point_of_interest', u'establishment']"
0,43.399701,5.239597,Garage des Granettes A Pin,ChIJK8s6B2PoyRIRczW8aAieoqY,"[u'car_repair', u'point_of_interest', u'establishment']"
