,Latitude,Longitude,Name,Place_id,Type
0,43.296482,5.36978,Marseille,ChIJM1PaREO_yRIRIAKX_aUZCAQ,"[u'locality', u'political']"
0,43.2338286,5.4427707,C.I.M.L.,ChIJZeFRSam5yRIRbcyS0mULrQA,"[u'university', u'point_of_interest', u'establishment']"
0,43.2338306,5.4427707,Centre d'Immunologie Marseille-Luminy,ChIJdSpuzK65yRIRr3C8hdzyMrU,"[u'point_of_interest', u'establishment']"
0,43.2336117,5.4448199,CRVM - Centre de Réalité Virtuelle de la Méditerranée,ChIJ8YNJKq-5yRIR5rpIEqzqm_8,"[u'university', u'point_of_interest', u'establishment']"
0,43.2290357,5.4463322,Orsud Océans,ChIJS_9M8YC4yRIRHUwCdOOnC1I,"[u'travel_agency', u'real_estate_agency', u'point_of_interest', u'establishment']"
0,43.2329671,5.4451073,Institut des Sciences du Mouvement E.J. Marey (ISM UMR AMU/CNRS),ChIJq53HQK-5yRIRXThtOavGwiE,"[u'university', u'point_of_interest', u'establishment']"
0,43.23268,5.443396,Sébastien Mavromatis (Polytech Marseille - LSIS),ChIJ7YRhaNrAyRIRlIFeILTXCSk,"[u'university', u'point_of_interest', u'establishment']"
0,43.2333362,5.4440837,LP3 Laboratory (CNRS / Aix-Marseille Univ.),ChIJ-YjwJa-5yRIRVS7QiVGAPMc,"[u'point_of_interest', u'establishment']"
0,43.230846,5.4416805,APEM,ChIJbzdGSlW4yRIRLOK5804J6mc,"[u'point_of_interest', u'establishment']"
0,43.230796,5.445759,Tous Chercheurs,ChIJnQDAj6-5yRIRHxkHoeo8_N8,"[u'point_of_interest', u'establishment']"
0,43.2290357,5.4463322,LE DRESSING DE CECILE,ChIJq6qqqrq5yRIRXo6K5wcoi6w,"[u'point_of_interest', u'establishment']"
0,43.2290357,5.4463322,GESPRO,ChIJKWiwz4C4yRIRRfRGDaUwgNw,"[u'point_of_interest', u'establishment']"
0,43.234682,5.441644,Laboratoire Information Génomique et Structurale (CNRS),ChIJlQt2UKm5yRIRz_QLFUrJEs8,"[u'point_of_interest', u'establishment']"
0,43.2290357,5.4463322,Raffaele COSTANTINO,ChIJq6qqqrq5yRIR6HYhou_AyMs,"[u'point_of_interest', u'establishment']"
0,43.2290357,5.4463322,MOUVEMENT ECOLOGIQUE IVOIRIEN,ChIJq6qqqrq5yRIRI1ZrGdo0MX8,"[u'point_of_interest', u'establishment']"
0,43.2290357,5.4463322,Club HABITAT Immobilier,ChIJq6qqqrq5yRIRuUY-6P5sGlk,"[u'real_estate_agency', u'point_of_interest', u'establishment']"
0,43.2290357,5.4463322,Gede de Marseille,ChIJq6qqqrq5yRIROGQ9LuLFzQw,"[u'point_of_interest', u'establishment']"
0,43.230821,5.444068,Rénovation et décoration MANOUKIAN,ChIJI3iEsa-5yRIRkDHCvSRToh8,"[u'point_of_interest', u'establishment']"
0,43.2299629,5.4429622,Centre International de Rencontres Mathématiques,ChIJbzdGSlW4yRIRUyODpNTS5n8,"[u'point_of_interest', u'establishment']"
0,43.2290357,5.4463322,9th arrondissement of Marseille,ChIJHfQExaC5yRIRQBqY_aUZCAU,"[u'sublocality_level_1', u'sublocality', u'political']"
0,43.2275884,5.4449101,Médecine Universitaire,ChIJtwcnQrC5yRIRRF_QtyT3r9I,"[u'university', u'point_of_interest', u'establishment']"
0,43.2290739,5.4451579,Cité Universitaire Luminy - Batiment D,ChIJ_c3WH7C5yRIRR_icEf_MuSk,"[u'point_of_interest', u'establishment']"
0,43.2293397,5.4451579,A-R-M-U-R-E-R-I-E Redon,ChIJm5Db4K-5yRIRq-u_qSr4rj4,"[u'furniture_store', u'home_goods_store', u'store', u'point_of_interest', u'establishment']"
0,43.1212872,5.4777811,Parc national des Calanques,ChIJcfh3JWSyyRIRB4w9YSjvWOs,"[u'premise', u'park', u'point_of_interest', u'establishment']"
0,43.2493455,5.4521911,New Vaufreges,ChIJKVuoGRK5yRIRXSFiXDB0o4w,"[u'point_of_interest', u'establishment']"
0,43.2471559,5.4548475,institut paoli calmette marseille,ChIJD_XVcQ25yRIRQrD4TjtiXIw,"[u'health', u'point_of_interest', u'establishment']"
0,43.2466877,5.4557315,Raoult Joel,ChIJjVqUSA25yRIRH0SXLE9NTjg,"[u'point_of_interest', u'establishment']"
0,43.246478,5.4552764,Duchier Frederic,ChIJneH1FA25yRIRmpPOyAxVSqs,"[u'point_of_interest', u'establishment']"
0,43.2472028,5.4541949,Contrôle Acoustique Environnement,ChIJqSZdYw25yRIR6j9Tq13LpVI,"[u'real_estate_agency', u'point_of_interest', u'establishment']"
0,43.2485333,5.4536978,Lisbonis Chaux Grasses,ChIJrY7YehK5yRIRRSVo-uzSDN4,"[u'point_of_interest', u'establishment']"
0,43.2485333,5.4536978,L C G,ChIJaenYehK5yRIR3YWy83Zb-2k,"[u'point_of_interest', u'establishment']"
0,43.2489819,5.44983,Jauffret Christine,ChIJtdpfxxG5yRIR_aw5vt1RFk4,"[u'point_of_interest', u'establishment']"
0,43.2487315,5.4488926,Brisson Jean Charles,ChIJ1aKxahC5yRIR39qUf4gEB2g,"[u'point_of_interest', u'establishment']"
0,43.2493969,5.4509208,Garage Services La Gineste,ChIJ1QYkexK5yRIRq13zQxnKYX4,"[u'car_repair', u'point_of_interest', u'establishment']"
0,43.2493969,5.4509208,Dubus Georges,ChIJ1QYkexK5yRIRPzntoZVXlyc,"[u'point_of_interest', u'establishment']"
0,43.2495034,5.4523122,Sci Lachamp,ChIJKVuoGRK5yRIRsVSVWoxhDtY,"[u'real_estate_agency', u'point_of_interest', u'establishment']"
0,43.2495034,5.4523123,Le domaine des calanques,ChIJ7TGWPBK5yRIReu9UC8gnKAQ,"[u'point_of_interest', u'establishment']"
0,43.2495034,5.4523122,Salon Vaufrèges,ChIJJzMuORK5yRIRqqUj4gH0swA,"[u'point_of_interest', u'establishment']"
0,43.249362,5.4498557,Sci Jauffret Patrimoine,ChIJtdpfxxG5yRIRYXDxYglVatk,"[u'point_of_interest', u'establishment']"
0,43.246662,5.4602703,Tramoni Lunardi Claude,ChIJyQdycRC5yRIRfzN5EnlQcfE,"[u'point_of_interest', u'establishment']"
0,43.2491483,5.447705,Capitta Jean Baptiste Pierre,ChIJxdOOahC5yRIRJg0jwA2ZCaQ,"[u'store', u'point_of_interest', u'establishment']"
0,43.2494943,5.4477283,JCB Beauty Group Brisson Jean Charles,ChIJ1aKxahC5yRIRZwAOt1KMIlQ,"[u'store', u'point_of_interest', u'establishment']"
0,43.2356826,5.4391017,Eurofins Biotech-Germande,ChIJbzdGSlW4yRIRubLW5a82v_k,"[u'health', u'point_of_interest', u'establishment']"
0,43.2315892,5.4403883,Centre de Physique Théorique,ChIJQ2Oota25yRIRD7SpBEs3Z9M,"[u'point_of_interest', u'establishment']"
0,43.232356,5.433561,Kedge Business School - Campus Luminy,ChIJ42okdwC5yRIRcLoa7Slt8QU,"[u'university', u'school', u'point_of_interest', u'establishment']"
0,43.2314739,5.4396339,Faculty Of Science De Luminy,ChIJZ2zwuK25yRIRiwT70B4vm5A,"[u'point_of_interest', u'establishment']"
0,43.235081,5.438689,Association Grand Luminy,ChIJbzdGSlW4yRIRzQjNAsayHAI,"[u'point_of_interest', u'establishment']"
0,43.232767,5.43291,Les Estudines Marseille Colline de Luminy,ChIJp_yHpVO4yRIRHZQV2evTw40,"[u'point_of_interest', u'establishment']"
0,43.232171,5.4389232,Bibliothèque Universitaire de Sciences de Luminy,ChIJ14joTay5yRIRoj4VW5ViqjU,"[u'library', u'point_of_interest', u'establishment']"
0,43.2294866,5.4356011,GARGANTUART,ChIJbzdGSlW4yRIRrwtXqizkM34,"[u'bar', u'restaurant', u'food', u'point_of_interest', u'establishment']"
0,43.230846,5.4416805,Inserm,ChIJL7HcewC5yRIR_L9mPjCE7-w,"[u'health', u'point_of_interest', u'establishment']"
0,43.2318786,5.4332652,Marketing Mediterranee,ChIJQ6rLdFO4yRIRPzfuCJJMt0M,"[u'point_of_interest', u'establishment']"
0,43.239196,5.437428,Sogeres,ChIJbzdGSlW4yRIRPWtrd9mqmPc,"[u'restaurant', u'food', u'point_of_interest', u'establishment']"
0,43.2320253,5.4388755,S.U.I.O.,ChIJ4TuVU6y5yRIR7DazwIad5WU,"[u'university', u'point_of_interest', u'establishment']"
0,43.230867,5.441107,Centre de Physique des Particules de Marseille,ChIJzWEfdq65yRIRb2gnXHbjPkE,"[u'point_of_interest', u'establishment']"
0,43.2121348,5.4543562,Calanque de Sugiton,ChIJu311U8K5yRIRUp5lkYKWErY,"[u'point_of_interest', u'establishment']"
0,43.213172,5.443389,Bar Nautic Restaurant,ChIJcSPfk865yRIR0XSn0xBogjQ,"[u'bar', u'restaurant', u'food', u'point_of_interest', u'establishment']"
0,43.2126653,5.4448558,Plage sauvage,ChIJdWhVDM-5yRIRO2njk-xg5Uo,"[u'museum', u'point_of_interest', u'establishment']"
0,43.2275284,5.4397295,Centre Culturel de Luminy,ChIJPQ_RRrK5yRIRcl-IjrHigeg,"[u'point_of_interest', u'establishment']"
0,43.230846,5.4416805,Société Mathématique de France,ChIJbzdGSlW4yRIREIb6P_qJBrE,"[u'point_of_interest', u'establishment']"
0,43.2295385,5.4344372,Ecole Nationale Supérieure d'Architecture de Marseille,ChIJbzdGSlW4yRIRoj0TdbmjGSo,"[u'point_of_interest', u'establishment']"
0,43.2316944,5.4407594,IBDM,ChIJ6Xpwfq65yRIR7lCW70xy524,"[u'university', u'point_of_interest', u'establishment']"
0,43.2491594,5.4418793,Marseille Provence Remorquage,ChIJjwXAmRq5yRIRzj2RwNCXx1k,"[u'point_of_interest', u'establishment']"
0,43.2495508,5.4456252,Vaufreges,ChIJ6X5ZvRq5yRIReXyul7zHN1k,"[u'bus_station', u'transit_station', u'point_of_interest', u'establishment']"
0,43.2486441,5.4384241,Hotel Myriam,ChIJxzt81QK5yRIRPpgUXkzA2Q0,"[u'lodging', u'point_of_interest', u'establishment']"
0,43.2488223,5.4407371,Mystik,ChIJXwqAqxy5yRIRnd2vkmnAYi8,"[u'night_club', u'point_of_interest', u'establishment']"
0,43.2488218,5.4407698,Le Millénium,ChIJXwqAqxy5yRIR6c49x1CmlaQ,"[u'movie_theater', u'point_of_interest', u'establishment']"
0,43.2445988,5.4379653,Nursery School Luminy,ChIJF8jIewC5yRIRnVJPIJ71zig,"[u'school', u'point_of_interest', u'establishment']"
0,43.2492855,5.4405254,Jardin Forêt de Provence,ChIJ6w9_rRy5yRIR5_q2lEih4uo,"[u'general_contractor', u'point_of_interest', u'establishment']"
0,43.237715,5.438345,Innate Pharma,ChIJTSlu9aq5yRIRWTlkw9rxRtI,"[u'pharmacy', u'health', u'store', u'point_of_interest', u'establishment']"
0,43.2391956,5.4374282,G.I.S Posidonie,ChIJbzdGSlW4yRIRgMs-rdHf1hg,"[u'point_of_interest', u'establishment']"
0,43.2375633,5.4384227,BRGM PACA,ChIJL7HcewC5yRIR4VKpivPwgW8,"[u'point_of_interest', u'establishment']"
0,43.2470895,5.4393331,Ass pour le Logement des Travailleurs,ChIJbzdGSlW4yRIRiY7WBK9CDdM,"[u'point_of_interest', u'establishment']"
0,43.2404296,5.438754,Immo Finances,ChIJYR9l9AC5yRIRJ1T87NjMAlA,"[u'real_estate_agency', u'point_of_interest', u'establishment']"
0,43.2393326,5.4377326,INST National Recherche Agronomique,ChIJ1Wk_dwC5yRIRTAfELbh2_-8,"[u'point_of_interest', u'establishment']"
0,43.2492855,5.4405254,Métal Réalisation,ChIJRUspQo-4yRIR4KZZsfBwo7k,"[u'point_of_interest', u'establishment']"
0,43.2492855,5.4405254,Promer,ChIJ3TYVpRy5yRIRJTd2DBJBySo,"[u'point_of_interest', u'establishment']"
0,43.2375633,5.4384227,C.f.g,ChIJbzdGSlW4yRIRJC9sygbZsMY,"[u'point_of_interest', u'establishment']"
0,43.2381099,5.435742,Voiture and Co,ChIJL7HcewC5yRIRcmfjztKxqGE,"[u'point_of_interest', u'establishment']"
0,43.238119,5.430489,Tennis Club Phocéen,ChIJkWINllW4yRIRdnKPZYAepRU,"[u'point_of_interest', u'establishment']"
0,43.2378636,5.4307511,Stade de Luminy,ChIJB5Tb2FW4yRIRGYCbVQe_OUk,"[u'stadium', u'point_of_interest', u'establishment']"
0,43.2286323,5.4393697,Cité Universitaire Luminy,ChIJ1Wk_dwC5yRIRgzt4WXIDB8E,"[u'point_of_interest', u'establishment']"
0,43.2300111,5.436629,Mairie,ChIJ4ZjoWq25yRIRlktbLkOPB_o,"[u'point_of_interest', u'establishment']"
0,43.231494,5.436275,Le Luminyen,ChIJbzdGSlW4yRIRdfYWfMXu84Y,"[u'restaurant', u'food', u'point_of_interest', u'establishment']"
0,43.231266,5.435822,Les Estudines Marseille Luminy,ChIJ1Wk_dwC5yRIROTDlMrBdk-k,"[u'point_of_interest', u'establishment']"
0,43.232277,5.433259,Action Grand Sud,ChIJg623FFS4yRIRIgeXKggMnIo,"[u'point_of_interest', u'establishment']"
0,43.2548961,5.4359337,Château l'Aroumias de la Panouse,ChIJfaLW2eG4yRIRk4XFQsZJJgw,"[u'lodging', u'point_of_interest', u'establishment']"
0,43.2559388,5.4372828,La Chrysalide,ChIJUW03LB65yRIRK0f7R0Im_kc,"[u'health', u'point_of_interest', u'establishment']"
0,43.2505701,5.4372461,Grand'Voile,ChIJcX4b9vy4yRIRFtS5zDm7osg,"[u'point_of_interest', u'establishment']"
0,43.2555609,5.435639,La Chrysalide,ChIJq3kR1-G4yRIRDJz3F1q-YxQ,"[u'point_of_interest', u'establishment']"
0,43.2488218,5.4407698,Cocoon,ChIJXwqAqxy5yRIRib9VycL5XU4,"[u'point_of_interest', u'establishment']"
0,43.2564234,5.4326562,Résidence Beau site,ChIJe_C0JuG4yRIRPIO7WNonthc,"[u'health', u'point_of_interest', u'establishment']"
0,43.2553873,5.4374923,Peyrou Denis Pierre,ChIJgw7UTh65yRIRHi7lKtA9ld0,"[u'point_of_interest', u'establishment']"
0,43.2496086,5.445493,Vaufreges,ChIJK-Atlhq5yRIRCuG_70LOzZA,"[u'bus_station', u'transit_station', u'point_of_interest', u'establishment']"
0,43.2489071,5.4264657,Private Hospital Clairval,ChIJsVXv9re4yRIRZkCpX6NXwq4,"[u'hospital', u'health', u'point_of_interest', u'establishment']"
0,43.2450915,5.4265944,Le Cyclope Cabaret,ChIJaUsiJfq4yRIRlFAFQCQ8ttQ,"[u'bar', u'restaurant', u'food', u'point_of_interest', u'establishment']"
0,43.244719,5.424636,Shaolin Kung Fu Marseille,ChIJEztXiPm4yRIRp6pjPWXNawc,"[u'health', u'point_of_interest', u'establishment']"
0,43.247184,5.424202,Soleiade,ChIJbW88YfC4yRIRLb2ocQuqW0c,"[u'restaurant', u'food', u'point_of_interest', u'establishment']"
0,43.2449533,5.4274185,Salsason,ChIJF4Y4Lvq4yRIR_r69L2iM3L8,"[u'point_of_interest', u'establishment']"
0,43.2446745,5.4277068,Primary School Valmont Redon,ChIJp2Cmf_G4yRIRfo4hRnwXviY,"[u'school', u'point_of_interest', u'establishment']"
0,43.245186,5.427942,Challenge Conduite,ChIJSw-CzPu4yRIR8mPaHuQ5qJI,"[u'point_of_interest', u'establishment']"
0,43.2326531,5.4145729,Les Baumettes,ChIJYcPghme4yRIRp1CaEIVpYJo,"[u'point_of_interest', u'establishment']"
0,43.232876,5.434445,Euromed Mars'Eyes Communication,ChIJ7ettFlO4yRIR5DjOc10lH58,"[u'point_of_interest', u'establishment']"
0,43.237913,5.43048,Les Terrasses du Phocéen,ChIJkWINllW4yRIRkKvZvBslR08,"[u'restaurant', u'food', u'point_of_interest', u'establishment']"
0,43.2371937,5.4300657,Club de Pelote Basque Marseillen Pilota,ChIJkWINllW4yRIR6BBASydhE9U,"[u'point_of_interest', u'establishment']"
0,43.23254,5.432825,Le Citadingue,ChIJ6fzfrlO4yRIRy5JEYxvWGjQ,"[u'point_of_interest', u'establishment']"
0,43.232246,5.433344,Interact,ChIJr6_xAFO4yRIRtcq-fM5CrRk,"[u'point_of_interest', u'establishment']"
0,43.232342,5.434296,Technom'aide,ChIJzxQmGVO4yRIRz2S6sE0pYcU,"[u'store', u'point_of_interest', u'establishment']"
0,43.238096,5.43562,OTOBIP,ChIJ42okdwC5yRIRy1vABWY2_hQ,"[u'car_repair', u'store', u'point_of_interest', u'establishment']"
0,43.2181902,5.4313296,Parc national des Calanques,ChIJySHEzzW4yRIRniAPBwmntxo,"[u'park', u'point_of_interest', u'establishment']"
0,43.2247337,5.4168106,Chez Ze,ChIJa8BwhUG4yRIR_hea2EmTdAo,"[u'bar', u'restaurant', u'food', u'point_of_interest', u'establishment']"
0,43.2267992,5.4170952,D'auria Fabrice Thierry Patrice,ChIJN7n3SUK4yRIRO6YX67Yb91U,"[u'clothing_store', u'store', u'point_of_interest', u'establishment']"
0,43.2250846,5.4165441,Marion TP,ChIJLRqSjUG4yRIRd_NlIBDQrSw,"[u'general_contractor', u'point_of_interest', u'establishment']"
0,43.2240685,5.416783,GONDOLO (Société Technique Batiment Maritime),ChIJ46abu0G4yRIRjunhysbfjpU,"[u'plumber', u'point_of_interest', u'establishment']"
0,43.2240685,5.416783,Filtres Europe Achats,ChIJ46abu0G4yRIRqiRHty8y5KI,"[u'point_of_interest', u'establishment']"
0,43.2276378,5.4161341,Logirem,ChIJO5uKYkK4yRIRfhC1CKzD_w0,"[u'real_estate_agency', u'point_of_interest', u'establishment']"
0,43.2276378,5.4161341,Berthoix Stephanie,ChIJd5RyZ0K4yRIR_aCF8o0Ae_4,"[u'point_of_interest', u'establishment']"
0,43.2272814,5.4143935,Plaisirs de la mer,ChIJ32S03Gm4yRIRdtCSx3unbhc,"[u'travel_agency', u'store', u'point_of_interest', u'establishment']"
0,43.2281117,5.4154022,VTOPO,ChIJYbtRSWW4yRIR2uReHbM6pqQ,"[u'book_store', u'store', u'point_of_interest', u'establishment']"
0,43.2240685,5.416783,Azur Forme & Beauté,ChIJ46abu0G4yRIRuZtacYOZgU4,"[u'point_of_interest', u'establishment']"
0,43.2292002,5.4154713,Le Mousse de B.B,ChIJT-qwmUK4yRIRqet65CV7rwI,"[u'point_of_interest', u'establishment']"
0,43.2267992,5.4170952,Obrador Valerie,ChIJj010SEK4yRIRaeC0BzVtLvA,"[u'health', u'point_of_interest', u'establishment']"
0,43.2240685,5.416783,Stbm,ChIJ46abu0G4yRIRNLqULCQ9Itg,"[u'point_of_interest', u'establishment']"
0,43.2240685,5.416783,Bertotti Sarl,ChIJIaGbu0G4yRIRAA4X16Ucl6A,"[u'plumber', u'general_contractor', u'point_of_interest', u'establishment']"
0,43.2560293,5.4283815,La halle aux chaussures,ChIJ1yjM7HG4yRIRj7K9h21iN1I,"[u'shoe_store', u'store', u'point_of_interest', u'establishment']"
0,43.2534316,5.4225147,La table du chef,ChIJm-6Xt-64yRIRr1zLpiA5NFQ,"[u'restaurant', u'food', u'point_of_interest', u'establishment']"
0,43.2488452,5.4257891,Institute Clairval De Chirugie Marseille - Iccorl,ChIJ74Efr_q4yRIRNKebTqKBJVc,"[u'hospital', u'doctor', u'health', u'point_of_interest', u'establishment']"
0,43.2567366,5.4290421,Azygos,ChIJqfdkIee4yRIRhGHw7LOgbmU,"[u'point_of_interest', u'establishment']"
0,43.2558839,5.4295819,Mairie (Equipements Sociaux 5ème Groupe 9e 10e Arrondissements),ChIJXSGP3Oa4yRIRkRoUG_uup_k,"[u'point_of_interest', u'establishment']"
0,43.2472925,5.4297451,Terre des suds,ChIJudYZbvu4yRIRckOXD-_q3ak,"[u'point_of_interest', u'establishment']"
0,43.2462871,5.4182018,Hôtel le Rocher,ChIJt21nmPO4yRIR5Sn0SioNudQ,"[u'lodging', u'point_of_interest', u'establishment']"
0,43.249223,5.420016,Chapelle Saint-Joseph,ChIJGQY6AvK4yRIR0topokgGoH4,"[u'church', u'place_of_worship', u'point_of_interest', u'establishment']"
0,43.2453737,5.4157636,Il Pinocchio,ChIJ3a6Bsoy4yRIRjRcrmScM6Ws,"[u'restaurant', u'food', u'point_of_interest', u'establishment']"
0,43.248883,5.417436,E-DANSES - Ecole de danse Elodie Spatafora,ChIJtWp57Iy4yRIRfKf5RlPX-wo,"[u'point_of_interest', u'establishment']"
0,43.2486416,5.4168753,Floribelle,ChIJtWp57Iy4yRIRj83gkpifH6w,"[u'florist', u'store', u'point_of_interest', u'establishment']"
0,43.247445,5.4238647,Cabinet dentaire Zimmer Serra Michotey,ChIJe9IcXfC4yRIRM-t3-wxGPHQ,"[u'dentist', u'health', u'point_of_interest', u'establishment']"
0,43.2448598,5.4247687,Kiss Coiffure,ChIJEztXiPm4yRIRwZLc7AcakNo,"[u'hair_care', u'point_of_interest', u'establishment']"
0,43.2463978,5.4199034,Sport' House,ChIJrWiH6PO4yRIRPiyeWLfGW-w,"[u'health', u'point_of_interest', u'establishment']"
0,43.2461799,5.4250474,La Clé du Bonheur Immobilier,ChIJGeA9nPC4yRIRX76cp6vGUk8,"[u'real_estate_agency', u'point_of_interest', u'establishment']"
0,43.2485553,5.4172468,INSTITUT FACE A FACE: institut de beauté mixte massage bien etre marseille,ChIJf_TWSvO4yRIRzIVLCCm0zko,"[u'beauty_salon', u'spa', u'health', u'point_of_interest', u'establishment']"
0,43.2331584,5.4114748,Lou Granos,ChIJ9_PyLGEOyhIRA3OccINsRFg,"[u'lodging', u'point_of_interest', u'establishment']"
0,43.2349059,5.4099673,Sud Hygiène,ChIJN9h6qWa4yRIReXKjxBpTKG0,"[u'point_of_interest', u'establishment']"
0,43.2344727,5.4113574,Grande Pharmacie Beauvallon,ChIJNUa8u2e4yRIR7_UJTrtEIyM,"[u'pharmacy', u'health', u'store', u'point_of_interest', u'establishment']"
0,43.239239,5.413957,Association Des Foyers de Province,ChIJYbmhamC4yRIRxeMvgSYzXJo,"[u'point_of_interest', u'establishment']"
0,43.232819,5.407727,Résidence Mazargues,ChIJ507fTWS4yRIRnyTDqnYvqBY,"[u'health', u'point_of_interest', u'establishment']"
0,43.2370159,5.4131893,Atelier Anna,ChIJEeIi7GC4yRIRMfgJwMMxaVc,"[u'point_of_interest', u'establishment']"
0,43.2395906,5.413747,Act Rh,ChIJf3suGGC4yRIRcE3-n9O-ia8,"[u'point_of_interest', u'establishment']"
0,43.2366316,5.4096922,Gebert Pascale,ChIJ89OW5ma4yRIRWfXNwVLORMM,"[u'health', u'point_of_interest', u'establishment']"
0,43.2335029,5.4077732,Icare,ChIJ507fTWS4yRIRXEa-hfDMxsI,"[u'point_of_interest', u'establishment']"
0,43.2341179,5.4092017,Centre de Culture Ouvriere,ChIJf-CjI2S4yRIRYnjZt28CX0k,"[u'point_of_interest', u'establishment']"
0,43.2351558,5.410779,Schools Maternelles Publiques,ChIJRbTztma4yRIREVTGiISzOXg,"[u'school', u'point_of_interest', u'establishment']"
0,43.2350656,5.4104966,Cayol Halle Catherine,ChIJFWr3sGa4yRIRnlVU4Yc2Lns,"[u'point_of_interest', u'establishment']"
0,43.239239,5.413957,Bossu Jean Luc,ChIJq7SEE2C4yRIRGOBsz28JTL0,"[u'point_of_interest', u'establishment']"
0,43.2297701,5.4135826,Atelier Auto Mobile,ChIJVQLLbGi4yRIRq7iBZ4oRsww,"[u'car_repair', u'point_of_interest', u'establishment']"
0,43.2391258,5.414661,EURONET Peinture & Rénovation - Entreprise de Toitures & Façades,ChIJ-7lxC2C4yRIRdqPZc04W3qY,"[u'painter', u'roofing_contractor', u'point_of_interest', u'establishment']"
0,43.210987,5.4194114,Restaurant Le Château,ChIJo9nfAhS4yRIRPQJ0AOxjtXE,"[u'restaurant', u'food', u'point_of_interest', u'establishment']"
0,43.2104545,5.4203556,UCPA Sormiou,ChIJo9nfAhS4yRIRF35YkSEFQ4Q,"[u'lodging', u'point_of_interest', u'establishment']"
0,43.2097114,5.4201007,Le Lunch,ChIJyZLVci-4yRIRqwr_RCbuwic,"[u'restaurant', u'food', u'point_of_interest', u'establishment']"
0,43.2102962,5.4203102,Calanque de Sormiou,ChIJdcafqCS4yRIRe_NGZmPNZKk,"[u'point_of_interest', u'establishment']"
0,43.2242319,5.4166422,Fil Construction,ChIJ_QSGzDu_yRIRxOCoqWpWVRc,"[u'general_contractor', u'point_of_interest', u'establishment']"
0,43.2262479,5.416414,Les Baumettes,ChIJU3XSPEK4yRIRbUKjRMf3usk,"[u'bus_station', u'transit_station', u'point_of_interest', u'establishment']"
0,43.2520238,5.421021,Weldom,ChIJ3dXjL-64yRIRIVJUltl0S-U,"[u'point_of_interest', u'establishment']"
0,43.2525214,5.4222536,BNP Paribas - Marseille Rouviere,ChIJf-OItu64yRIRva2DnLACJAA,"[u'bank', u'bakery', u'real_estate_agency', u'food', u'finance', u'store', u'point_of_interest', u'establishment']"
0,43.2581443,5.4179679,Games Land AirSoftGuns.Fr,ChIJSSZcZ-q4yRIR8eAoQck8-QQ,"[u'store', u'point_of_interest', u'establishment']"
0,43.256369,5.420165,Royaume de la Chantilly,ChIJuZGDfem4yRIRM3J4h_O2of0,"[u'cafe', u'grocery_or_supermarket', u'restaurant', u'food', u'store', u'point_of_interest', u'establishment']"
0,43.2574628,5.4186307,GEPETTO,ChIJ26QeRuq4yRIRl9xOWDnm7CE,"[u'bar', u'restaurant', u'food', u'point_of_interest', u'establishment']"
0,43.2531894,5.4231055,Post Office,ChIJf-OItu64yRIRjnJlvNzgzCg,"[u'post_office', u'finance', u'point_of_interest', u'establishment']"
0,43.2516148,5.4216779,Villa Mont Liban,ChIJs7HmL-64yRIR7sIsDNb8NEs,"[u'restaurant', u'food', u'point_of_interest', u'establishment']"
0,43.2538568,5.4214256,B C Immobilier,ChIJf-OItu64yRIR2l3fgMGyGE8,"[u'real_estate_agency', u'point_of_interest', u'establishment']"
0,43.242586,5.4973029,Le Belvédère,ChIJ337TuMm7yRIRK1QdOWKUtuo,"[u'point_of_interest', u'establishment']"
0,43.2392258,5.4056597,Hôtel 96,ChIJLZz8kmK4yRIRxuLaxAyDdwY,"[u'lodging', u'point_of_interest', u'establishment']"
0,43.247688,5.410992,Palais De L Ongle,ChIJJeB3yIW4yRIRwETJDmH-qkc,"[u'beauty_salon', u'hair_care', u'point_of_interest', u'establishment']"
0,43.24123,5.408518,Clinique l'Emeraude,ChIJIdiC6Ym4yRIRM5RekwXA848,"[u'hospital', u'health', u'point_of_interest', u'establishment']"
0,43.2408863,5.4070438,Centre d'accueil des Baumettes,ChIJu2eZLIi4yRIRhv_Kni0x9rw,"[u'point_of_interest', u'establishment']"
0,43.2464201,5.4083971,SAG,ChIJ3_2Nv464yRIRuuj4DEiX2lk,"[u'clothing_store', u'store', u'point_of_interest', u'establishment']"
0,43.2477225,5.4069753,Institution Sainte Trinité,ChIJKZ6Z6o64yRIR2CxEjNaHtN8,"[u'school', u'point_of_interest', u'establishment']"
0,43.249067,5.417295,Dentiste - Dr Carole Miranda,ChIJtWp57Iy4yRIRpneBPueN-UM,"[u'dentist', u'health', u'point_of_interest', u'establishment']"
0,43.2469799,5.4072495,Midas Marseille Tassigny,ChIJaVdI4464yRIRFnJkA7SBilM,"[u'car_repair', u'point_of_interest', u'establishment']"
0,43.24646,5.413252,Equinoxe Valmante,ChIJtWp57Iy4yRIRbWNw7ST2gzA,"[u'restaurant', u'food', u'point_of_interest', u'establishment']"
0,43.215134,5.53712,Cassis,ChIJNeR-a8a6yRIRMASX_aUZCAQ,"[u'locality', u'political']"
0,43.240181,5.402698,ONET,ChIJ42tdi324yRIR5UqzUuENeZs,"[u'point_of_interest', u'establishment']"
0,43.2332716,5.4014814,E-Leclerc Marseille Sormiou,ChIJq6qqqrq5yRIRmLi8aO2RExE,"[u'grocery_or_supermarket', u'food', u'store', u'point_of_interest', u'establishment']"
0,43.2352285,5.4008267,La jarre,ChIJXypkkXu4yRIROwG4qnuBxZ0,"[u'lodging', u'point_of_interest', u'establishment']"
0,43.2346606,5.4004152,Eric,ChIJo65fwHu4yRIR9SH94sLMaxU,"[u'point_of_interest', u'establishment']"
0,43.2400833,5.3988435,BHDISCOUNT,ChIJK__53X24yRIRgC8kCZDOQ6U,"[u'electronics_store', u'furniture_store', u'home_goods_store', u'store', u'point_of_interest', u'establishment']"
0,43.235323,5.399308,"Sandra Rubin, sage-femme",ChIJP7ZZ4nu4yRIRxMcxMRCn2Uk,"[u'health', u'point_of_interest', u'establishment']"
0,43.235363,5.400069,Dr . TRIQUET Catherine,ChIJOeul4Xu4yRIRzZskwBWogQE,"[u'doctor', u'health', u'point_of_interest', u'establishment']"
0,43.2321164,5.3970669,Eiffage Construction Provence,ChIJ8zebhXm4yRIR1P-hHLF9Va0,"[u'general_contractor', u'point_of_interest', u'establishment']"
0,43.2406744,5.4068479,Marly Parc,ChIJP3qBLIi4yRIRZ4zWCBChw7A,"[u'rv_park', u'lodging', u'point_of_interest', u'establishment']"
0,43.2346606,5.4004152,Travaux du Midi,ChIJo65fwHu4yRIRDGY0zih3cfo,"[u'general_contractor', u'point_of_interest', u'establishment']"
0,43.2408863,5.4070438,S.E.D.I Service Européen de Diffusion des Inventions,ChIJb73oqoi4yRIROvQ_VVKZZMM,"[u'point_of_interest', u'establishment']"
0,43.222902,5.41712,13009,ChIJV9XgU0C4yRIRppCqo-u4H6k,"[u'parking', u'point_of_interest', u'establishment']"
0,43.2211992,5.4070981,Demichelis Claude Rene,ChIJ-4amKW24yRIRmc-Kutkh4Kk,"[u'point_of_interest', u'establishment']"
0,43.224725,5.413998,unnamed,ChIJZQWYE2q4yRIRA6W-XRemsjU,"[u'point_of_interest', u'establishment']"
0,43.2254483,5.4012169,Les Jardins de Sormiou,ChIJ115w03O4yRIREPp82OkgeLM,"[u'health', u'point_of_interest', u'establishment']"
0,43.2291629,5.3998492,Beguin Didier,ChIJ-6-H2nC4yRIRad4uAZepPEg,"[u'general_contractor', u'point_of_interest', u'establishment']"
0,43.2288734,5.4022355,chaudiére-nette,ChIJdUNjU3C4yRIRN06WZB2uBBk,"[u'general_contractor', u'point_of_interest', u'establishment']"
0,43.2271043,5.4032452,C.k Phone,ChIJ1yjM7HG4yRIR9eoy2q1pLH0,"[u'point_of_interest', u'establishment']"
0,43.2210088,5.4012744,Degremont,ChIJRcwIgXK4yRIRWfVQkH1SWvw,"[u'point_of_interest', u'establishment']"
0,43.2254483,5.4012169,Dv Marseille,ChIJ011Lz3O4yRIRhF3f7e6C6po,"[u'health', u'point_of_interest', u'establishment']"
0,43.230295,5.4027675,Habitat Marseille Provence,ChIJcxyNNHu4yRIRwc3rcxTwI0Y,"[u'real_estate_agency', u'point_of_interest', u'establishment']"
0,43.2297051,5.4013136,Town Hall,ChIJv8My8nC4yRIR2jAdi1dHbhQ,"[u'school', u'point_of_interest', u'establishment']"
0,43.231794,5.4057906,MIRELEC,ChIJdz0NnwG5yRIRCIKStj30w3U,"[u'electrician', u'point_of_interest', u'establishment']"
0,43.269628,5.4263839,OM Foot Village,ChIJbbOWFtC4yRIR0WXVerbWmnE,"[u'point_of_interest', u'establishment']"
0,43.2589765,5.4171576,LCL - Le Crédit Lyonnais,ChIJ28lhhuq4yRIRQBc9Y6voxbY,"[u'bank', u'atm', u'finance', u'point_of_interest', u'establishment']"
0,43.2591694,5.4163871,Aquamarine,ChIJy2rjneq4yRIRExM9auvhbF4,"[u'beauty_salon', u'spa', u'point_of_interest', u'establishment']"
0,43.262395,5.4166268,Soretri Ingenierie,ChIJv-yBvMC4yRIRRdx5ZLUKtcs,"[u'point_of_interest', u'establishment']"
0,43.2579844,5.4181029,City Zen,ChIJgS0PXeq4yRIRtjggMg7YTDs,"[u'point_of_interest', u'establishment']"
0,43.2643919,5.4220748,Collège Gyptis,ChIJyZrXh8S4yRIRcP9Hyw2LeMM,"[u'school', u'point_of_interest', u'establishment']"
0,43.2589168,5.4172326,cabinet dentaire DJIANE,ChIJ28lhhuq4yRIR-o9PY1e3Zd8,"[u'dentist', u'health', u'point_of_interest', u'establishment']"
0,43.2594684,5.4135533,Centre de Réadaptation Fonctionnelle de Valmante,ChIJ46PjJY24yRIRSf3cCzjIKPo,"[u'doctor', u'health', u'point_of_interest', u'establishment']"
0,43.2566938,5.4204426,Ahora Immobilier,ChIJeZVhzeu4yRIR1CFPXYLGl44,"[u'real_estate_agency', u'point_of_interest', u'establishment']"
0,43.2575813,5.4185216,Crédit Agricole Alpes Provence,ChIJ8X8JReq4yRIR_6oqqMDB5Rg,"[u'bank', u'atm', u'finance', u'point_of_interest', u'establishment']"
0,43.25748,5.418289,Le Pacific,ChIJ4SB8T-q4yRIRXEMa7Ee6o9g,"[u'restaurant', u'bar', u'food', u'point_of_interest', u'establishment']"
0,43.2567833,5.4197876,Banque Populaire Provençale et Corse,ChIJeZVhzeu4yRIR1h6zH5XYdrg,"[u'bank', u'finance', u'point_of_interest', u'establishment']"
0,43.2519488,5.4113438,Tennis Club Montval,ChIJUTLjSJK4yRIREws0K97KRF8,"[u'health', u'point_of_interest', u'establishment']"
0,43.259536,5.4105647,Hospital Sainte Marguerite,ChIJuaXnGb64yRIRy7GT4cJRtGQ,"[u'hospital', u'point_of_interest', u'establishment']"
0,43.2522854,5.4114533,Maison de Retraite La Salette-Montval,ChIJFeAw7JK4yRIR5gOG54RPv9M,"[u'health', u'point_of_interest', u'establishment']"
0,43.2492196,5.5063552,Camp de Carpiagne,ChIJVUWrnru7yRIRZiMZJ0OfCrk,"[u'point_of_interest', u'establishment']"
0,43.2459421,5.4042129,Mazargues,ChIJJRGh-YW4yRIRAHf4xGQQtC8,"[u'church', u'place_of_worship', u'point_of_interest', u'establishment']"
0,43.2465768,5.4012087,La Cigale et la Fourmi,ChIJre97MYS4yRIRA4bEToeGaTM,"[u'lodging', u'point_of_interest', u'establishment']"
0,43.2461547,5.4038507,Agence Société Générale Mazargues,ChIJTyCY-oW4yRIRy5W7ezcE4iA,"[u'bank', u'atm', u'finance', u'point_of_interest', u'establishment']"
0,43.2462191,5.4037072,Crédit Mutuel,ChIJT4GR74W4yRIRXpqz2zITIdQ,"[u'bank', u'atm', u'finance', u'point_of_interest', u'establishment']"
0,43.2464035,5.4028521,Love Sushi - Mazargues,ChIJY5LFw4W4yRIRgnwDf4PN2e0,"[u'restaurant', u'food', u'point_of_interest', u'establishment']"
0,43.2430424,5.3979365,Société Générale,ChIJYyARS6W4yRIRzpwxYe3A9-w,"[u'bank', u'atm', u'finance', u'point_of_interest', u'establishment']"
0,43.2475301,5.4008566,Au Choc du Temps,ChIJu5FUQ4S4yRIRFe9MQ5Zhj2c,"[u'food', u'store', u'point_of_interest', u'establishment']"
0,43.2476894,5.4012615,Cabinet Immotys,ChIJvf-fUYS4yRIRKgphJNrjDTY,"[u'real_estate_agency', u'point_of_interest', u'establishment']"
0,43.2472627,5.4010222,Crédit Agricole Alpes Provence,ChIJq4tzRYS4yRIRe61VMBhnhlw,"[u'bank', u'atm', u'finance', u'point_of_interest', u'establishment']"
0,43.2462497,5.4036393,Saint Algue,ChIJDwWg74W4yRIRSncmiw1np9w,"[u'hair_care', u'point_of_interest', u'establishment']"
0,43.2395834,5.396626,Decathlon Marseille Bonneveine,ChIJ6wJkJX64yRIRb-bbNpBTOz0,"[u'shoe_store', u'store', u'point_of_interest', u'establishment']"
0,43.2473077,5.4009055,Patines du Sud,ChIJQ9XzRIS4yRIRrYReH7lWhEI,"[u'furniture_store', u'home_goods_store', u'store', u'point_of_interest', u'establishment']"
0,43.2347717,5.5118012,Hôtel du Joli Bois,ChIJ63P73Oq6yRIRapOug6EqGws,"[u'lodging', u'point_of_interest', u'establishment']"
0,43.2410117,5.3966877,Middle School Roy D'espagne,ChIJA1yoYX64yRIRSuAic5mRY9U,"[u'school', u'point_of_interest', u'establishment']"
0,43.240716,5.400108,Shurgard Self-Storage,ChIJIf7FsbrHyRIR109bj0Igbd0,"[u'storage', u'point_of_interest', u'establishment']"
0,43.2403117,5.398486,Win Co,ChIJJ897GX64yRIRb6PytXHHjj8,"[u'general_contractor', u'point_of_interest', u'establishment']"
0,43.2385476,5.3907253,Centre Socio Culturel Roy d' Espagne,ChIJ5e7jcIHHyRIR03TnuvsExZA,"[u'point_of_interest', u'establishment']"
0,43.2414702,5.3945709,Post Office,ChIJ_yMKUoS4yRIRbFMXzDZsLH4,"[u'post_office', u'finance', u'point_of_interest', u'establishment']"
0,43.2419858,5.3979106,Desautel,ChIJd_EdB73AyRIR9sQ0qxv_sXI,"[u'point_of_interest', u'establishment']"
0,43.23999,5.399631,Brasserie le Club Ecossais,ChIJt-Lv3X24yRIR7BgSTQpi_l4,"[u'bar', u'restaurant', u'food', u'point_of_interest', u'establishment']"
0,43.2564598,5.3846513,8th arrondissement of Marseille,ChIJ7cgozwvHyRIRMBqY_aUZCAU,"[u'sublocality_level_1', u'sublocality', u'political']"
0,43.202329,5.498099,Calanque d'en Vau,ChIJG9dFVgu6yRIREK8fwKQhjFY,"[u'natural_feature', u'point_of_interest', u'establishment']"
0,43.222089,5.406872,Union Nationale Ctres Sportifs Plein A,ChIJtc3fJm24yRIRIAoPhwiGj6c,"[u'point_of_interest', u'establishment']"
0,43.221656,5.402369,unnamed,ChIJTdBc0nK4yRIRWtIchCCax-M,"[u'point_of_interest', u'establishment']"
0,43.216893,5.509776,Auberge de Jeunesse HI Cassis,ChIJbeZ-a8a6yRIRD7M7rV6FGG0,"[u'lodging', u'point_of_interest', u'establishment']"
0,43.223367,5.513831,Cabane Benoît,ChIJsUZWzVu6yRIRygBce_TZQsE,"[u'premise', u'point_of_interest', u'establishment']"
0,43.2286421,5.3973799,Sarl Independent Tool's Company,ChIJQyx-43a4yRIR-wfCgmzwBnI,"[u'locksmith', u'point_of_interest', u'establishment']"
0,43.2292015,5.3998011,Beguin Julien,ChIJ00W90HC4yRIRAysX1Ls3pwQ,"[u'general_contractor', u'point_of_interest', u'establishment']"
0,43.232224,5.397387,immo-sudannonces.fr,ChIJ76Eq4vO4yRIRZ_2i-vGTM_I,"[u'real_estate_agency', u'point_of_interest', u'establishment']"
0,43.231009,5.397462,Dog's Coach Éducation Canine Marseille Sud,ChIJvwxEcArHyRIRQvcfMTRFzy8,"[u'point_of_interest', u'establishment']"
0,43.231986,5.4004393,Klicshow,ChIJg2gZE3q4yRIR8G0Tps0bTaE,"[u'point_of_interest', u'establishment']"
0,43.2321164,5.3970669,Crepi Mediterranee,ChIJmwM2lHm4yRIRPEL7ApWP-dU,"[u'general_contractor', u'point_of_interest', u'establishment']"
0,43.2326106,5.3987897,Locimmo,ChIJF-f0kXm4yRIRLQQgEVOVnFY,"[u'real_estate_agency', u'point_of_interest', u'establishment']"
0,43.2327876,5.400713,Station-service E-Leclerc à Marseille,ChIJEYr1_6-5yRIRVhHfpC_WpQA,"[u'car_repair', u'point_of_interest', u'establishment']"
0,43.2610491,5.4132637,Hopital Henri Gastaut (Marseille),ChIJb5mKvr-4yRIRdqCECfa4YK0,"[u'hospital', u'point_of_interest', u'establishment']"
0,43.2609139,5.4109296,Association Christophe,ChIJ9y45_Lu4yRIRYwXn7y4j9Oc,"[u'point_of_interest', u'establishment']"
0,43.2656497,5.4099831,Sainte-Marguerite Church,ChIJp6HPXrm4yRIRwnER9isualI,"[u'church', u'place_of_worship', u'point_of_interest', u'establishment']"
0,43.2621594,5.4103268,Institut Paoli-Calmettes,ChIJxf2yvr64yRIR-K44zI0ubeU,"[u'hospital', u'point_of_interest', u'establishment']"
0,43.2596259,5.4107371,ISRP MARSEILLE,ChIJkd6ndp_AyRIRqqRdHvmjuZU,"[u'point_of_interest', u'establishment']"
0,43.258617,5.4130512,Middle School Sylvain Menu,ChIJa0Rc2Zm4yRIR7d_yEJ-9rQM,"[u'school', u'point_of_interest', u'establishment']"
0,43.2647013,5.40963,Pépé Pizza,ChIJH07m_7u4yRIRox3DC1AiZ3I,"[u'meal_delivery', u'meal_takeaway', u'restaurant', u'food', u'point_of_interest', u'establishment']"
0,43.264644,5.409355,Le Bien Etre,ChIJOTUu9Lu4yRIRT9Q85ZM86dY,"[u'restaurant', u'food', u'point_of_interest', u'establishment']"
0,43.2639993,5.4142223,Hospital Salvator,ChIJK4Jkwb64yRIR78MjONFkY7k,"[u'hospital', u'point_of_interest', u'establishment']"
0,43.2552171,5.4044889,Piscine municipale Desautel,ChIJ0U6RJpG4yRIRn4fsJNcuBhY,"[u'point_of_interest', u'establishment']"
0,43.2559955,5.405101,Middle School,ChIJwcDT25m4yRIRqIqorMUHtBA,"[u'point_of_interest', u'establishment']"
0,43.2471826,5.4014107,AGENCE DE LA COMTESSE,ChIJ2XUjyIW4yRIRgGfirip_ZEA,"[u'real_estate_agency', u'point_of_interest', u'establishment']"
0,43.2467555,5.5141604,军营 REC Camp de Carpiagne,ChIJsxcq2qW7yRIRwckHOfaLtRo,"[u'school', u'point_of_interest', u'establishment']"
0,43.247269,5.390027,Hotel ibis Marseille Bonneveine Calanques Plages,ChIJLYqgS3zHyRIRq5xZic8mkKo,"[u'lodging', u'point_of_interest', u'establishment']"
0,43.2472221,5.3904302,Best Western Hotel Marseille Bonneveine Prado,ChIJ26KTgXvHyRIRzGnueiP5200,"[u'lodging', u'point_of_interest', u'establishment']"
0,43.2475716,5.3931476,Société Générale,ChIJlU-Y833HyRIRC5VZuBZPIAw,"[u'bank', u'atm', u'finance', u'point_of_interest', u'establishment']"
0,43.2473954,5.3922326,MSA Provence Azur (Marseille),ChIJUx_XpH3HyRIRaNDVWEPxIgU,"[u'local_government_office', u'point_of_interest', u'establishment']"
0,43.2488192,5.3899285,Etam Lingerie,ChIJ5V3rp3zHyRIRi8ABfIpXIyM,"[u'clothing_store', u'store', u'point_of_interest', u'establishment']"
0,43.2419701,5.3869858,Pharmacie Du Roy D'Espagne,ChIJU1BIo3jHyRIR9D_Tsc9wVaU,"[u'bank', u'atm', u'pharmacy', u'health', u'finance', u'store', u'point_of_interest', u'establishment']"
0,43.23744,5.389759,Tennis club Roy d'Espagne,ChIJ08eYRoHHyRIRszvlkAm4SBM,"[u'health', u'point_of_interest', u'establishment']"
0,43.2393478,5.3921333,Collective Nursery Roy D'espagne,ChIJXS1VgH7HyRIRxdHyEInSlAs,"[u'point_of_interest', u'establishment']"
0,43.2375134,5.384757,Assistante maternelle Marseille,ChIJBel6QoPHyRIRizgWq4k09oc,"[u'point_of_interest', u'establishment']"
0,43.2403483,5.3898011,Fontrier et Fils,ChIJJdV464HHyRIR20dzAUDNj90,"[u'general_contractor', u'point_of_interest', u'establishment']"
0,43.2403554,5.3906336,Lotus Harmony,ChIJ_Zj11K3AyRIRi28Dt7pLsVg,"[u'spa', u'health', u'point_of_interest', u'establishment']"
0,43.2406312,5.3849943,Logement foyer Le Roy d'Espagne,ChIJueUYx4LHyRIR5-53RJYIXCE,"[u'health', u'point_of_interest', u'establishment']"
0,43.23748,5.383204,Kinesiology Surya Formations,ChIJ5e7jcIHHyRIRdElshyCI_nM,"[u'point_of_interest', u'establishment']"
0,43.238575,5.390714,Gymnastique Volontaire Corail-Parangon Marseille 8Ème,ChIJEQD7BYHHyRIRgFl3f8sl5Ak,"[u'gym', u'health', u'point_of_interest', u'establishment']"
0,43.2013419,5.50327,Refuge du Piolet,ChIJRxS_EHS6yRIRr4oHEi1btb8,"[u'lodging', u'point_of_interest', u'establishment']"
0,43.2155376,5.3886129,Titou Ninou,ChIJ7V2RMvHHyRIRxaDMoAMTtEs,"[u'park', u'point_of_interest', u'establishment']"
0,43.224786,5.3905535,Fontaine de Voire,ChIJUaTPpYvHyRIRETYXslkmirE,"[u'point_of_interest', u'establishment']"
0,43.2282348,5.3984321,Baudry Alain,ChIJY1k6xXa4yRIRY29wMuqnY9I,"[u'point_of_interest', u'establishment']"
0,43.2281172,5.3987895,Nguyen Van Bich,ChIJT42Kzna4yRIRlk4xj2KFssM,"[u'point_of_interest', u'establishment']"
0,43.2254483,5.4012169,evtt Provence,ChIJ011Lz3O4yRIRHZEfiiGyCZ4,"[u'bicycle_store', u'travel_agency', u'store', u'point_of_interest', u'establishment']"
0,43.2281999,5.4009432,Bouhezza Fadila,ChIJ39VsGnG4yRIRVVPICwRQUPs,"[u'point_of_interest', u'establishment']"
0,43.2259387,5.4016922,Les Jardins de Sourmiou Résidence Retraite Médicalisée,ChIJBVwS03O4yRIRTR-IDr4BPyE,"[u'health', u'point_of_interest', u'establishment']"
0,43.22654,5.4016136,Venaud-Massa Joëlle,ChIJkXSHfnG4yRIRc-2DAPRuIkk,"[u'health', u'point_of_interest', u'establishment']"
0,43.2318002,5.3976882,"Elsa Troubetzkoy, art-thérapeute",ChIJJfn43Hm4yRIRj7hnhCaN_FY,"[u'health', u'point_of_interest', u'establishment']"
0,43.253915,5.511103,Manège du Carpiagnon,ChIJHc47kqK7yRIRNIbAUNhPTS8,"[u'point_of_interest', u'establishment']"
0,43.2926781,5.5676425,Aubagne,ChIJyyal8DOjyRIRvMKMseEhjSw,"[u'locality', u'political']"
0,43.261308,5.3962722,Hôtel Le Corbusier,ChIJgZ5VyaG4yRIRcgwJqOZRUSo,"[u'lodging', u'restaurant', u'food', u'point_of_interest', u'establishment']"
0,43.2613442,5.3967033,Housing Unit,ChIJYZtzMaC4yRIRVo3TEHUcdf0,"[u'point_of_interest', u'establishment']"
0,43.2688728,5.4024538,Les Chambres de Jeannette,ChIJIfuvcaW4yRIRdWxrJAy5ljY,"[u'lodging', u'point_of_interest', u'establishment']"
0,43.2685097,5.4077235,CCM,ChIJQ8XNaLq4yRIRA-hncr4vNu0,"[u'furniture_store', u'home_goods_store', u'store', u'point_of_interest', u'establishment']"
0,43.260756,5.403216,MdQ Trioulet - Zumba® Fit'Z Form,ChIJxQedvaK4yRIR01nSxAzgmXA,"[u'point_of_interest', u'establishment']"
0,43.2684917,5.4074614,Sarl Maurice,ChIJ5_GXZrq4yRIRjk9CoFOUGQ4,"[u'car_repair', u'point_of_interest', u'establishment']"
0,43.258657,5.4019216,Frédéric Bourgeois,ChIJeVnFX5i4yRIRf6Zm1lXBROE,"[u'point_of_interest', u'establishment']"
0,43.2687561,5.4022517,Institut du Genou et Pathologies Articulaires Arthrosport,ChIJv2oTHFLHyRIRryOGxWBPMls,"[u'doctor', u'health', u'point_of_interest', u'establishment']"
0,43.2518728,5.3903843,Résidence Services Calypso,ChIJtVB2H2PHyRIRD5azO7uFSuo,"[u'lodging', u'point_of_interest', u'establishment']"
0,43.249307,5.389372,SEPHORA,ChIJDVQHlXzHyRIR5dezrllqSgI,"[u'clothing_store', u'store', u'point_of_interest', u'establishment']"
0,43.2487815,5.389434,Bonneveine Mall,ChIJL1UMiXzHyRIRCGwifMBt9AE,"[u'shopping_mall', u'gas_station', u'point_of_interest', u'establishment']"
0,43.2486062,5.3893948,Institut de beauté Body'Minute,ChIJyXV-381xjEcROmc9wPi4Z0I,"[u'beauty_salon', u'hair_care', u'store', u'point_of_interest', u'establishment']"
0,43.2587747,5.3940165,O'brady's Irish Pub,ChIJkRD62J-4yRIR-kCxkiRZW0Q,"[u'bar', u'restaurant', u'food', u'point_of_interest', u'establishment']"
0,43.20395,5.5107835,Calanque de Port Pin,ChIJQR6cXnq6yRIR8ZWUT-Z_5gQ,"[u'natural_feature', u'point_of_interest', u'establishment']"
0,43.204578,5.516147,Notre-Dame du Bon Voyage,ChIJnT7-8Xy6yRIRMGcdDC2LL20,"[u'church', u'place_of_worship', u'point_of_interest', u'establishment']"
0,43.2083743,5.5178297,Capitainerie Port-Miou,ChIJbWm-NYq6yRIRwj85jtY5-wM,"[u'point_of_interest', u'establishment']"
0,43.209871,5.517153,Carrière Solvay,ChIJl7nISmK6yRIRbJAMaQTx_m8,"[u'point_of_interest', u'establishment']"
0,43.2069745,5.5184841,Parking Calanques de Cassis,ChIJgSJsuGK6yRIR7QFwKIiZNe0,"[u'parking', u'point_of_interest', u'establishment']"
0,43.2102689,5.522848,Free Dom,ChIJBR1bd4m6yRIRaHh8j6c-5oI,"[u'travel_agency', u'point_of_interest', u'establishment']"
0,43.2116071,5.5247849,Home Cassis. Les Calanques,ChIJo-nx9ou6yRIReh4VYvLwRYM,"[u'point_of_interest', u'establishment']"
0,43.207734,5.5195,Club Nautique de Port Miou,ChIJlTuHcIm6yRIRqP5h9ktekRI,"[u'point_of_interest', u'establishment']"
0,43.2120082,5.5217799,Rdv Port Miou,ChIJGbKfN4q6yRIRa1DeCwiHmyk,"[u'park', u'point_of_interest', u'establishment']"
0,43.2111058,5.5213276,Calanque du port Miou,ChIJwwnZIIq6yRIRpB-L8Jsu-ng,"[u'point_of_interest', u'establishment']"
0,43.2115529,5.522517,2 M D B,ChIJE3Ca0ou6yRIRnoI2VpAlw88,"[u'point_of_interest', u'establishment']"
0,43.2114829,5.5224746,Les Voiles Libres,ChIJaV6a0ou6yRIRI-T-rjJdYMY,"[u'point_of_interest', u'establishment']"
0,43.2098386,5.5197689,Yachting Club des Calanques de Cassis,ChIJkfpsdWK6yRIRToSCBmuJ7eo,"[u'point_of_interest', u'establishment']"
0,43.2115544,5.5230857,Boucharenc Para Veronique,ChIJaV6a0ou6yRIRCEU8JDC8jQc,"[u'real_estate_agency', u'point_of_interest', u'establishment']"
0,43.210841,5.5239953,Marece,ChIJw9r_4Yu6yRIRULbvZ_OXK_w,"[u'point_of_interest', u'establishment']"
0,43.2104608,5.5240524,SCI CORALINE,ChIJ0c5dB4y6yRIRefmtHQqGKo8,"[u'point_of_interest', u'establishment']"
0,43.2108821,5.5247529,Lion Christian,ChIJ51JnBYy6yRIRhzbskXpO-bg,"[u'point_of_interest', u'establishment']"
0,43.210913,5.5245362,Parking Calanques d'En Vau,ChIJhzO7_Yu6yRIR2eMJZVx9f8M,"[u'gas_station', u'point_of_interest', u'establishment']"
0,43.2092042,5.5232993,Location Cassis,ChIJVUvYEIm6yRIR6qwNTtv0wE4,"[u'travel_agency', u'real_estate_agency', u'point_of_interest', u'establishment']"
0,43.21065,5.380039,Calanque des Queyrons,ChIJf16ys-XHyRIRR3nUEZTNgVw,"[u'point_of_interest', u'establishment']"
0,43.269827,5.3958873,Nouveau Stade Vélodrome,ChIJGRyneKe4yRIRHtz0w2zlCvM,"[u'stadium', u'point_of_interest', u'establishment']"
0,43.2708994,5.4012664,Palais des sports,ChIJO93Yn6q4yRIRXMN8HORz6Vo,"[u'point_of_interest', u'establishment']"
0,43.2689286,5.4031316,4 Etoiles coiffure,ChIJvX_jEqW4yRIRJxHZ27FpAsQ,"[u'beauty_salon', u'hair_care', u'health', u'point_of_interest', u'establishment']"
0,43.268264,5.40578,demenagerseul - Marseille 9ème Sainte Marguerite,ChIJPWkisGa_yRIRnt-I1qCk9fE,"[u'point_of_interest', u'establishment']"
0,43.269039,5.4045391,Clinique Vétérinaire du Parc Dromel,ChIJk_4gqbq4yRIRwofr5WSOfVM,"[u'veterinary_care', u'point_of_interest', u'establishment']"
0,43.2737987,5.4133818,Meca Premium,ChIJlV6gDLa4yRIRppMuuKSYk7M,"[u'car_repair', u'point_of_interest', u'establishment']"
0,43.2686428,5.4052145,Euromaster,ChIJx4QHubq4yRIRRb-2Ecfai7I,"[u'car_repair', u'store', u'point_of_interest', u'establishment']"
0,43.271795,5.4094685,Duc Dat,ChIJ3SSR3La4yRIRKJgsQMJ2T80,"[u'restaurant', u'food', u'point_of_interest', u'establishment']"
0,43.268986,5.403107,Kalisushi,ChIJ8fAhaaW4yRIRcdLu16xcH-I,"[u'point_of_interest', u'establishment']"
0,43.2752383,5.4051869,Dogg Label,ChIJgY6JHLK4yRIRn3jkjRQtirU,"[u'clothing_store', u'store', u'point_of_interest', u'establishment']"
0,43.2708569,5.4149838,Zimmermann Jean-Marie,ChIJe__l9re4yRIRqMK196wjUDw,"[u'doctor', u'health', u'point_of_interest', u'establishment']"
0,43.2663379,5.4071678,Yorkshire terrier Marseille élevage ELPAZEOR,ChIJyflsp7u4yRIR4eVFVpqusw4,"[u'pet_store', u'store', u'point_of_interest', u'establishment']"
0,43.2636929,5.4046417,Picard,ChIJjSX307y4yRIR08vYaLbFbxA,"[u'grocery_or_supermarket', u'food', u'store', u'point_of_interest', u'establishment']"
0,43.2622654,5.394101,Set Fitness,ChIJOcEljl_HyRIR1dI3O0F3mAQ,"[u'gym', u'health', u'point_of_interest', u'establishment']"
0,43.263326,5.395828,SIAP MICHELET,ChIJWV0r5KC4yRIRgsNZ8MNeO80,"[u'car_dealer', u'car_repair', u'store', u'point_of_interest', u'establishment']"
0,43.2610229,5.3887747,Leroy Eurl,ChIJD3Q8B17HyRIRhCqPN_5IpWo,"[u'point_of_interest', u'establishment']"
0,43.2619983,5.3934217,Central Pneus,ChIJOcEljl_HyRIRRZLAjkVkRMc,"[u'car_repair', u'store', u'point_of_interest', u'establishment']"
0,43.2647888,5.3917185,Domino's Pizza Marseille 8,ChIJRd2iKF_HyRIRXd9p4-EGfuY,"[u'restaurant', u'food', u'point_of_interest', u'establishment']"
0,43.2571215,5.3943219,Graphic Tattoo Beauty,ChIJA5ZNIZ64yRIR-PMzYOsdetg,"[u'store', u'point_of_interest', u'establishment']"
0,43.262102,5.392122,Club Alpin Français C.A.F,ChIJ46DhkV_HyRIR1xDEH-dz-mY,"[u'point_of_interest', u'establishment']"
0,43.2622654,5.394101,Carrosserie AD,ChIJOcEljl_HyRIR2KqgQruhVcU,"[u'car_repair', u'point_of_interest', u'establishment']"
0,43.2597549,5.3951562,Géant Casino,ChIJv1Ol4J-4yRIRU2cxYf0-D9I,"[u'grocery_or_supermarket', u'food', u'store', u'point_of_interest', u'establishment']"
0,43.2661892,5.3916581,A.s.p.t.t Marseille,ChIJCZFvNFnHyRIRedZZbiYYn8g,"[u'point_of_interest', u'establishment']"
