,Latitude,Longitude,Name,Place_id,Type
0,43.688994,4.871352,Mouriès,ChIJLy9sIpzitRIRzxFeOr1Taus,"[u'locality', u'political']"
0,43.6952106,4.8832867,La Méridienne,ChIJ_R559a_itRIR3Ym6vbzJ_dY,"[u'lodging', u'point_of_interest', u'establishment']"
0,43.708655,4.892334,Botte Robert,ChIJnU-ePcvitRIRysGMWKI7Ios,"[u'point_of_interest', u'establishment']"
0,43.695282,4.883211,Trefois Philippe,ChIJ_R559a_itRIRGZziyPtDWE4,"[u'lodging', u'point_of_interest', u'establishment']"
0,43.705272,4.8898288,CCP,ChIJpcuJjLXitRIRXalEOruRCrY,"[u'point_of_interest', u'establishment']"
0,43.7011467,4.898829,Trouche Patrice,ChIJgetpWEn9tRIRvWgGRVOh8_k,"[u'food', u'point_of_interest', u'establishment']"
0,43.6952106,4.8832867,Courtheoux Paul,ChIJ_R559a_itRIR8dME29bjMbE,"[u'lawyer', u'finance', u'point_of_interest', u'establishment']"
0,43.708655,4.892334,Van Woerden Revoil Marie Cornelie,ChIJnU-ePcvitRIR06Ycu0H8mAU,"[u'point_of_interest', u'establishment']"
0,43.7022329,4.902194,Vanderstein Christophe,ChIJ4bWo8Uj9tRIRWbLRVwOsv28,"[u'plumber', u'point_of_interest', u'establishment']"
0,43.708655,4.892334,Les Baumettes,ChIJnU-ePcvitRIRpm4ogPftM4c,"[u'sublocality_level_1', u'sublocality', u'political']"
0,43.686093,4.886156,Eurorepar Garage Du Coussoul,ChIJh6NFewIIthIR8SUb_cjqmMI,"[u'car_repair', u'point_of_interest', u'establishment']"
0,43.692421,4.902005,Le Ranch des Alpilles,ChIJDxyH71D9tRIR2vG_CofGoIc,"[u'travel_agency', u'point_of_interest', u'establishment']"
0,43.6867855,4.880974,Terr'agro,ChIJsy3CfR0IthIRonjzmTUOy1Q,"[u'point_of_interest', u'establishment']"
0,43.6909618,4.8792838,Puech Remy,ChIJHcMelqbitRIRUAQi1sfr3KA,"[u'general_contractor', u'point_of_interest', u'establishment']"
0,43.6859146,4.8825485,La Roseraie,ChIJ-a5Xu5_itRIRFnN63FjMo6g,"[u'florist', u'store', u'point_of_interest', u'establishment']"
0,43.6898885,4.8788497,Bertrand Jean Andre,ChIJ9bY826bitRIRkE93SW2FcYU,"[u'point_of_interest', u'establishment']"
0,43.6858043,4.8814016,Stade Pierre Astier,ChIJhU2och0IthIR7km5dLugi8w,"[u'stadium', u'point_of_interest', u'establishment']"
0,43.7150729,4.8951863,chefalex,ChIJdUQJYS39tRIRqEyNNVU-5JY,"[u'bakery', u'food', u'store', u'point_of_interest', u'establishment']"
0,43.7115022,4.8792279,Oppidum des Caisses de Jean-Jean,ChIJL23sF8TitRIRPbSXr7N98Kw,"[u'point_of_interest', u'establishment']"
0,43.694672,4.9083862,Le Mas du Coussoul,ChIJy540Rlv9tRIRwskbGfS7xHQ,"[u'lodging', u'point_of_interest', u'establishment']"
0,43.6943749,4.8742838,Le Temps des Olives,ChIJ8Rok86LitRIRc00Jo2UJToo,"[u'lodging', u'point_of_interest', u'establishment']"
0,43.6937026,4.8752998,Tennis Club Mourièsen,ChIJm9JaTaLitRIRbgyPKqcLd9U,"[u'point_of_interest', u'establishment']"
0,43.69337,4.875727,crazylace,ChIJW4QQ8aPitRIRlQ4htNxH-b8,"[u'store', u'point_of_interest', u'establishment']"
0,43.7071165,4.8738203,13890,ChIJ9TDdE8DitRIRgy4n02bydts,"[u'point_of_interest', u'establishment']"
0,43.6944791,4.8735734,Pena-Costa Mario-Wilson,ChIJ6WMjiKLitRIRRJm44tHxNyg,"[u'lodging', u'point_of_interest', u'establishment']"
0,43.6944919,4.8734193,Iaconis Joseph,ChIJBynvh6LitRIRMGWztmkA7hk,"[u'electrician', u'point_of_interest', u'establishment']"
0,43.6943899,4.873558,Stade Espigoulier,ChIJ6WMjiKLitRIRb8ZmBuURwgc,"[u'local_government_office', u'point_of_interest', u'establishment']"
0,43.6933695,4.8757273,Complexe Sportif de l'Espigoulier,ChIJXRSAt6PitRIRaq3lT9-wEH4,"[u'premise', u'point_of_interest', u'establishment']"
0,43.638628,4.812107,Saint-Martin-de-Crau,ChIJvdow99MLthIRjbqdXn-T3UM,"[u'locality', u'political']"
0,43.6901796,4.9082816,Mas de Vincent,ChIJuYrXW1n9tRIR5o80ODTGhTw,"[u'lodging', u'point_of_interest', u'establishment']"
0,43.6947386,4.9088572,Coussou,ChIJ0y86V1v9tRIR_lV_Q3xC3S4,"[u'neighborhood', u'political']"
0,43.689322,4.876213,Le Mas Des Arènes,ChIJqUqOraHitRIRuOcOex0B07o,"[u'travel_agency', u'real_estate_agency', u'lodging', u'point_of_interest', u'establishment']"
0,43.6889215,4.8713866,Office du Tourisme,ChIJdTBivZ_itRIRA3K62GC6hfk,"[u'travel_agency', u'point_of_interest', u'establishment']"
0,43.6868728,4.8781765,Moulin à Huile Coopérative,ChIJ-a5Xu5_itRIRsHeWzmb6OEI,"[u'point_of_interest', u'establishment']"
0,43.6879768,4.8761816,Les chambres du Vieux Four,ChIJ_68-vaDitRIRYyLxBQAHDWU,"[u'lodging', u'restaurant', u'food', u'point_of_interest', u'establishment']"
0,43.6888423,4.8728724,Mairie,ChIJR2OyIKDitRIR7kde87ZGA6c,"[u'city_hall', u'local_government_office', u'point_of_interest', u'establishment']"
0,43.6897449,4.8749563,Mairie,ChIJR2OyIKDitRIRsYgDluCyqz4,"[u'city_hall', u'local_government_office', u'point_of_interest', u'establishment']"
0,43.689987,4.875549,Goélia Gestion,ChIJjz4dB6HitRIRpuk0SlyqXtU,"[u'lodging', u'point_of_interest', u'establishment']"
0,43.6872212,4.876564,Manger Attitude Mouriès,ChIJU-xKaKDitRIRh9SKzI--OMY,"[u'point_of_interest', u'establishment']"
0,43.6893114,4.8745114,Arènes André Blanc,ChIJUbH4S6DitRIR9x0miEhsTn0,"[u'stadium', u'point_of_interest', u'establishment']"
0,43.6890252,4.8717951,Post Office,ChIJubYil5_itRIR8DuM8YfB2Uk,"[u'post_office', u'finance', u'point_of_interest', u'establishment']"
0,43.6897449,4.8749563,Bullfighting Club Mouriesen,ChIJOyzEraHitRIRRN-2JqKb-nE,"[u'point_of_interest', u'establishment']"
0,43.6882363,4.8742985,L'herbier des Alpilles,ChIJw5dCaqDitRIRLAZBzwe0-pY,"[u'grocery_or_supermarket', u'food', u'store', u'point_of_interest', u'establishment']"
0,43.6897234,4.8746875,Alpilles Provence Nettoyage,ChIJOyzEraHitRIRCUDGxcrfZ8U,"[u'point_of_interest', u'establishment']"
0,43.687185,4.876712,Crèche La Cabane Aux Canailles,ChIJ2cgroKDitRIRMHFqreU3zlY,"[u'point_of_interest', u'establishment']"
0,43.6936732,4.8685947,L'Hauture,ChIJ62nmD5nitRIR8WUhHaXe75c,"[u'neighborhood', u'political']"
0,43.7233043,4.8855954,Mas de Gourgonnier,ChIJ6wTBYCz9tRIRsI1lnmQVvos,"[u'food', u'point_of_interest', u'establishment']"
0,43.718568,4.896413,Sarl Cartier,ChIJ6wTBYCz9tRIR0kSybmazvbw,"[u'point_of_interest', u'establishment']"
0,43.718568,4.896413,Mas de Joussanes,ChIJ6wTBYCz9tRIR5XFXZEbx60s,"[u'point_of_interest', u'establishment']"
0,43.718568,4.896413,G.F.A des Avettes,ChIJ6wTBYCz9tRIRtkTKJsnO2Rc,"[u'point_of_interest', u'establishment']"
0,43.723205,4.885511,Gfa Du Mas de Gourgonnier,ChIJ-0AWstfitRIRQRrD9FL7Q5A,"[u'food', u'point_of_interest', u'establishment']"
0,43.721723,4.804197,Maussane-les-Alpilles,ChIJLYk1ooThtRIRpQGEzEX71bE,"[u'locality', u'political']"
0,43.7067521,4.8699046,Golf de Servanes,ChIJmZXUacDitRIR5LowOfRpu9w,"[u'lodging', u'health', u'point_of_interest', u'establishment']"
0,43.699723,4.863376,Logis Hôtel le Vallon de Gayet,ChIJw9ctb5nitRIRNEaWrmaaIv0,"[u'lodging', u'point_of_interest', u'establishment']"
0,43.700951,4.864385,Office National des Forêts,ChIJEQvgmZHitRIRv9xzkyuvNns,"[u'park', u'point_of_interest', u'establishment']"
0,43.706036,4.866206,Château de Servannes,ChIJiaj4cJnitRIRXfIMRkleifM,"[u'lodging', u'restaurant', u'food', u'point_of_interest', u'establishment']"
0,43.7060331,4.8659166,La Bergerie de Servanes,ChIJWVVVVaXitRIR59M6XVivxu0,"[u'restaurant', u'cafe', u'bar', u'food', u'point_of_interest', u'establishment']"
0,43.6941785,4.86729,Le Mas de la Curade,ChIJvTiJ0JvitRIReg5rdEZ3xZk,"[u'travel_agency', u'real_estate_agency', u'lodging', u'point_of_interest', u'establishment']"
0,43.700951,4.864385,Palmier Frederic,ChIJiaj4cJnitRIRNrR-B7RuD_k,"[u'grocery_or_supermarket', u'food', u'store', u'point_of_interest', u'establishment']"
0,43.700951,4.864385,Henne François,ChIJEQvgmZHitRIRFQEmM3bACWE,"[u'point_of_interest', u'establishment']"
0,43.700951,4.864385,Cartoux Pierre,ChIJEQvgmZHitRIRWT-lIJCIfVA,"[u'point_of_interest', u'establishment']"
0,43.700951,4.864385,Pro-Shop Deservannes,ChIJEQvgmZHitRIRBuBFIT-QtCs,"[u'store', u'point_of_interest', u'establishment']"
0,43.700951,4.864385,Société Philippe Carre,ChIJiaj4cJnitRIRGIzOWIufXhE,"[u'bar', u'lodging', u'restaurant', u'food', u'point_of_interest', u'establishment']"
0,43.694557,4.870109,Demaria Joseph,ChIJv2qRqpnitRIRDiYS-v0A_0o,"[u'point_of_interest', u'establishment']"
0,43.6821847,4.9043931,Morgan Mirocolo Photographe,ChIJj3tIv4v4tRIRQVUCFrCOxCc,"[u'store', u'point_of_interest', u'establishment']"
0,43.676699,4.9004148,Haras du Coussoul,ChIJo4j0yuQHthIRFneSvneTEmw,"[u'point_of_interest', u'establishment']"
0,43.67635,4.90014,C. Et A. Goletto,ChIJo4j0yuQHthIRcqrQ2bb3wfs,"[u'food', u'store', u'point_of_interest', u'establishment']"
0,43.676346,4.900144,Vaisse Catherine,ChIJ70T0yuQHthIRDKzektzp6tM,"[u'point_of_interest', u'establishment']"
0,43.6820497,4.9051437,SCEA Du Coussoul,ChIJeYRfQPcHthIRUflqgySu9NI,"[u'point_of_interest', u'establishment']"
0,43.67635,4.90014,Fabre Ludovic Denis,ChIJlVRXNvsHthIR-Ca5FIsCm_o,"[u'furniture_store', u'home_goods_store', u'store', u'point_of_interest', u'establishment']"
0,43.67635,4.90014,Roatta Joseph,ChIJlVRXNvsHthIRMlqO1xNnHfk,"[u'point_of_interest', u'establishment']"
0,43.67635,4.90014,Carli Max,ChIJo4j0yuQHthIRLDnKd2jYUfU,"[u'point_of_interest', u'establishment']"
0,43.67635,4.90014,Clavel Daniel,ChIJo4j0yuQHthIRz4VGaSxbGyQ,"[u'food', u'point_of_interest', u'establishment']"
0,43.676346,4.900144,Gazengel Chambon Louise,ChIJo4j0yuQHthIRrMayzO-7iQU,"[u'point_of_interest', u'establishment']"
0,43.686027,4.875671,Techni Phyto Conseil,ChIJrfULNh4IthIRQxk_wBgX9ns,"[u'health', u'point_of_interest', u'establishment']"
0,43.687523,4.876228,Crèche Attitude La Cabane aux Canailles,ChIJT8BUmqDitRIR-Yg1zHv3BvQ,"[u'school', u'point_of_interest', u'establishment']"
0,43.6888382,4.8748654,Office National des Forêts,ChIJKT7LWqDitRIR_wMk39eFank,"[u'park', u'point_of_interest', u'establishment']"
0,43.6889056,4.8743898,Elementary School Louis Pasteur,ChIJW5d8RqDitRIRUzNpZSbgt_E,"[u'school', u'point_of_interest', u'establishment']"
0,43.6885621,4.8734674,Association Chemin Faisan,ChIJd__SPKDitRIR_EjPF5HKc-g,"[u'point_of_interest', u'establishment']"
0,43.6876467,4.8725009,Temple de l'Eglise protestante unie de France - Mouriès,ChIJL9lT-5_itRIR9TxrAMIuPso,"[u'church', u'place_of_worship', u'point_of_interest', u'establishment']"
0,43.6885621,4.8734674,Entraide Solidarité 13,ChIJxf_SPKDitRIRIEIZBD0Jyd4,"[u'point_of_interest', u'establishment']"
0,43.6892732,4.8712799,ALPILLES IMMOBILIER,ChIJidaAo5_itRIRK7po1e5vtbI,"[u'real_estate_agency', u'point_of_interest', u'establishment']"
0,43.6891502,4.8716446,Police Municipale,ChIJQ406mJ_itRIRpcjszDt4Qbg,"[u'police', u'point_of_interest', u'establishment']"
0,43.6888365,4.8709143,Activ'immo Provence,ChIJm8LorJ_itRIRab-p0_sE6Ns,"[u'real_estate_agency', u'point_of_interest', u'establishment']"
0,43.69007,4.8707564,Moulin Saint-Michel,ChIJtaOPBZ_itRIRTLvtud3eFFU,"[u'grocery_or_supermarket', u'food', u'store', u'point_of_interest', u'establishment']"
0,43.6889937,4.8719721,Caisse d'Epargne Mouries,ChIJ0zNtS57itRIR8O21i_TEg50,"[u'bank', u'finance', u'point_of_interest', u'establishment']"
0,43.6887514,4.8714019,Centre culturel,ChIJ5aZ0vp_itRIR3KBSjFww-pw,"[u'point_of_interest', u'establishment']"
0,43.6907382,4.867541,Terre et Pierre,ChIJ0d8Hnp7itRIREcC5wkRqzSY,"[u'general_contractor', u'point_of_interest', u'establishment']"
0,43.6899625,4.8680689,Piscine Alpilles Buleo,ChIJny4AMJzitRIR1LEGDX6D1Cw,"[u'general_contractor', u'store', u'point_of_interest', u'establishment']"
0,43.788652,4.831343,Saint-Rémy-de-Provence,ChIJ80hgrDHktRIR3XcOUlvR8rU,"[u'locality', u'political']"
0,43.718568,4.896413,Le Destet,ChIJ6wTBYCz9tRIRswCPGY7Zy7w,"[u'sublocality_level_1', u'sublocality', u'political']"
0,43.7202142,4.8768018,Parc,ChIJW6jMGNzitRIRE-JGqLKHJ18,"[u'park', u'point_of_interest', u'establishment']"
0,43.7120567,4.9128842,Moulin du Mas de Vaudoret,ChIJzcxwCz39tRIRs0_Rus7fWfw,"[u'food', u'point_of_interest', u'establishment']"
0,43.711972,4.912917,Waton Chabert Henry Jean Louis Albert,ChIJ3ZkbCz39tRIR-WfJu45TY54,"[u'point_of_interest', u'establishment']"
0,43.71616,4.915076,Domaine de Lauzières,ChIJ6wTBYCz9tRIRbFWAYEwEwhU,"[u'liquor_store', u'food', u'store', u'point_of_interest', u'establishment']"
0,43.711972,4.912917,Bezy Waton-chabert Edith Claude,ChIJ3ZkbCz39tRIRQwTRMj1QRHM,"[u'real_estate_agency', u'point_of_interest', u'establishment']"
0,43.706046,4.866345,Servanne,ChIJzYsDSJPitRIRD9JobG_8hXc,"[u'premise', u'point_of_interest', u'establishment']"
0,43.701745,4.928805,Ateliers Fourwinds,ChIJEU1FdHP9tRIR26TQRv_cNh0,"[u'point_of_interest', u'establishment']"
0,43.707188,4.947103,Aureille,ChIJZeXNfpj9tRIRXhxghP8hHEU,"[u'locality', u'political']"
0,43.7000235,4.8572767,Devenson,ChIJsznO1I7itRIRFIP-NWmIntQ,"[u'point_of_interest', u'establishment']"
0,43.7004463,4.8540527,Lou Ventoulet,ChIJd8vPr4nitRIRzrvKzYy_FI0,"[u'lodging', u'point_of_interest', u'establishment']"
0,43.7024929,4.863255,Fagot Luc Victor,ChIJPX9gGpLitRIRDkBymt1qh-g,"[u'finance', u'point_of_interest', u'establishment']"
0,43.7024929,4.863255,Britel,ChIJPX9gGpLitRIRn_S3XE9l90A,"[u'point_of_interest', u'establishment']"
0,43.701271,4.858357,13890,ChIJhbODvo7itRIRWuzLOzDhPAk,"[u'campground', u'park', u'lodging', u'point_of_interest', u'establishment']"
0,43.6934085,4.8642956,Pico Paint,ChIJRYVWppzitRIRKWBaCslPbNE,"[u'painter', u'point_of_interest', u'establishment']"
0,43.6958733,4.8550766,Quintin Michel,ChIJZwtfJITitRIRv1E0XHCs5L4,"[u'point_of_interest', u'establishment']"
0,43.667815,4.901519,Gaec Vercellone,ChIJiUyKnucHthIRgnyzAWoX0LA,"[u'food', u'point_of_interest', u'establishment']"
0,43.667815,4.901519,Blanc Marie-Josee,ChIJiUyKnucHthIRFxa1XlFuJQ4,"[u'point_of_interest', u'establishment']"
0,43.667815,4.901519,Mas Saint André,ChIJiUyKnucHthIRYYrJE5tH0wo,"[u'food', u'point_of_interest', u'establishment']"
0,43.6804432,4.9180901,Camping à la Ferme Les Amandaies,ChIJYZJxdYwHthIRwDTwqeF-7pU,"[u'point_of_interest', u'establishment']"
0,43.6872937,4.8712296,Les cigales,ChIJuwMcdiAIthIRPJvSnkMcXHU,"[u'lodging', u'point_of_interest', u'establishment']"
0,43.6951068,4.8528089,Hotel TERRICIAË,ChIJq11ueofitRIRhDUgTumPLeI,"[u'lodging', u'point_of_interest', u'establishment']"
0,43.6907382,4.867541,Alpilles Jardin,ChIJny4AMJzitRIRhG37XAJ55-k,"[u'hardware_store', u'store', u'point_of_interest', u'establishment']"
0,43.6899625,4.8680689,La Pierre Polie - Tailleur de pierre,ChIJ5SNFYJ7itRIR85IGHDyRcUI,"[u'point_of_interest', u'establishment']"
0,43.68758,4.86308,L'eau par Forages,ChIJh5Md-CcIthIRO5TjGGYdg8w,"[u'point_of_interest', u'establishment']"
0,43.6865741,4.8643041,Provence Matériaux,ChIJd_ndAZritRIRELBd7DtNpD8,"[u'store', u'point_of_interest', u'establishment']"
0,43.6910207,4.8646482,Station de la Vallée des Baux,ChIJY2PHY6DitRIRl-RsUtHXwoI,"[u'point_of_interest', u'establishment']"
0,43.6906742,4.8706314,L'Atelier,ChIJJ2VyHJ_itRIRbnzAP7lt-E8,"[u'furniture_store', u'home_goods_store', u'store', u'point_of_interest', u'establishment']"
0,43.740442,4.880987,13210,ChIJa9I9mTnjtRIRiJlL-MrmbLw,"[u'church', u'place_of_worship', u'point_of_interest', u'establishment']"
0,43.7402919,4.880927,Château de Pierredon,ChIJzy70mznjtRIRXdoDDi0WhBE,"[u'premise', u'point_of_interest', u'establishment']"
0,43.703079,4.846837,Le Mas Saint Roman - Gîtes et location vacances à Maussane les Alpilles,ChIJ7ajarGbitRIRI__kyvYNUUI,"[u'lodging', u'food', u'point_of_interest', u'establishment']"
0,43.7046948,4.8473633,LE PETIT ROMAN,ChIJZbLqJ2fitRIRPZD7ISu84BI,"[u'point_of_interest', u'establishment']"
0,43.6958733,4.8550766,Melquiond Anne,ChIJh2cOTobitRIRyebgIQxYiSM,"[u'finance', u'point_of_interest', u'establishment']"
0,43.695796,4.8550129,Camping du Devenson,ChIJh2cOTobitRIR_4yjVj_Dm6A,"[u'campground', u'park', u'lodging', u'point_of_interest', u'establishment']"
0,43.6843348,4.8626377,Club Canin De Mouries,ChIJtykuISYIthIRQTMwIfxPV_k,"[u'point_of_interest', u'establishment']"
0,43.6882412,4.8715565,l' Oustaou de Mouriès,ChIJbbMS6p_itRIRcsv2hk7sltc,"[u'lodging', u'point_of_interest', u'establishment']"
0,43.6904074,4.8671539,Petit Casino,ChIJux54KZzitRIRnnG0PXo6x34,"[u'convenience_store', u'food', u'store', u'point_of_interest', u'establishment']"
0,43.689052,4.870523,Action Immo Alpilles,ChIJGx0csp_itRIRIkvrDVv5v-0,"[u'real_estate_agency', u'point_of_interest', u'establishment']"
0,43.6890237,4.8710325,EPICURIEUX Curiosités Gustatives,ChIJp1LZup_itRIRB4Vqxc-9oGk,"[u'restaurant', u'grocery_or_supermarket', u'food', u'store', u'point_of_interest', u'establishment']"
0,43.6913832,4.8540665,Banon Philippe,ChIJB9A95oDitRIR4HZ7FCIBBhc,"[u'food', u'point_of_interest', u'establishment']"
0,43.6934273,4.8547845,Alexandre Jean Francois Guy Pierre,ChIJuQ432IbitRIR0lCw6p6ulYQ,"[u'car_repair', u'point_of_interest', u'establishment']"
0,43.6934474,4.8537674,Mas de Jacquet,ChIJu0htOofitRIRZek_f5SmE8o,"[u'point_of_interest', u'establishment']"
0,43.6919528,4.8608898,Jo Auto Clean,ChIJ37kXZoPitRIRnyDvVBbkaaM,"[u'point_of_interest', u'establishment']"
0,43.6916469,4.8616283,BET Tissier Gregory,ChIJ99LoRYPitRIR3XDBOR3sHR8,"[u'point_of_interest', u'establishment']"
0,43.6920118,4.86218,Gambino Virginie,ChIJt1M-UoPitRIRFH8tDeLGPcI,"[u'point_of_interest', u'establishment']"
0,43.6899236,4.8467821,Yelamos Richaud Agnes,ChIJh3GczHjitRIRSNB9b_i1qns,"[u'food', u'point_of_interest', u'establishment']"
0,43.6899236,4.8467821,Guillemin Eric,ChIJh3GczHjitRIRox9x_jrEKRk,"[u'furniture_store', u'home_goods_store', u'store', u'point_of_interest', u'establishment']"
0,43.6899236,4.8467821,Genk,ChIJh3GczHjitRIR0rd_37aGuBM,"[u'real_estate_agency', u'point_of_interest', u'establishment']"
0,43.705584,4.936292,Plaisirs et Maisons de Provence,ChIJE_gLZ6D9tRIRbCW5x6iaOxc,"[u'travel_agency', u'real_estate_agency', u'point_of_interest', u'establishment']"
0,43.68531,4.93118,Société Nouvelle Omag,ChIJ8_IBGH79tRIR_Sxxb-h_qQk,"[u'point_of_interest', u'establishment']"
0,43.685311,4.931182,Europe Cornets,ChIJ8_IBGH79tRIRsd1CgT_P12I,"[u'point_of_interest', u'establishment']"
0,43.68531,4.93118,Montuoro Francesco Salvatore,ChIJ8_IBGH79tRIRdi1pjFPDme0,"[u'general_contractor', u'point_of_interest', u'establishment']"
0,43.68531,4.93118,Escoffier Louis Joseph,ChIJ8_IBGH79tRIRKhbgcuTbDts,"[u'point_of_interest', u'establishment']"
0,43.68531,4.93118,Cotton David,ChIJ8_IBGH79tRIRc6gzgazUPcA,"[u'point_of_interest', u'establishment']"
0,43.68531,4.93118,Torres José,ChIJ8_IBGH79tRIRtRI5iL1uUrc,"[u'general_contractor', u'point_of_interest', u'establishment']"
0,43.68531,4.93118,Piton Stephane,ChIJ8_IBGH79tRIRf0XlhVLj5Js,"[u'electrician', u'point_of_interest', u'establishment']"
0,43.68531,4.93118,Bayol Alain,ChIJ8_IBGH79tRIRfsOOalcII2A,"[u'point_of_interest', u'establishment']"
0,43.68531,4.93118,Galas Bernard,ChIJ8_IBGH79tRIRMqRgwqmBYh0,"[u'food', u'point_of_interest', u'establishment']"
0,43.685311,4.931182,Francart Jean Yves,ChIJF-kBGH79tRIRCpSZ9y3xvJI,"[u'food', u'point_of_interest', u'establishment']"
0,43.685311,4.931182,La Clé Des Champs,ChIJF-kBGH79tRIRruJVDhow7R4,"[u'general_contractor', u'point_of_interest', u'establishment']"
0,43.688016,4.8633689,unnamed,ChIJzSOOW53itRIR-MhEm3yeCXk,"[u'point_of_interest', u'establishment']"
0,43.6888213,4.86319,Sanchez Pierre,ChIJCZnhR53itRIRJrwUn2LIa-g,"[u'general_contractor', u'point_of_interest', u'establishment']"
0,43.6888213,4.86319,Perelli Fabrice,ChIJCZnhR53itRIRY2Q1CLkLPm8,"[u'point_of_interest', u'establishment']"
0,43.6888213,4.86319,ENT Maçonnerie générale Sanchez Antoine,ChIJCZnhR53itRIRHg5cX7xQIWQ,"[u'point_of_interest', u'establishment']"
0,43.6888213,4.86319,Franchi-simeoni,ChIJCZnhR53itRIRqS4fGHgB5Ds,"[u'plumber', u'point_of_interest', u'establishment']"
0,43.6896439,4.8621493,Garcia Gerard,ChIJMyXQ04LitRIRSwsx6jYXh1E,"[u'point_of_interest', u'establishment']"
0,43.6866384,4.8655882,mr bricoltout,ChIJ-TkOcicIthIRfbopHyREByg,"[u'point_of_interest', u'establishment']"
0,43.67488,4.85069,Vacquière,ChIJKydzlcwJthIRjH-jUhOSvgg,"[u'premise', u'point_of_interest', u'establishment']"
0,43.687518,4.842352,Ebénisterie d'art les Herminettes,ChIJvXiJ7dcJthIR1QyqKTW6IM4,"[u'point_of_interest', u'establishment']"
0,43.737684,4.919339,Mas de Verger,ChIJ3RapVen8tRIR2d4gHZIAK1g,"[u'premise', u'point_of_interest', u'establishment']"
