,Latitude,Longitude,Name,Place_id,Type
0,43.5252229,5.672943,Puyloubier,ChIJbW9CdhCDyRIRjzouofs5FGA,"[u'locality', u'political']"
0,43.5247513,5.6719307,Les Vignerons du Mont Sainte-Victoire,ChIJ4Q4zPD6byRIRCXsKmnFpoBQ,"[u'food', u'point_of_interest', u'establishment']"
0,43.5230014,5.676739,Résidence l'Ensouléïado,ChIJM1A_bhCDyRIR4nksTogr4BU,"[u'health', u'point_of_interest', u'establishment']"
0,43.524746,5.676131,Paroisse de Puyloubier,ChIJ1QFVFBCDyRIRADe64Mps5p0,"[u'church', u'place_of_worship', u'point_of_interest', u'establishment']"
0,43.524746,5.676131,Domaine de Saint Ser,ChIJr8aMTxKDyRIR7IQJihuKlXc,"[u'food', u'point_of_interest', u'establishment']"
0,43.5259035,5.6746955,Les Sarments,ChIJrej9Kg6DyRIRk3G_L8ic0Z8,"[u'bar', u'restaurant', u'food', u'point_of_interest', u'establishment']"
0,43.522725,5.677732,EFC Evénement,ChIJ1QFVFBCDyRIRDF4B_hiaSAg,"[u'point_of_interest', u'establishment']"
0,43.52475,5.67613,Syndicat d'Initiative,ChIJ1QFVFBCDyRIRU-axWBufK0Y,"[u'travel_agency', u'point_of_interest', u'establishment']"
0,43.525742,5.674755,Gorgeon Daniel,ChIJS7VX1RGDyRIR1BuU3cu1fSI,"[u'lodging', u'point_of_interest', u'establishment']"
0,43.525712,5.676648,Atelier Liberté Créations Couture,ChIJd8m54g-DyRIRrWpM0GEVPSY,"[u'point_of_interest', u'establishment']"
0,43.523158,5.673053,Familles Rurales Ass de Puyloubier,ChIJ7yavdhGDyRIRFNKIY0ugO1Y,"[u'point_of_interest', u'establishment']"
0,43.5248972,5.6767445,Nursery School,ChIJP5OVHRCDyRIRQNOBoNF1Qo0,"[u'school', u'point_of_interest', u'establishment']"
0,43.5240235,5.681927,Assurance AXA M CAUDIERE BERNARD,ChIJ1QFVFBCDyRIR7PXuRCWUapM,"[u'insurance_agency', u'bank', u'health', u'finance', u'point_of_interest', u'establishment']"
0,43.524746,5.676131,Mairie,ChIJIfjcFRCDyRIRJ_BLBcZ8_7I,"[u'point_of_interest', u'establishment']"
0,43.524746,5.676131,Domaine Richeaume,ChIJIfjcFRCDyRIROEpwK777zIo,"[u'point_of_interest', u'establishment']"
0,43.524746,5.676131,Maison Familiale Rurale,ChIJIfjcFRCDyRIRvtRMziis7mE,"[u'point_of_interest', u'establishment']"
0,43.5245919,5.6713861,Electric Malin,ChIJN-0VPRKDyRIRBPBlCpHA1wg,"[u'electrician', u'point_of_interest', u'establishment']"
0,43.5245399,5.6712131,Sarboni Pascal,ChIJPZ7xNxKDyRIR2IRUjdaGutM,"[u'point_of_interest', u'establishment']"
0,43.5257604,5.6735952,Le Café Sainte Victoire,ChIJux0kIQ6DyRIRj6oa_NTfNyw,"[u'restaurant', u'bar', u'food', u'point_of_interest', u'establishment']"
0,43.521823,5.674093,L'Avocat,ChIJZSuxJBGDyRIRkSHXLJWwkio,"[u'sublocality_level_1', u'sublocality', u'political']"
0,43.5257349,5.6731913,AGST IMMO,ChIJv7174hGDyRIRHx8Ne_Mmg0w,"[u'real_estate_agency', u'point_of_interest', u'establishment']"
0,43.5258421,5.6730402,i-cube agencement,ChIJzxt_4hGDyRIRgG0CZhQPmDM,"[u'point_of_interest', u'establishment']"
0,43.5262152,5.6823881,Parcours des Gourmets,ChIJ7Vg6oQSDyRIRvXotZ9LYQ0c,"[u'point_of_interest', u'establishment']"
0,43.525538,5.6707161,Lou Ribas,ChIJRUPvchKDyRIRBb3j64SxG5g,"[u'lodging', u'point_of_interest', u'establishment']"
0,43.5267733,5.6738139,Ethique Et Mobilisation,ChIJ043PPg6DyRIRPH1qjqfuj9M,"[u'point_of_interest', u'establishment']"
0,43.522821,5.675868,Jacquet Firmin,ChIJwYz1XhCDyRIREiIaJzOzSg4,"[u'food', u'point_of_interest', u'establishment']"
0,43.523007,5.675503,Housset Robert,ChIJf6vS8BCDyRIRupT670oqG4E,"[u'point_of_interest', u'establishment']"
0,43.523007,5.675503,Lachau Albert,ChIJf6vS8BCDyRIR5GJ0qHjYsUY,"[u'food', u'point_of_interest', u'establishment']"
0,43.523007,5.675503,Rigaud Metras Maryse,ChIJf6vS8BCDyRIRRhri8nsMjgs,"[u'food', u'point_of_interest', u'establishment']"
0,43.520665,5.683337,unnamed,ChIJP-ogHRyDyRIRxvycIwjojgs,"[u'point_of_interest', u'establishment']"
0,43.523158,5.673053,Brun Jean-Pierre Julien G,ChIJ7yavdhGDyRIRbBdW9UFHNyQ,"[u'point_of_interest', u'establishment']"
0,43.523244,5.6730893,Bert Brun Paule Juliette Louise,ChIJ7yavdhGDyRIRqK863aFpRaI,"[u'food', u'point_of_interest', u'establishment']"
0,43.524335,5.676285,13114,ChIJsah0axCDyRIRG4GKgLsnzVI,"[u'church', u'place_of_worship', u'point_of_interest', u'establishment']"
0,43.5246843,5.6760562,Roure Maurice Henri Gilbert,ChIJ1QFVFBCDyRIRzw11CNfqB90,"[u'food', u'point_of_interest', u'establishment']"
0,43.5246843,5.6760562,Roure Pellegrino Gilberte Rosette,ChIJ1QFVFBCDyRIRnbx8H03mrR4,"[u'food', u'point_of_interest', u'establishment']"
0,43.524746,5.676131,SCEA Saint Pancrace,ChIJ1QFVFBCDyRIRtX2fDNAHqf8,"[u'food', u'point_of_interest', u'establishment']"
0,43.524746,5.676131,Indivision Brun Freres,ChIJ1QFVFBCDyRIRO5hQIE0CHfI,"[u'food', u'point_of_interest', u'establishment']"
0,43.524746,5.676131,Fabre Michel,ChIJ1QFVFBCDyRIRngqqoVrB5bg,"[u'food', u'point_of_interest', u'establishment']"
0,43.524746,5.676131,Sirvent Francoise,ChIJ1QFVFBCDyRIR_mGwjqBqr5M,"[u'food', u'point_of_interest', u'establishment']"
0,43.524746,5.676131,Brayda Franck,ChIJ1QFVFBCDyRIRl3azLWPCM48,"[u'food', u'point_of_interest', u'establishment']"
0,43.524746,5.676131,Domaines Quiot en Provence,ChIJ1QFVFBCDyRIR_Wynmld6-m4,"[u'food', u'point_of_interest', u'establishment']"
0,43.524746,5.676131,Villa Sabine Lucie Jeanine,ChIJT0ncFRCDyRIRquqRG9Eau10,"[u'food', u'point_of_interest', u'establishment']"
0,43.524746,5.676131,Indivision Mistre Alain,ChIJ1QFVFBCDyRIRdrvngWXMzB0,"[u'food', u'point_of_interest', u'establishment']"
0,43.5245074,5.6748259,Rigaud Jacky,ChIJX1RxNRCDyRIRsqvvISXVUnA,"[u'food', u'point_of_interest', u'establishment']"
0,43.52475,5.67613,Earl Gautier,ChIJ1QFVFBCDyRIRy3dfYinXCUo,"[u'food', u'point_of_interest', u'establishment']"
0,43.5247909,5.6762323,Stil Jean-Bernard,ChIJRUPvchKDyRIRztqJTbsPTb4,"[u'point_of_interest', u'establishment']"
0,43.5249327,5.6758803,Onnis Pascal,ChIJ59oyJhCDyRIR8pFOnPlxkqk,"[u'point_of_interest', u'establishment']"
0,43.522141,5.670081,unnamed,ChIJVzfmmRODyRIRzKyMyHuJv6s,"[u'point_of_interest', u'establishment']"
0,43.5250273,5.6795782,Prior Christophe,ChIJo7rd0BqDyRIRKEElImCoAPY,"[u'department_store', u'store', u'point_of_interest', u'establishment']"
0,43.525275,5.6766114,School Group,ChIJDRDNBBCDyRIRw-pbWYTEVVg,"[u'school', u'point_of_interest', u'establishment']"
0,43.525281,5.676138,13114,ChIJKfzrGBCDyRIRqwaESSh7Rbk,"[u'church', u'place_of_worship', u'point_of_interest', u'establishment']"
0,43.5253518,5.677036,Delaunay David,ChIJBZNWARCDyRIR9GiabqG9T3I,"[u'point_of_interest', u'establishment']"
0,43.5249627,5.6740828,Castoux Bernard Lucien,ChIJ9y1hzxGDyRIRfXgCKPSmLec,"[u'electrician', u'point_of_interest', u'establishment']"
0,43.5249627,5.6740828,Castoux Raoul,ChIJ9y1hzxGDyRIR2xD-2e88BMo,"[u'food', u'point_of_interest', u'establishment']"
0,43.5249627,5.6740828,SNB,ChIJ9y1hzxGDyRIRbkSrCPadp58,"[u'real_estate_agency', u'point_of_interest', u'establishment']"
0,43.5249627,5.6740828,Mautin Ariane Marie Sabine,ChIJ9y1hzxGDyRIRilJMeZU4lpI,"[u'point_of_interest', u'establishment']"
0,43.5249627,5.6740828,La Colline Aux Loups Sarl,ChIJ9y1hzxGDyRIRvuIq0Eb5iRo,"[u'point_of_interest', u'establishment']"
0,43.5249627,5.6740828,La Trilogie,ChIJ9y1hzxGDyRIRm0Siq16y7BQ,"[u'point_of_interest', u'establishment']"
0,43.525433,5.6757036,Quéré Jean-Pierre,ChIJb5YmJBCDyRIR-yg9-UGJ58g,"[u'health', u'point_of_interest', u'establishment']"
0,43.525483,5.6755211,Eglise Saint-Pons,ChIJVVEUIxCDyRIRBCmOVHclFNw,"[u'church', u'place_of_worship', u'point_of_interest', u'establishment']"
0,43.506015,5.68849,Chapelle Saint-Pancrace,ChIJZdjZAtiCyRIREiba3HVyIrY,"[u'church', u'place_of_worship', u'point_of_interest', u'establishment']"
0,43.5275924,5.682474,Le Cézanne,ChIJp56tgQSDyRIRgMAvd40ed4s,"[u'campground', u'park', u'lodging', u'point_of_interest', u'establishment']"
0,43.5269564,5.6852719,La Grande Bauquiere,ChIJe6Kj4gKDyRIR9vtqHcOB9bE,"[u'point_of_interest', u'establishment']"
0,43.526593,5.686028,I et L Services,ChIJmTnm6AKDyRIRZGIGsIorm8c,"[u'point_of_interest', u'establishment']"
0,43.527253,5.688257,Huile d'Olive du Chapelet,ChIJcR05ef2CyRIRRSPhbhe0zqE,"[u'point_of_interest', u'establishment']"
0,43.527005,5.688372,Coutrot Joséphine,ChIJ7Vg6oQSDyRIRfD2XNiNveOo,"[u'point_of_interest', u'establishment']"
0,43.525889,5.6736962,Café Sainte Victoire,ChIJR6cmIQ6DyRIRAZsBwOmNcHM,"[u'cafe', u'restaurant', u'food', u'store', u'point_of_interest', u'establishment']"
0,43.5268538,5.6800417,Monnier Daniel Patrick,ChIJLxOQ4QSDyRIR5X8_hhzKgTc,"[u'health', u'point_of_interest', u'establishment']"
0,43.5258118,5.6762913,Robert Claude,ChIJ4WC24Q-DyRIRbxAZDxcg8TY,"[u'food', u'point_of_interest', u'establishment']"
0,43.52569,5.676611,NCN Comm' (NCN Communication),ChIJlzjFAhCDyRIRUN2gmoJoJ74,"[u'point_of_interest', u'establishment']"
0,43.5256532,5.6765434,Gautier Alain,ChIJP5OVHRCDyRIRQqqmnWplHE0,"[u'food', u'point_of_interest', u'establishment']"
0,43.5256532,5.6765434,Vitali Muriel,ChIJP5OVHRCDyRIRJfoqWARV-i0,"[u'point_of_interest', u'establishment']"
0,43.5260344,5.6755442,Meggle Gaspard Kiriako,ChIJecnS2w-DyRIRAEBW1LNbBK8,"[u'point_of_interest', u'establishment']"
0,43.525971,5.6754748,Noailly Pierre Cecile Sabine,ChIJKZKN2Q-DyRIRYD15gvK882Y,"[u'point_of_interest', u'establishment']"
0,43.5260441,5.6752137,Cabasson Armand,ChIJo8cp0Q-DyRIRg7fkFYQSBwk,"[u'food', u'point_of_interest', u'establishment']"
0,43.5261974,5.6748401,Fakiri Agathe,ChIJWyHj0g-DyRIReZq8e71Entg,"[u'point_of_interest', u'establishment']"
0,43.5261865,5.6747157,Zagarrigo Marc,ChIJnZbm0g-DyRIR2P379YqYhyU,"[u'general_contractor', u'point_of_interest', u'establishment']"
0,43.5255673,5.6754179,La gourmandine. Festival des pains,ChIJmYbSJxCDyRIRmj7gjjKhujQ,"[u'bakery', u'food', u'store', u'point_of_interest', u'establishment']"
0,43.5256362,5.675247,Pineau Daniel,ChIJF09IKBCDyRIRTfUd7CvKGeA,"[u'point_of_interest', u'establishment']"
0,43.5255313,5.6753248,F.e.b,ChIJQZaLKBCDyRIRTP6v-qqlUW0,"[u'bakery', u'food', u'store', u'point_of_interest', u'establishment']"
0,43.5260616,5.6745703,Watrigant Eric,ChIJJ9H6Lg6DyRIRtValjxPrcNE,"[u'point_of_interest', u'establishment']"
0,43.5260697,5.6744683,Hurlin Françoise,ChIJvy6vLg6DyRIRMv0LLTk9tO0,"[u'point_of_interest', u'establishment']"
0,43.527236,5.681436,13114,ChIJy8p7jQSDyRIR-XFtFzE0DYY,"[u'stadium', u'point_of_interest', u'establishment']"
0,43.5271453,5.6815604,Stade Meano,ChIJkwkUkgSDyRIRiiun_X9e4cg,"[u'stadium', u'point_of_interest', u'establishment']"
0,43.5257436,5.6745067,Mora Leccia Juliette Georgette F,ChIJU4iEsQh4yRIRhmotHJO8CIk,"[u'food', u'point_of_interest', u'establishment']"
0,43.5257436,5.6745067,Leccia Sebastien Rolland Ju,ChIJU4iEsQh4yRIRGm2fhWTHL1Q,"[u'food', u'point_of_interest', u'establishment']"
0,43.525535,5.674768,Rebrond Frédéric,ChIJdYo5KxCDyRIRi6S3HyFegv0,"[u'point_of_interest', u'establishment']"
0,43.525535,5.674768,Jaafar Hakim,ChIJdYo5KxCDyRIRjpnn-mlGB08,"[u'point_of_interest', u'establishment']"
0,43.524994,5.682959,Association EQUIPSY,ChIJCxqyrhyDyRIRnNLSJcMvIGo,"[u'health', u'point_of_interest', u'establishment']"
0,43.514538,5.69494,Lopez Patrice,ChIJ_yDVkd2CyRIR9B7Tlamy8vg,"[u'food', u'point_of_interest', u'establishment']"
0,43.514538,5.69494,Bayle Serge Maurice,ChIJ_yDVkd2CyRIRug_XeoadlO8,"[u'point_of_interest', u'establishment']"
0,43.514538,5.69494,Gaec Bayle de L'oustalet,ChIJ_yDVkd2CyRIRxt9ZC6XBQGw,"[u'food', u'point_of_interest', u'establishment']"
0,43.5269564,5.6852719,Mistre Christian,ChIJe6Kj4gKDyRIR3dqKjNuGw8I,"[u'point_of_interest', u'establishment']"
0,43.5267995,5.6832776,Nathalie Goncalves,ChIJy3SFaAODyRIRcz4ivfepUJs,"[u'point_of_interest', u'establishment']"
0,43.527415,5.68496,SCP D Infirmieres Porte Padovani,ChIJyzc4AQODyRIROTJ-U0DGjVk,"[u'health', u'point_of_interest', u'establishment']"
0,43.5232396,5.6640193,Grain d'Olive,ChIJU9xBWGyDyRIRiDZQ0i2sCdg,"[u'point_of_interest', u'establishment']"
0,43.5216314,5.6656935,Taxi Sainte Victoire,ChIJaWEsomyDyRIRaiGgdnLFHDQ,"[u'point_of_interest', u'establishment']"
0,43.5222067,5.6682457,Annie Gautier,ChIJg7I8ahODyRIRsRcqIyzegtA,"[u'point_of_interest', u'establishment']"
0,43.5222067,5.6682457,Fabre Maxime,ChIJg7I8ahODyRIRZp70hLfGEpA,"[u'point_of_interest', u'establishment']"
0,43.5216314,5.6656935,Castoux Pierre,ChIJaWEsomyDyRIRlb0ycYIu7bM,"[u'food', u'point_of_interest', u'establishment']"
0,43.5217195,5.6656688,Adem Consulting,ChIJaWEsomyDyRIRviwFd5GAtfs,"[u'point_of_interest', u'establishment']"
0,43.5217195,5.6656688,Demarque,ChIJaWEsomyDyRIR8MI3cJU-tMg,"[u'point_of_interest', u'establishment']"
0,43.5147927,5.6673712,Mistre Bernard,ChIJ3dFijz-DyRIRAWE01c_abPU,"[u'food', u'point_of_interest', u'establishment']"
0,43.5231777,5.6692824,Py Michel Antoine Michel,ChIJleX-BhODyRIRZoFswSmuGbU,"[u'point_of_interest', u'establishment']"
0,43.524225,5.670018,Roger Leriche Marie-Line,ChIJW5VDUBKDyRIRbqOuB_Vdc6w,"[u'point_of_interest', u'establishment']"
0,43.524225,5.670018,So Sam,ChIJW5VDUBKDyRIRXMz9liPOWEk,"[u'point_of_interest', u'establishment']"
0,43.524225,5.670018,Robert Thierry,ChIJW5VDUBKDyRIRRDFqHzwPyBI,"[u'food', u'point_of_interest', u'establishment']"
0,43.5245399,5.6712131,Botella Martine,ChIJg7I8ahODyRIRPvgc4W2PsoQ,"[u'health', u'point_of_interest', u'establishment']"
0,43.5248923,5.6713861,PLOMBIÊR Marc,ChIJ-0BwFxKDyRIR8MrFJJYD7bg,"[u'point_of_interest', u'establishment']"
0,43.524761,5.672181,unnamed,ChIJcY4U9RGDyRIRp8IRxkpABxg,"[u'point_of_interest', u'establishment']"
0,43.525538,5.6707161,Nouveau Regis,ChIJRUPvchKDyRIRNsph1A-22vk,"[u'food', u'point_of_interest', u'establishment']"
0,43.525538,5.6707161,D'aillaud de Caseneuve Roselyne,ChIJRUPvchKDyRIRtMgNa61MZt0,"[u'food', u'point_of_interest', u'establishment']"
0,43.525267,5.672944,13114,ChIJtSeF5RGDyRIRDqCiBlhWXTk,"[u'post_office', u'finance', u'point_of_interest', u'establishment']"
0,43.5253865,5.6729635,13114,ChIJTx5N5BGDyRIRTJhHj50LIFE,"[u'city_hall', u'local_government_office', u'point_of_interest', u'establishment']"
0,43.5260177,5.673067,Soldini Corinne,ChIJQbUnHA6DyRIRrm_73eppygg,"[u'point_of_interest', u'establishment']"
0,43.5259426,5.6734644,Hair Design,ChIJ4ayDHw6DyRIRVvybacUZRTg,"[u'hair_care', u'point_of_interest', u'establishment']"
0,43.510981,5.698442,13114,ChIJv-_FTMOCyRIRHvX63AWWDX8,"[u'point_of_interest', u'establishment']"
0,43.5112049,5.657599,unnamed,ChIJYU4kvkSDyRIRDG9fDmYCoH4,"[u'point_of_interest', u'establishment']"
0,43.555284,5.602142,Vauvenargues,ChIJNzNcnT6EyRIRoP6W_aUZCAQ,"[u'locality', u'political']"
0,43.5277702,5.685851,Fiorentino Paul,ChIJ1QFVFBCDyRIRl6ZqUcdN5vQ,"[u'doctor', u'health', u'point_of_interest', u'establishment']"
0,43.5277702,5.685851,Mistre Rémy,ChIJ1QFVFBCDyRIRwv3NAhIUpQI,"[u'food', u'point_of_interest', u'establishment']"
0,43.523184,5.66437,Angelin,ChIJ67UK92yDyRIR4bgxklcQPag,"[u'sublocality_level_1', u'sublocality', u'political']"
0,43.5265296,5.6659618,FOUASSIER Corinne Assistante Maternelle Agréée,ChIJTx90pHKDyRIRrnzylrxZTHY,"[u'point_of_interest', u'establishment']"
0,43.52618,5.673333,Ball-Caillon Marie-Claire,ChIJoTrmIw6DyRIRgRFcVhM8NgU,"[u'doctor', u'health', u'point_of_interest', u'establishment']"
0,43.526029,5.6739886,Pilati Chevalier,ChIJE1H0Jg6DyRIRspNsPU32zNY,"[u'point_of_interest', u'establishment']"
0,43.5223271,5.7023979,Légion Etrangère,ChIJ7Vg6oQSDyRIRBZGRuwp-JHU,"[u'point_of_interest', u'establishment']"
0,43.518594,5.70251,RS Solutions Lab,ChIJBQcgQemCyRIRn7GgseBdawI,"[u'point_of_interest', u'establishment']"
0,43.520899,5.704417,unnamed,ChIJU76UPOyCyRIRYJl2gYQEhqw,"[u'point_of_interest', u'establishment']"
0,43.521786,5.7022259,Château du Général,ChIJ38Hv9O6CyRIRseu1BWaj1zU,"[u'premise', u'point_of_interest', u'establishment']"
0,43.525534,5.653288,Domaine Sainte-Lucie et des Diables,ChIJGVVVVRWDyRIR5eN7_SzoZ6o,"[u'food', u'point_of_interest', u'establishment']"
0,43.5239609,5.6601369,Parking Puyloubier,ChIJ-xUQ9W6DyRIRImaVlkO4MKA,"[u'point_of_interest', u'establishment']"
0,43.446909,5.6841549,Trets,ChIJMa9YG06cyRIR1hirAceWy5k,"[u'locality', u'political']"
0,43.489551,5.665793,Bufalo bois,ChIJ07ITxrecyRIRqpDiw2qFsTc,"[u'general_contractor', u'point_of_interest', u'establishment']"
0,43.488922,5.666981,Bar Restaurant le Mily Metre,ChIJ3T2DH8icyRIRqG0GThcq4HQ,"[u'bar', u'restaurant', u'food', u'point_of_interest', u'establishment']"
0,43.4890693,5.6667115,Le Mylimetre,ChIJH2a637ecyRIRdd7l1jUpFvk,"[u'point_of_interest', u'establishment']"
0,43.484837,5.679817,Pont des Tortues,ChIJu8pS_tqcyRIRWk-TrPk34x0,"[u'premise', u'point_of_interest', u'establishment']"
0,43.48446,5.681228,Pont de Caminet,ChIJb2WXtducyRIRvbDruRPmeZY,"[u'premise', u'point_of_interest', u'establishment']"
0,43.504821,5.697311,Earl Saint Pons,ChIJvas-INCCyRIR7YXJFmtm44E,"[u'food', u'point_of_interest', u'establishment']"
0,43.504133,5.698296,Cavalier,ChIJvas-INCCyRIRvr7EGydoswk,"[u'sublocality_level_1', u'sublocality', u'political']"
0,43.508052,5.648217,Bastide de Richeaume,ChIJRSywK1iDyRIR4bP15SvJv4E,"[u'point_of_interest', u'establishment']"
0,43.501204,5.655491,Gassier,ChIJ1QFVFBCDyRIRnJvp1f4-xRA,"[u'food', u'point_of_interest', u'establishment']"
0,43.5268332,5.6534958,Le Relais de Saint de Ser,ChIJffklK3uDyRIRGjiZ2SmwF4U,"[u'point_of_interest', u'establishment']"
0,43.5259272,5.6496021,Domaine de Saint-Ser,ChIJRyKzP2ODyRIRJdtio1hJies,"[u'food', u'point_of_interest', u'establishment']"
0,43.5037499,5.735804,Pourrières,ChIJQ2jKBPF3yRIRsMqP_aUZCAQ,"[u'locality', u'political']"
0,43.489082,5.6654115,Burel Provence Autos Anciennes,ChIJs-_-pwDryRIRDbOdXIGiyWI,"[u'car_dealer', u'car_repair', u'store', u'point_of_interest', u'establishment']"
0,43.490412,5.662925,Accent du Sud GROUPE,ChIJM8vAkE2cyRIRKAotf2567dw,"[u'general_contractor', u'point_of_interest', u'establishment']"
0,43.509415,5.647044,Domaine Richeaume - Sylvain Hoesch,ChIJpb4ealiDyRIR3Vj8qpoKXC4,"[u'liquor_store', u'food', u'store', u'point_of_interest', u'establishment']"
0,43.509415,5.647044,Richeaume,ChIJpb4ealiDyRIRCmbCAAIkxC4,"[u'sublocality_level_1', u'sublocality', u'political']"
0,43.52961,5.643335,Relais de Saint Ser,ChIJea-wJcmEyRIRFBZAGhNNIgE,"[u'restaurant', u'lodging', u'food', u'point_of_interest', u'establishment']"
0,43.532764,5.647124,Oppidum de Bramefan,ChIJ9XOybH6DyRIRCQKVzYeRH7k,"[u'point_of_interest', u'establishment']"
0,43.51835,5.721011,83910,ChIJldyKi5mCyRIR6aaBJRAlQ74,"[u'church', u'place_of_worship', u'point_of_interest', u'establishment']"
0,43.518757,5.583172,Saint-Antonin-sur-Bayon,ChIJH-NIECKFyRIR8P-W_aUZCAQ,"[u'locality', u'political']"
0,43.489577,5.705169,AGNEAU FERMIER LA GRANDE BASTIDE Delphine et Gérald D'HERBEY,ChIJfSPb9TedyRIRCKdfmI7zu0E,"[u'point_of_interest', u'establishment']"
0,43.480621,5.622019,Rousset,ChIJtaQ4bjmbyRIRIACX_aUZCAQ,"[u'locality', u'political']"
0,43.4971862,5.7124414,Château La Grande Bauquière,ChIJj0Qp9SudyRIReKXQUeWsBSM,"[u'food', u'point_of_interest', u'establishment']"
0,43.5080605,5.7209361,Mairie,ChIJU6RMlKSCyRIRQyOG8H1t3uk,"[u'local_government_office', u'point_of_interest', u'establishment']"
0,43.5043119,5.7235754,Blois Marchione Karine,ChIJNxi79aWCyRIR84dMN-6JmLw,"[u'point_of_interest', u'establishment']"
0,43.5043119,5.7235754,Fernandez Camus Clion (SCP SCP),ChIJNxi79aWCyRIRtja4ls0kzI8,"[u'health', u'point_of_interest', u'establishment']"
0,43.5043119,5.7235754,Rodrigues Frantz,ChIJNxi79aWCyRIRFXFG_M5AdCA,"[u'painter', u'point_of_interest', u'establishment']"
0,43.534216,5.637783,Ermitage de Saint-Ser,ChIJ5Q-aV4aEyRIR2KMSRYtLROc,"[u'church', u'place_of_worship', u'point_of_interest', u'establishment']"
0,43.529595,5.631932,Escale Detox,ChIJ32BBRY6EyRIRt2i3SN0o_0k,"[u'point_of_interest', u'establishment']"
0,43.529548,5.6320488,Domaine Genty,ChIJFR2RT46EyRIRaScJ7zpNGDY,"[u'lodging', u'point_of_interest', u'establishment']"
0,43.4976389,5.6313042,DZ DESIGN,ChIJDxqvlEybyRIRyadxCH0i-c4,"[u'point_of_interest', u'establishment']"
0,43.4931283,5.6365241,Questel,ChIJv-Rc61GbyRIRGXk1zC2OO_4,"[u'point_of_interest', u'establishment']"
0,43.4930558,5.6365974,Long Yannick Emile Joel,ChIJv-Rc61GbyRIRPXcURoJRRoQ,"[u'food', u'point_of_interest', u'establishment']"
0,43.606476,5.7565929,Rians,ChIJK0ERQnx_yRIRQMqP_aUZCAQ,"[u'locality', u'political']"
0,43.53028,5.618865,Refuge Barthélémy Baudino,ChIJ8Sr8j_GEyRIRwVJKahTGFtw,"[u'point_of_interest', u'establishment']"
