,Latitude,Longitude,Name,Place_id,Type
0,43.453241,4.429074,Saintes-Maries-de-la-Mer,ChIJexX9dpdhthIRLWbvPeXuCYM,"[u'locality', u'political']"
0,43.494212,4.470425,Réserve des Impériaux,ChIJuyPPaI1jthIRyvZSvuofY8A,"[u'park', u'point_of_interest', u'establishment']"
0,43.507632,4.4498749,Pont des Cinq Gorges,ChIJtzGB5KVjthIRYsbuAjh2eFk,"[u'premise', u'point_of_interest', u'establishment']"
0,43.4930513,4.4449291,Hôtel de Cacharel,ChIJ85vN6MljthIRv3Aez64xi6o,"[u'lodging', u'point_of_interest', u'establishment']"
0,43.52543,4.4566,Ejyd Sarl,ChIJNXtWIUx9thIR6M6VujitVKo,"[u'lodging', u'point_of_interest', u'establishment']"
0,43.525472,4.457123,Mas de Bardouine,ChIJScSJCxNjthIRIOCsm0zTuOo,"[u'lodging', u'point_of_interest', u'establishment']"
0,43.4903864,4.4430065,Les cabanes de cacharel,ChIJb0fQw8tjthIRplT-BCxWQe8,"[u'point_of_interest', u'establishment']"
0,43.5,4.5,Camargue Natural Regional Park,ChIJ4evSAcN7thIRP4NxcYvcLOQ,"[u'park', u'point_of_interest', u'establishment']"
0,43.4992232,4.4286678,Mas de Calabrun,ChIJDy4H9kVithIRfotue3WvnBg,"[u'lodging', u'point_of_interest', u'establishment']"
0,43.499479,4.429399,La Coursejade - Mas de Calabrun,ChIJKc-xh6JhthIRd6AijagNXAg,"[u'restaurant', u'food', u'point_of_interest', u'establishment']"
0,43.546666,4.457832,Pont des Ivrognes,ChIJezFJwzVjthIRevPGzJ61GkI,"[u'premise', u'point_of_interest', u'establishment']"
0,43.504484,4.422893,Côté Camargue,ChIJm4MprFxithIR_hn-NZgHEB0,"[u'travel_agency', u'real_estate_agency', u'point_of_interest', u'establishment']"
0,43.5056781,4.4170189,Gîtes Equestres Les Cabanes de Cambon - Saintes Maries de la Mer,ChIJg7c-lWdithIRrgMI_rWWuBI,"[u'point_of_interest', u'establishment']"
0,43.4529482,4.4713715,Mauguio - Country Passion,ChIJXXPouDdhthIRcPix_hld1YU,"[u'point_of_interest', u'establishment']"
0,43.475903,4.4389269,Pont des Éventails,ChIJsyCPStVjthIR24ItnRzj1L0,"[u'premise', u'point_of_interest', u'establishment']"
0,43.456529,4.444929,Pertuis de la Fourcade,ChIJ5c0EanNhthIR_eDwQsUO6Z8,"[u'premise', u'point_of_interest', u'establishment']"
0,43.676647,4.6277769,Arles,ChIJzRRIXQdythIRUAWX_aUZCAQ,"[u'locality', u'political']"
0,43.5358157,4.4313013,Temple blauzac,ChIJa_mgWdxithIRnXRuteDD3D0,"[u'place_of_worship', u'point_of_interest', u'establishment']"
0,43.5169319,4.4133819,Mas du Frigoules,ChIJ2SK11otithIRMZXdumBZpWI,"[u'lodging', u'point_of_interest', u'establishment']"
0,43.4559475,4.4360562,Camping De La Brise,ChIJEcO6yQphthIRA39hbmBWb4U,"[u'campground', u'rv_park', u'park', u'lodging', u'point_of_interest', u'establishment']"
0,43.4552919,4.4411536,Bambou Palm Beach,ChIJPRIEjqNhthIR9JTOaIZGnWs,"[u'restaurant', u'meal_takeaway', u'food', u'point_of_interest', u'establishment']"
0,43.455929,4.436075,Mobilboard les saintes maries de la mer Camarguegyro,ChIJM2Erf59hthIRLQhHmwwp6C0,"[u'park', u'point_of_interest', u'establishment']"
0,43.4551697,4.4410434,lifeguard,ChIJV4IH1AphthIRPZUtcT0slNI,"[u'health', u'point_of_interest', u'establishment']"
0,43.454943,4.440472,La Playa ... en Camargue,ChIJt70_zwphthIRkK1i4R_pkH0,"[u'restaurant', u'food', u'point_of_interest', u'establishment']"
0,43.4559638,4.4354053,Dos Santos Mota Nathalie,ChIJlaCEfJ9hthIREol355-j02c,"[u'beauty_salon', u'point_of_interest', u'establishment']"
0,43.4540287,4.4380541,Area Sosta Camper,ChIJ7d9RaKBhthIR7nk_4FNDaHM,"[u'point_of_interest', u'establishment']"
0,43.455871,4.435317,Da Silva Bérangère,ChIJJUrBY59hthIRnApMPnJG5P8,"[u'point_of_interest', u'establishment']"
0,43.4561148,4.4349816,carriero dou levant,ChIJDeN2Z59hthIRVursUWeiMwc,"[u'point_of_interest', u'establishment']"
0,43.4535864,4.4367018,A.Bientot Bonne Route,ChIJBxjgUKBhthIRXT-TXp_iNWg,"[u'point_of_interest', u'establishment']"
0,43.4535367,4.4366964,Motorhome Aire,ChIJszEoUaBhthIR1iEKRkdvNJM,"[u'parking', u'point_of_interest', u'establishment']"
0,43.459622,4.494915,Pertuis de Rousty,ChIJN_zQjbtmthIR65tQBkYJGSA,"[u'premise', u'point_of_interest', u'establishment']"
0,43.461589,4.429283,Mas des Rièges,ChIJ9Qzs_JlhthIRaTz7ZnDxHfc,"[u'lodging', u'point_of_interest', u'establishment']"
0,43.4644608,4.4269873,Auberges Cavalières Du Pont Des Bannes,ChIJq5BrP5BhthIROX4UwJ8q4YM,"[u'restaurant', u'food', u'point_of_interest', u'establishment']"
0,43.489221,4.403867,Hostellerie du Pont de Gau,ChIJ24rGJb1hthIRYCYqpxVAlj8,"[u'restaurant', u'food', u'point_of_interest', u'establishment']"
0,43.489549,4.403607,Sartori Raymond,ChIJD8oMuQ5ithIRt2VSOHqZf5Y,"[u'point_of_interest', u'establishment']"
0,43.48955,4.40361,Les Amis du Parc Ornitho de Pont de Gau,ChIJSV1JuQ5ithIR0am4dSX0Kjw,"[u'zoo', u'point_of_interest', u'establishment']"
0,43.489549,4.403607,Sarl Les Mouettes,ChIJD8oMuQ5ithIRjfnd0eKNabo,"[u'point_of_interest', u'establishment']"
0,43.4875678,4.4066978,Parc Ornithologique du Pont De Gau,ChIJ2YDN4Q5ithIROevrl-OPDHs,"[u'park', u'point_of_interest', u'establishment']"
0,43.5203348,4.4096176,Chambres d'Hôtes Robert Comte,ChIJ1_wL2oNhthIR0es8qaXlEhE,"[u'lodging', u'point_of_interest', u'establishment']"
0,43.502233,4.393335,Mas El Rocio en Camargue. Location appartement,ChIJv1FPbtmJthIRtPYxMmLca1E,"[u'lodging', u'point_of_interest', u'establishment']"
0,43.502264,4.393249,Gaetan Martinez,ChIJx6_Hb9mJthIRsPz9_pp8NrE,"[u'general_contractor', u'point_of_interest', u'establishment']"
0,43.502446,4.393114,promenade à cheval La Marisma,ChIJQ1ubetmJthIRIfXzxV3die8,"[u'travel_agency', u'point_of_interest', u'establishment']"
0,43.5076956,4.392526,Layalle,ChIJuai3KteJthIRL33Pw_JXIno,"[u'restaurant', u'food', u'point_of_interest', u'establishment']"
0,43.453283,4.435679,Thalacap Camargue,ChIJNbbpraFhthIR_7uCGnzfsmM,"[u'beauty_salon', u'spa', u'lodging', u'point_of_interest', u'establishment']"
0,43.452911,4.430837,"Hotel le Mirage , Saintes Maries de la mer en Camargue",ChIJO4rvB6NhthIRMtYG9cw_WG4,"[u'lodging', u'point_of_interest', u'establishment']"
0,43.4551372,4.4288591,Hotel Lou Marques,ChIJ693wsqJhthIR33APMMPqvZE,"[u'lodging', u'point_of_interest', u'establishment']"
0,43.4525635,4.430732,Les Arcades,ChIJBQkADKNhthIRx7XoHPy9NnM,"[u'lodging', u'point_of_interest', u'establishment']"
0,43.4523892,4.4336715,LE DAUPHIN BLEU,ChIJgxgPYaFhthIRjolMiFDuqNM,"[u'lodging', u'point_of_interest', u'establishment']"
0,43.4545305,4.4309201,Hotel Le Fangassier,ChIJuaiB9KJhthIReAKODhruNrs,"[u'lodging', u'point_of_interest', u'establishment']"
0,43.4545977,4.4332981,Hôtel** Le Bleu Marine,ChIJ8UBKH6JhthIRIH22R-snkxo,"[u'city_hall', u'local_government_office', u'lodging', u'point_of_interest', u'establishment']"
0,43.4535099,4.4307828,Hôtel Vila de la Mar,ChIJ_4Qor6NhthIR8j-I7lwhZ2s,"[u'lodging', u'restaurant', u'food', u'point_of_interest', u'establishment']"
0,43.456719,4.426331,Mas des Salicornes,ChIJMV9zJr1hthIRUBLDvq_qs-g,"[u'lodging', u'restaurant', u'food', u'point_of_interest', u'establishment']"
0,43.4532305,4.4349629,La Vallée des Lys,ChIJO-Zjn6FhthIRMt4GNYrBAJI,"[u'point_of_interest', u'establishment']"
0,43.458364,4.425518,Le Mas De Cocagne,ChIJPUZAVpZhthIRt1YaZ6FHqrg,"[u'lodging', u'point_of_interest', u'establishment']"
0,43.4538531,4.4278917,Les Arnelles,ChIJMV9zJr1hthIRzRKQ61jOD9c,"[u'restaurant', u'food', u'point_of_interest', u'establishment']"
0,43.4551994,4.4330342,"Location de vacances: "" Cigaloun""",ChIJr_z7DaJhthIR1fjj4hhTYzI,"[u'travel_agency', u'real_estate_agency', u'point_of_interest', u'establishment']"
0,43.456859,4.432189,Locations d'appartements (Camargue/Saintes-Maries de la Mer) Mas des Manadiers,ChIJZcj9lJhhthIRGE-1mVlQgP8,"[u'real_estate_agency', u'lodging', u'point_of_interest', u'establishment']"
0,43.456922,4.429206,Locations d'appartements (Camargue/Saintes-Maries de la Mer) Maisons du Gardian,ChIJozZyF5hhthIRIu0rFOBTsyg,"[u'travel_agency', u'real_estate_agency', u'lodging', u'point_of_interest', u'establishment']"
0,43.456418,4.4320324,Hôtel Le Galoubet,ChIJKc-xh6JhthIR_2tHg8wrd4U,"[u'lodging', u'point_of_interest', u'establishment']"
0,43.4553012,4.4310495,Beauty Lounge Hammam,ChIJKc-xh6JhthIRmP8mgR5QE5s,"[u'beauty_salon', u'point_of_interest', u'establishment']"
0,43.4543836,4.4331422,Les Cabanes,ChIJATbyrEuIthIROE9MI0vCEN4,"[u'lodging', u'point_of_interest', u'establishment']"
0,43.4577895,4.4289004,Fire Station,ChIJLy4pRqNhthIROMdDu9ZtC2M,"[u'fire_station', u'point_of_interest', u'establishment']"
0,43.4554881,4.4311779,Sarl les Tamaris,ChIJT__9faJhthIR1i2HvAhGQQw,"[u'gas_station', u'point_of_interest', u'establishment']"
0,43.4560847,4.4314211,Achat Vente location Camarguaise,ChIJh1GHmphhthIRPI6-cZMllhw,"[u'real_estate_agency', u'point_of_interest', u'establishment']"
0,43.4558695,4.4319733,Alengrin Nicolas,ChIJMfvBnZhhthIR9tYLdsImEvg,"[u'point_of_interest', u'establishment']"
0,43.4553012,4.4310495,Les Colverts,ChIJKc-xh6JhthIRP8YEGv6FgPo,"[u'lodging', u'point_of_interest', u'establishment']"
0,43.4540862,4.4333966,Thalacap,ChIJo56KJqJhthIRtq1ZVSDnjYo,"[u'point_of_interest', u'establishment']"
0,43.45397,4.43069,Intermarché Contact,ChIJV3QW-qJhthIRAcm_CgQCiYo,"[u'grocery_or_supermarket', u'food', u'store', u'point_of_interest', u'establishment']"
0,43.4544718,4.4320535,Soc Fiduciaire Natio Expertise Comptab,ChIJZ6ZtQqJhthIRDS4Oc3db9MA,"[u'accounting', u'finance', u'point_of_interest', u'establishment']"
0,43.454404,4.431977,FIDUCIAL Expertise Stes Maries De La Mer,ChIJubVtQqJhthIR32NTgBdrymk,"[u'accounting', u'finance', u'point_of_interest', u'establishment']"
0,43.4511329,4.4309527,Hôtel Les Amphores,ChIJDx6af6NhthIR027YdJfl1kE,"[u'lodging', u'point_of_interest', u'establishment']"
0,43.4536775,4.4323192,Public Primary School Roger Delagnes,ChIJSdPQTqJhthIRwmZdMpuce_s,"[u'school', u'point_of_interest', u'establishment']"
0,43.4538198,4.4320043,Mairie,ChIJSdPQTqJhthIRtIkszD5r9_s,"[u'local_government_office', u'point_of_interest', u'establishment']"
0,43.4578637,4.4275041,Camargue Matériaux,ChIJPbEGmpdhthIR8ExoSeB_FFA,"[u'store', u'point_of_interest', u'establishment']"
0,43.4548576,4.4277002,Senalaur,ChIJIYDdQL1hthIRKvQcZhQRaRc,"[u'grocery_or_supermarket', u'food', u'store', u'point_of_interest', u'establishment']"
0,43.4548757,4.4302071,Chez Nine,ChIJEU-HDAx8thIRTb7XgmdhLS8,"[u'real_estate_agency', u'point_of_interest', u'establishment']"
0,43.4578637,4.4275041,SACO CONSTRUCTION,ChIJPbEGmpdhthIReHMLn8s14Xw,"[u'general_contractor', u'point_of_interest', u'establishment']"
0,43.4536868,4.4299181,Habitat Plus Sarl,ChIJKc-xh6JhthIRwcW1B7Ay478,"[u'furniture_store', u'general_contractor', u'home_goods_store', u'store', u'point_of_interest', u'establishment']"
0,43.452163,4.431813,Serge Ancelin,ChIJK5vcl6NhthIRcN7cm4XjU6k,"[u'travel_agency', u'real_estate_agency', u'point_of_interest', u'establishment']"
0,43.453796,4.4295884,Optique Camargue,ChIJjwNi3qJhthIR5KPc3w-VQQI,"[u'health', u'store', u'point_of_interest', u'establishment']"
0,43.457345,4.426559,Camargue A Cheval,ChIJTVWAt5dhthIR-ho4nR_Si9g,"[u'point_of_interest', u'establishment']"
0,43.457345,4.426559,Crin Blanc Horse,ChIJTVWAt5dhthIRW9x13ktYgIs,"[u'point_of_interest', u'establishment']"
0,43.45212,4.42916,Marque Robert,ChIJLy4pRqNhthIRhSE5virXQmA,"[u'point_of_interest', u'establishment']"
0,43.4542876,4.427744,Absolute-Fishing-Delta Pêche,ChIJaYXMO71hthIRHgzi9lRaR2g,"[u'store', u'point_of_interest', u'establishment']"
0,43.4546657,4.4279047,Station Flamants Services (Les Flamants),ChIJjQbVOL1hthIRoeAJLiPHsjE,"[u'gas_station', u'point_of_interest', u'establishment']"
0,43.453241,4.429074,sanburza,ChIJ8WDRSaNhthIRTwUzrKrif3w,"[u'restaurant', u'food', u'point_of_interest', u'establishment']"
0,43.453241,4.4290741,Manade en Camargue,ChIJR8W5KKNhthIRTrynRW13TBU,"[u'food', u'point_of_interest', u'establishment']"
0,43.45675,4.426159,Hôtel Le Mazet,ChIJRcW5KKNhthIRsGXH5731Ycc,"[u'lodging', u'point_of_interest', u'establishment']"
0,43.4530911,4.4281655,Stephanie Immobilier,ChIJxU1i0bxhthIRPIA1gHS8s1c,"[u'real_estate_agency', u'point_of_interest', u'establishment']"
0,43.456626,4.426209,Le Maset,ChIJ73U_xZdhthIRVQ8Fw-hWFq0,"[u'lodging', u'point_of_interest', u'establishment']"
0,43.4529918,4.429074,AXA Assurance PATRICK CIZERON,ChIJdSCLNaNhthIRTwL8yKtlE0w,"[u'insurance_agency', u'bank', u'health', u'finance', u'point_of_interest', u'establishment']"
0,43.453914,4.4277453,SAS les Maries,ChIJ24rGJb1hthIR6swsbWTGQDw,"[u'point_of_interest', u'establishment']"
0,43.4532836,4.4280911,Caisse d'Epargne Saintes Maries de la Mer,ChIJk9Qj1LxhthIRMDagr5fAGSk,"[u'bank', u'finance', u'point_of_interest', u'establishment']"
0,43.4516193,4.4303163,Elior Restauration Enseignement,ChIJLwllZaNhthIRjsTKkg93s6k,"[u'point_of_interest', u'establishment']"
0,43.4525453,4.4284501,Le Velociste,ChIJT1IASqNhthIRC0v5Y8uoXGA,"[u'store', u'point_of_interest', u'establishment']"
0,43.45212,4.42916,Les Toits de Camargue,ChIJLy4pRqNhthIRTZ5A7B1XlHw,"[u'roofing_contractor', u'point_of_interest', u'establishment']"
0,43.452125,4.429157,Tiki III,ChIJSV0pRqNhthIRqgyXaWQqjsg,"[u'point_of_interest', u'establishment']"
0,43.4654542,4.4200847,L'Auberge Cavalière du Pont des Bannes,ChIJ6bkLmZJhthIRqRLCKvhXHX4,"[u'lodging', u'point_of_interest', u'establishment']"
0,43.461945,4.41998,Hôtel La Palunette,ChIJMV9zJr1hthIRhqfRygMIyNs,"[u'lodging', u'point_of_interest', u'establishment']"
0,43.459772,4.423381,Hôtel Restaurant Mangio Fango****,ChIJfW0PoJZhthIRVePMwcu7V90,"[u'lodging', u'restaurant', u'food', u'point_of_interest', u'establishment']"
0,43.46175,4.422994,Hotel Restaurant Les Arnelles,ChIJFSSRzrxhthIR3Vv_naiCYRU,"[u'travel_agency', u'bar', u'lodging', u'restaurant', u'food', u'point_of_interest', u'establishment']"
0,43.4654476,4.4197126,Le Pont Des Bannes,ChIJMV9zJr1hthIRVSgRiXlEuM8,"[u'lodging', u'point_of_interest', u'establishment']"
0,43.466484,4.4193873,Le Mas des Colverts,ChIJb56th5ZhthIRVm2Vpcp9eyA,"[u'lodging', u'point_of_interest', u'establishment']"
0,43.466484,4.4193873,Merlin Roger - Cuisine Provence,ChIJb56th5ZhthIR1I0ta8OwHek,"[u'food', u'point_of_interest', u'establishment']"
0,43.4664849,4.4193846,Cuisine Grand Sud,ChIJ3QEzXY1hthIR0jjdLO-e3lI,"[u'point_of_interest', u'establishment']"
0,43.4654968,4.4197033,Les Ecuries De L'auberge Cavalière,ChIJ6bkLmZJhthIRX6VX4m52-DA,"[u'travel_agency', u'point_of_interest', u'establishment']"
0,43.4598064,4.4240374,Tamaris Promenades À Cheval,ChIJMV9zJr1hthIRlzXTJ3uJEv8,"[u'point_of_interest', u'establishment']"
0,43.4728747,4.4098467,Hôtel La Tramontane,ChIJO1NQ7vZhthIRT_nEabJ1Als,"[u'lodging', u'point_of_interest', u'establishment']"
0,43.473991,4.409552,Hotel Mas des Lys Saintes-Maries-de-la-mer,ChIJMV9zJr1hthIRB1S3ycwQWyk,"[u'lodging', u'point_of_interest', u'establishment']"
0,43.4718167,4.4115338,Restaurant Auberge La Lagune,ChIJL-DMvvZhthIREartB-la4Ow,"[u'lodging', u'restaurant', u'food', u'point_of_interest', u'establishment']"
0,43.4712028,4.4103002,Les Rizieres,ChIJT_42uvZhthIRiZcEV9-nsBw,"[u'lodging', u'point_of_interest', u'establishment']"
0,43.472122,4.410516,Mas des Sagnes,ChIJt8iF3_ZhthIRJ5cMECl6ghA,"[u'real_estate_agency', u'lodging', u'point_of_interest', u'establishment']"
0,43.471962,4.411715,Hôtel L'Auberge Camarguaise,ChIJMV9zJr1hthIRnWRZ6Vvx5TA,"[u'lodging', u'point_of_interest', u'establishment']"
0,43.469672,4.413824,Ecurie de la Roulotte,ChIJ1WChlfJhthIRjUPP5vMGaAs,"[u'travel_agency', u'point_of_interest', u'establishment']"
0,43.4865207,4.4043011,Auberge de la Fadaise,ChIJF9tpuQ5ithIR12-cm7gF-bY,"[u'lodging', u'point_of_interest', u'establishment']"
0,43.479954,4.405775,Camargue A Cheval,ChIJ142YcQNithIRDM19n5GTCjs,"[u'travel_agency', u'point_of_interest', u'establishment']"
0,43.480779,4.406547,Domaine De Maguelonne,ChIJH08iYANithIRIOc-YbJc-Q0,"[u'point_of_interest', u'establishment']"
0,43.480406,4.4036347,Les Toits de Camargue,ChIJOyBFCARithIRePn7bRrqa6s,"[u'point_of_interest', u'establishment']"
0,43.5577817,4.490824,Mazet du Vaccares,ChIJtWjNvRV7thIR0UrjPY-t2qE,"[u'bar', u'food', u'point_of_interest', u'establishment']"
0,43.5579223,4.4914807,Le Mazet Du Vaccares,ChIJveif6k97thIRfP4S5HHmaBg,"[u'restaurant', u'food', u'point_of_interest', u'establishment']"
0,43.5218933,4.4054854,La Régie de Frigoulès,ChIJSQuiAYVithIRK8nWtbVgcBg,"[u'point_of_interest', u'establishment']"
0,43.522863,4.402304,Thébaïde Evènement,ChIJaSUHZ4NithIRVBVWRWP1aYU,"[u'point_of_interest', u'establishment']"
0,43.5232,4.402203,Charmeo,ChIJj9rDXINithIRUrwjXS69aa0,"[u'point_of_interest', u'establishment']"
0,43.5232,4.402203,Titolo Laurent Jean-Louis,ChIJj9rDXINithIRhIkWY2D72m4,"[u'painter', u'point_of_interest', u'establishment']"
0,43.5232,4.402203,Pioch Badet,ChIJxVsHQoNithIRQGRjk6gZCAo,"[u'sublocality_level_1', u'sublocality', u'political']"
0,43.5194018,4.3981178,Le Petit Mas Des Barres,ChIJDcausJdhthIR6H56DPO73RA,"[u'lodging', u'point_of_interest', u'establishment']"
0,43.518182,4.397964,Promenade à cheval Chez Elise,ChIJ9bop3IFithIRkjpzqKG6uR4,"[u'travel_agency', u'point_of_interest', u'establishment']"
0,43.5145132,4.3912226,Théâtre Equestre Camarkas,ChIJlzDFQtOJthIRQnKtQou1PD4,"[u'lodging', u'point_of_interest', u'establishment']"
0,43.5139922,4.3917901,La Gardane,ChIJlzDFQtOJthIRE84PVp_Gazk,"[u'lodging', u'point_of_interest', u'establishment']"
0,43.4570613,4.4242978,Hotellerie du Pont Blanc,ChIJjYEIN5ZhthIRViCYPQLTWG0,"[u'lodging', u'point_of_interest', u'establishment']"
0,43.4513852,4.4251671,Le Castelet,ChIJdcOud7xhthIR7hdYxHqGctQ,"[u'lodging', u'point_of_interest', u'establishment']"
0,43.4505139,4.4299586,Hôtel Camille,ChIJc7gZgaRhthIRsT_pG4lFH2I,"[u'lodging', u'point_of_interest', u'establishment']"
0,43.4511258,4.4251227,Hôtel Les Palmiers En Camargue,ChIJbRMAibththIRdIgt58IE_MQ,"[u'lodging', u'point_of_interest', u'establishment']"
0,43.4523754,4.4282261,Hôtel Restaurant Le Delta,ChIJP4ODSqNhthIRScbFb6WV__A,"[u'lodging', u'restaurant', u'food', u'point_of_interest', u'establishment']"
0,43.456595,4.42347,Les Salicornes,ChIJmeulB5ZhthIRfdJ2Bd3P7_A,"[u'sublocality_level_1', u'sublocality', u'political']"
0,43.4502853,4.4250091,Les Vagues,ChIJKYoC4MZhthIRcDA3DSyXr1g,"[u'lodging', u'point_of_interest', u'establishment']"
0,43.450379,4.426299,ABRIVADO,ChIJhaWicbththIRouQL86QxuXs,"[u'cafe', u'bar', u'lodging', u'restaurant', u'food', u'store', u'point_of_interest', u'establishment']"
0,43.4518185,4.4271764,La Maison de Jeanne,ChIJ3bNZn7xhthIRdDBBBoWqfEQ,"[u'restaurant', u'food', u'point_of_interest', u'establishment']"
0,43.4509624,4.4282028,Bar El Campo,ChIJUZS4VbththIRznKS8SMW_k4,"[u'restaurant', u'bar', u'food', u'point_of_interest', u'establishment']"
0,43.4521329,4.4282304,Agence Camargue Alpilles Immobilier,ChIJd_k8tLxhthIRwdSyOY_RUsM,"[u'real_estate_agency', u'travel_agency', u'finance', u'point_of_interest', u'establishment']"
0,43.4586867,4.4239851,Sci Callier,ChIJb56th5ZhthIRVgvuLkOGbmA,"[u'real_estate_agency', u'point_of_interest', u'establishment']"
0,43.4505706,4.4283617,La Siesta,ChIJybMCTbththIRNM_f93iuit4,"[u'cafe', u'bar', u'restaurant', u'food', u'point_of_interest', u'establishment']"
0,43.4515513,4.4288905,Le Gitan Safari Photo du Delta,ChIJWbzsUKNhthIRXq8Kc2N_hsI,"[u'gym', u'travel_agency', u'health', u'point_of_interest', u'establishment']"
0,43.4516389,4.4275764,Paroisse Saintes Maries de la Mer,ChIJNRsCvLxhthIRUPlNEczmQ7k,"[u'church', u'place_of_worship', u'point_of_interest', u'establishment']"
0,43.4586867,4.4239851,La Maison Du Cheval Camargue,ChIJb56th5ZhthIRRouzVReHWgM,"[u'point_of_interest', u'establishment']"
0,43.4532266,4.4273145,Camargue C.H.R.,ChIJIz3z3bxhthIRdU6vJwkeLBE,"[u'point_of_interest', u'establishment']"
0,43.4674937,4.4134344,L' Étrier,ChIJg1_jCvFhthIRbdsuI_wRwjQ,"[u'lodging', u'point_of_interest', u'establishment']"
0,43.46513,4.413585,Lodge Sainte Hélène Hotel vue sur lac,ChIJSS02oL1hthIRT-VtnMklnXY,"[u'lodging', u'point_of_interest', u'establishment']"
0,43.4674892,4.4138482,Mas de la cabanette,ChIJz6slPfJhthIRbmkkcjOUfaA,"[u'travel_agency', u'real_estate_agency', u'point_of_interest', u'establishment']"
0,43.4668957,4.4158751,Le Palomino,ChIJLy4pRqNhthIRdoyX8WN2m6w,"[u'travel_agency', u'point_of_interest', u'establishment']"
0,43.4655875,4.4144547,Mas Les Cabidoules,ChIJ62FSnvFhthIRm1sF6Q48OwE,"[u'lodging', u'point_of_interest', u'establishment']"
0,43.4687813,4.4117595,Residence du Tadorne,ChIJg1_jCvFhthIRhp5B6ftZ0zE,"[u'lodging', u'point_of_interest', u'establishment']"
0,43.468466,4.41195,Manade des Baumelles,ChIJ62FSnvFhthIRFwaaDm2amcI,"[u'point_of_interest', u'establishment']"
0,43.469879,4.41013,gîtes chambres,ChIJj5vw3fBhthIR1TvJlojygI4,"[u'lodging', u'point_of_interest', u'establishment']"
0,43.467654,4.415761,MAS DUPIN,ChIJBzpQ9vJhthIRbOXxwr2KkwI,"[u'lodging', u'point_of_interest', u'establishment']"
0,43.4687813,4.4117595,Paulino Bachini Francoise,ChIJg1_jCvFhthIRwOZ6kWHCtLg,"[u'real_estate_agency', u'point_of_interest', u'establishment']"
0,43.469802,4.4104099,Mas du Tadorne,ChIJD0Zt4PBhthIR3w6QKg9uNsM,"[u'lodging', u'point_of_interest', u'establishment']"
0,43.471625,4.402084,Hôtel Mas de la Grenouillère,ChIJOWXQJ_xhthIRmSRpXn3nfj0,"[u'travel_agency', u'lodging', u'point_of_interest', u'establishment']"
0,43.4716,4.402052,Tourism Center Equestre La Grenouillère,ChIJo9lqpv5hthIRAwd_gnEubtQ,"[u'travel_agency', u'point_of_interest', u'establishment']"
0,43.471405,4.401183,Of La Grenouillère,ChIJ_bYBnv5hthIRVXtYbSFf2_k,"[u'point_of_interest', u'establishment']"
0,43.473838,4.40165,Mas Lou Kif,ChIJ-xBiIP9hthIRvZxBhBnS43U,"[u'lodging', u'point_of_interest', u'establishment']"
0,43.4834995,4.3906314,Mas le Sauvageon,ChIJRcW5KKNhthIRmZyncaXlt0k,"[u'lodging', u'point_of_interest', u'establishment']"
0,43.483395,4.392406,Chambres d'Hôtes Chez Babeth,ChIJwc84h_uJthIRTZIehmAk4DI,"[u'lodging', u'point_of_interest', u'establishment']"
0,43.4831827,4.3941598,Mazet du Maréchal Ferrand,ChIJoVk9K-prthIRt4vzdUM2FDM,"[u'point_of_interest', u'establishment']"
0,43.4849052,4.3923626,Gîte Mas Farola,ChIJcVVkYPuJthIRA-xZUGepHV0,"[u'lodging', u'point_of_interest', u'establishment']"
0,43.486905,4.391893,Eyssette Didier,ChIJrQUmpeSJthIR68H4H6_P328,"[u'point_of_interest', u'establishment']"
0,43.490396,4.38839,CAMARGUE FISHING,ChIJjTPd6OWJthIRe8Hb4r3CeCc,"[u'point_of_interest', u'establishment']"
0,43.5520648,4.4188133,Mas du Menage en Camargue Manade Clauzel,ChIJR8n8rcpithIRoNdn0AjNPI4,"[u'lodging', u'point_of_interest', u'establishment']"
0,43.55163,4.419122,LA Roulotte Les Saintes,ChIJWWM6uspithIRnRjO-md5wxM,"[u'lodging', u'point_of_interest', u'establishment']"
0,43.5290414,4.3994938,Mas de Pioch,ChIJb56th5ZhthIRU2XpIUu5mBY,"[u'lodging', u'point_of_interest', u'establishment']"
0,43.5290628,4.399366,Manade Cavallini,ChIJ4b4c2J1ithIREA4dPXAWnY4,"[u'point_of_interest', u'establishment']"
0,43.4991844,4.3775757,Mas d'Icard,ChIJrz7AYZ56thIRONNpgtZRJvM,"[u'lodging', u'point_of_interest', u'establishment']"
0,43.4501306,4.4252499,Le Camargue,ChIJ2VR9TLththIRW9iZGHAnnBA,"[u'travel_agency', u'point_of_interest', u'establishment']"
0,43.4501651,4.4284785,Office de Tourisme des Saintes Maries de la Mer,ChIJ2VR9TLththIRWVpqOmc1ICM,"[u'travel_agency', u'point_of_interest', u'establishment']"
0,43.4508629,4.4301099,Le Fournelet,ChIJv6iAn6RhthIRsAhZaXC7s-4,"[u'restaurant', u'bar', u'food', u'point_of_interest', u'establishment']"
0,43.4497004,4.4215949,L'Amirauté,ChIJ2fD3D7lhthIRez9WSbjr4qc,"[u'restaurant', u'bar', u'food', u'point_of_interest', u'establishment']"
0,43.4499725,4.4228216,Le Jardin des Délices,ChIJfy0YEcdhthIRubjnrqzFsGM,"[u'restaurant', u'bar', u'food', u'point_of_interest', u'establishment']"
0,43.4510467,4.430682,Le Piccolo,ChIJf0k8gKRhthIRWRByFda-Z_4,"[u'restaurant', u'food', u'point_of_interest', u'establishment']"
0,43.4510107,4.4280767,Le Gardian,ChIJY-rhVLththIRf2rY-Wi2wKM,"[u'shoe_store', u'clothing_store', u'store', u'point_of_interest', u'establishment']"
0,43.451234,4.426691,Hotel le Mediterranée,ChIJ8xzDnLxhthIRy2op0LmojYI,"[u'city_hall', u'local_government_office', u'point_of_interest', u'establishment']"
0,43.4505991,4.4293746,Société Marseillaise de Crédit - Saintes Maries,ChIJ2fLYvKRhthIRgUvhaEUTEBY,"[u'bank', u'atm', u'finance', u'point_of_interest', u'establishment']"
0,43.4508195,4.4294367,Post Office Les Saintes Maries De La Mer,ChIJs8udqKRhthIRUdk2IsAUrtc,"[u'post_office', u'finance', u'point_of_interest', u'establishment']"
0,43.4492717,4.4216223,S.E.M.I.S. Société Economie Mixte Saintes-Maries de la Mer,ChIJ4066RbththIR2syuV2LyoV0,"[u'point_of_interest', u'establishment']"
0,43.4512746,4.4276433,La Manade,ChIJJ8vVprxhthIR3htpAAVexj0,"[u'clothing_store', u'store', u'point_of_interest', u'establishment']"
0,43.4499725,4.4228216,Les Quatre Maries,ChIJVb9oZrlhthIRZ5W8dqyjLVA,"[u'point_of_interest', u'establishment']"
0,43.4516167,4.4289184,Le Vélo Saintois,ChIJ5U-gT6NhthIRe9uC1wOylHQ,"[u'point_of_interest', u'establishment']"
0,43.4513395,4.4272944,sitting bull,ChIJf9snqLxhthIR_f8NhGMV19E,"[u'point_of_interest', u'establishment']"
0,43.4520797,4.4267784,Galerie le Braco,ChIJLxDmk7xhthIRwvS5HfipJ-w,"[u'point_of_interest', u'establishment']"
0,43.4517791,4.4272264,In Fine Parfums-Personnalités,ChIJ05sNmLxhthIRqpSE2BRQgTE,"[u'clothing_store', u'store', u'point_of_interest', u'establishment']"
0,43.4499914,4.423825,Espace Yam Marine Les Saintes,ChIJa-SF3bththIR22q5K6CToG0,"[u'store', u'point_of_interest', u'establishment']"
0,43.451549,4.4271422,SOULEIADO,ChIJTUvHmLxhthIRkRq3irCb6Wk,"[u'clothing_store', u'store', u'point_of_interest', u'establishment']"
0,43.4504375,4.4277515,C.o.f.s,ChIJ4066RbththIRtH-We5q8nC0,"[u'point_of_interest', u'establishment']"
0,43.45865,4.423872,Mairie,ChIJb56th5ZhthIRg6ymn5FsZus,"[u'local_government_office', u'point_of_interest', u'establishment']"
0,43.45865,4.423872,Hôtel Mas de Layalle,ChIJb56th5ZhthIRg1ZFrmB1fRQ,"[u'point_of_interest', u'establishment']"
0,43.45865,4.423872,Mas du Roure,ChIJb56th5ZhthIRrBAcTtY75g8,"[u'point_of_interest', u'establishment']"
0,43.451601,4.4249226,La Patte Sur Le Coeur,ChIJV31qcbxhthIRvlOQqtyhvnk,"[u'point_of_interest', u'establishment']"
0,43.4529641,4.4276454,Pizza Las Vegas,ChIJUT8227xhthIRbTI4Q5iKoTw,"[u'restaurant', u'food', u'point_of_interest', u'establishment']"
0,43.4525256,4.4271764,John's Burger,ChIJ2UJ96rxhthIRJ9Kj6rKuNRo,"[u'restaurant', u'food', u'point_of_interest', u'establishment']"
0,43.4522495,4.4270635,Leo,ChIJgWYElbxhthIReOBBkEtofOk,"[u'point_of_interest', u'establishment']"
0,43.4517755,4.4267696,Pizzéria L'Asti,ChIJG5yPkLxhthIRW_eewpQ0SfI,"[u'restaurant', u'bar', u'food', u'point_of_interest', u'establishment']"
0,43.4524441,4.4269831,Le Chalut,ChIJXZdSnbxhthIRjz38zQ0iXOA,"[u'point_of_interest', u'establishment']"
0,43.45188,4.426567,Restaurant La Grange,ChIJr0lakLxhthIRn3-WjH763C4,"[u'restaurant', u'bar', u'food', u'point_of_interest', u'establishment']"
0,43.4586867,4.4239851,Earl Giraud D Eyminy,ChIJb56th5ZhthIRRuxnlek9dcc,"[u'point_of_interest', u'establishment']"
0,43.4586867,4.4239851,BDM,ChIJb56th5ZhthIRP3DS5KoC56I,"[u'lodging', u'point_of_interest', u'establishment']"
0,43.4586867,4.4239851,Blanche Camargue,ChIJb56th5ZhthIRaasWyc25GnU,"[u'laundry', u'point_of_interest', u'establishment']"
0,43.4521938,4.4270264,La Taverne Italienne,ChIJ6WVVkbxhthIRgMfbsRSOCw4,"[u'restaurant', u'bar', u'food', u'point_of_interest', u'establishment']"
0,43.457096,4.425476,L'Imprévu,ChIJkddXNpZhthIRQMnvyddNOEo,"[u'point_of_interest', u'establishment']"
0,43.457665,4.426885,centre équestre les Arnelles,ChIJVcB9u5dhthIR-oOeG8JyM34,"[u'point_of_interest', u'establishment']"
0,43.456512,4.426413,Centre équestre Crin Blanc,ChIJFU8rGZRhthIRAYut9djopiw,"[u'travel_agency', u'point_of_interest', u'establishment']"
0,43.457904,4.4278149,Sarl Coco Pain,ChIJeXjbhJdhthIRiuuGyul8gvA,"[u'bakery', u'food', u'store', u'point_of_interest', u'establishment']"
0,43.4666029,4.4046351,Mas de la Fouque,ChIJTS4qqPxhthIR2VNqNewnaSA,"[u'spa', u'lodging', u'restaurant', u'food', u'point_of_interest', u'establishment']"
0,43.4661267,4.4048309,MDLF,ChIJMZqF0eRhthIRFdVTd-4RMHQ,"[u'point_of_interest', u'establishment']"
0,43.470284,4.395711,L'Estelle en Camargue,ChIJpQxkAgeKthIRkaAdiiTQCUI,"[u'lodging', u'restaurant', u'food', u'point_of_interest', u'establishment']"
0,43.469354,4.395502,Lou Mistrau,ChIJrd0cBweKthIR301DPwMZx2w,"[u'point_of_interest', u'establishment']"
0,43.471486,4.396153,Rue Renaud Nathalie Anne Marte,ChIJt4HlNAeKthIRWj4D7rLL4_4,"[u'food', u'point_of_interest', u'establishment']"
0,43.471486,4.396153,Sci Dupuis,ChIJt4HlNAeKthIRapXrqFAqJIM,"[u'point_of_interest', u'establishment']"
0,43.471486,4.396153,Christen René,ChIJVWnlNAeKthIRM1gfgy4NQR4,"[u'point_of_interest', u'establishment']"
0,43.470238,4.3955719,Le Petit Gourmet,ChIJq3mGel6HthIRVGBaM8ECAOc,"[u'point_of_interest', u'establishment']"
0,43.486712,4.383601,Bac du Sauvage,ChIJf-29Ie6JthIRR3C8alYXlsw,"[u'point_of_interest', u'establishment']"
0,43.4813558,4.3896711,Mas du Mithra,ChIJf83DgPmJthIRp-QLF6nwtnk,"[u'lodging', u'point_of_interest', u'establishment']"
0,43.48405,4.387254,promenade à cheval La Cavale,ChIJSX28f_CJthIRE6A1Xj89MXU,"[u'travel_agency', u'point_of_interest', u'establishment']"
0,43.486603,4.384084,13460,ChIJkSHMJ-6JthIRJ8O_Z1umFRI,"[u'point_of_interest', u'establishment']"
0,43.486712,4.383601,La Cabanette du Sauvage,ChIJf-29Ie6JthIRtvIuRfI9ft4,"[u'restaurant', u'food', u'point_of_interest', u'establishment']"
0,43.487121,4.38242,13460,ChIJm10mBu6JthIR4Cg-Nv6QGxI,"[u'point_of_interest', u'establishment']"
0,43.518574,4.378062,Mas Lou Caloun gîtes équestre en camargue,ChIJEdBOlzWIthIRQLT_OuxORys,"[u'lodging', u'point_of_interest', u'establishment']"
0,43.517859,4.374972,Weingarten Salomé,ChIJATbyrEuIthIRMCfqqSh7fEc,"[u'veterinary_care', u'point_of_interest', u'establishment']"
0,43.51845,4.374371,Vens Marie-Thérèse,ChIJATbyrEuIthIRzpFbQ7Fhx4Q,"[u'lodging', u'point_of_interest', u'establishment']"
0,43.51845,4.374371,Vannetti Yvon,ChIJ29WiPKJhthIRQQMTkXy-gCE,"[u'point_of_interest', u'establishment']"
0,43.51845,4.374371,Cabanes de Cambon,ChIJH4NzHTaIthIReh2iIM5SVKc,"[u'sublocality_level_1', u'sublocality', u'political']"
0,43.449788,4.418206,TAHITI PLAGE,ChIJMRugYsdhthIRHl1F3D4gybc,"[u'bar', u'food', u'point_of_interest', u'establishment']"
0,43.448431,4.421782,Aquaglisse,ChIJsaBco7lhthIRwjtqLGTBCrk,"[u'amusement_park', u'travel_agency', u'natural_feature', u'point_of_interest', u'establishment']"
0,43.4512447,4.4264715,Sésam,ChIJV-CC6rxhthIRo1wJbqx-Jww,"[u'restaurant', u'bar', u'food', u'point_of_interest', u'establishment']"
0,43.4498236,4.4270514,Arènes des Saintes Maries de la Mer,ChIJ13fmFLththIRtAx_HsTediw,"[u'point_of_interest', u'establishment']"
0,43.4506702,4.4263547,Restaurant Côté Jardin,ChIJg7dQnbxhthIRki93VqYCLDs,"[u'restaurant', u'bar', u'food', u'point_of_interest', u'establishment']"
0,43.449948,4.423123,Optic 2000,ChIJCQEZYblhthIRMpDdE7cqTrY,"[u'health', u'point_of_interest', u'establishment']"
0,43.4510177,4.4261292,La Palma,ChIJr_rQfrththIRWo8zuLVLoRo,"[u'travel_agency', u'lodging', u'point_of_interest', u'establishment']"
0,43.4511541,4.4274804,Les Halles,ChIJizRLp7xhthIRMlHCBd5znpI,"[u'clothing_store', u'store', u'point_of_interest', u'establishment']"
0,43.450407,4.4278402,SARL TAXIS DU LITTORAL,ChIJQQErTLththIR_y9Kq7w-fMQ,"[u'travel_agency', u'point_of_interest', u'establishment']"
0,43.4512288,4.4264684,Schneider,ChIJkX5lwbxhthIRyT-u1Aoigv8,"[u'clothing_store', u'store', u'point_of_interest', u'establishment']"
0,43.4512698,4.4265255,CIC,ChIJ33qogrxhthIR2y6e_FUzetw,"[u'bank', u'finance', u'point_of_interest', u'establishment']"
0,43.4498736,4.4270316,Arènes des Saintes-Maries-de-la-Mer,ChIJ3YfjFLththIREhFBuKqMPLE,"[u'point_of_interest', u'establishment']"
0,43.4515048,4.4278361,Crin Blanc,ChIJA42wpbxhthIRTlLiLA4IrYw,"[u'jewelry_store', u'store', u'point_of_interest', u'establishment']"
0,43.4512407,4.4274745,El Rio Grande,ChIJk6UqobxhthIRd6bqMiZBFJQ,"[u'clothing_store', u'store', u'point_of_interest', u'establishment']"
0,43.4515064,4.4272517,Ja Diffusion,ChIJ63FXn7xhthIRcnUCZdg7XE0,"[u'jewelry_store', u'store', u'point_of_interest', u'establishment']"
0,43.451121,4.4283414,Coté Camargue,ChIJ_3a-VbththIRwPVawVJ0P9s,"[u'point_of_interest', u'establishment']"
0,43.4502871,4.4096666,Zen Ways,ChIJ1xyM7sRhthIRv4ipBXe0LbE,"[u'point_of_interest', u'establishment']"
0,43.4682286,4.3957983,Hotel Clamador,ChIJ-z9JJaNhthIRIIPEAOjIR3M,"[u'lodging', u'point_of_interest', u'establishment']"
0,43.4738685,4.3856977,Ballade a Cheval,ChIJqzro5RyKthIR4y0JttrimUo,"[u'point_of_interest', u'establishment']"
0,43.5823766,4.4340616,Mas d'Eymini de Boismaux,ChIJMeA5ewN9thIRcws71falE_A,"[u'lodging', u'point_of_interest', u'establishment']"
0,43.677079,4.433703,Saint-Gilles,ChIJZxI5LTF-thIRsDhrFiGIBwQ,"[u'locality', u'political']"
0,43.558527,4.410213,Château d'Avignon,ChIJfRDgYE59thIR5zwOqHwmvaI,"[u'point_of_interest', u'establishment']"
0,43.562945,4.414,Pidou Florence,ChIJw_w2EUZ9thIR3j4SUhJOzzA,"[u'food', u'point_of_interest', u'establishment']"
0,43.56934,4.506025,Arènes de Méjanes,ChIJtWjNvRV7thIRh8gbzsLFhOQ,"[u'park', u'bar', u'restaurant', u'food', u'point_of_interest', u'establishment']"
0,43.569467,4.504036,Ricard,ChIJtWjNvRV7thIRwHl5vJKiEc0,"[u'real_estate_agency', u'point_of_interest', u'establishment']"
0,43.569467,4.504036,Méjanes en Camargue,ChIJvRCTvRV7thIRh6-R7aUWcCk,"[u'point_of_interest', u'establishment']"
0,43.549669,4.401256,Aed Distri,ChIJSeqVvqtithIRmT4rnQbMid0,"[u'point_of_interest', u'establishment']"
0,43.549669,4.401256,Ste Anne (Sci),ChIJSeqVvqtithIRQXH_EWOy-7k,"[u'point_of_interest', u'establishment']"
0,43.549669,4.401256,Madc,ChIJSeqVvqtithIRXeyj6GkeFhY,"[u'point_of_interest', u'establishment']"
0,43.5169084,4.3671674,La Table des Baumelles,ChIJLy4pRqNhthIRSUwYGATHu8E,"[u'restaurant', u'bar', u'food', u'point_of_interest', u'establishment']"
0,43.5174137,4.3675653,La Manade Des Baumelles,ChIJrSIWXE2IthIRQAqSVjFmdsE,"[u'restaurant', u'lodging', u'food', u'point_of_interest', u'establishment']"
0,43.448883,4.4016761,Camping le Clos Du Rhône,ChIJVVVVVVVithIRbipssoz8EVo,"[u'rv_park', u'campground', u'park', u'lodging', u'point_of_interest', u'establishment']"
0,43.449378,4.41002,Farniente Plage,ChIJsUtiAsVhthIRZfFH8CSyOqU,"[u'restaurant', u'food', u'point_of_interest', u'establishment']"
0,43.450722,4.398576,Tiki III,ChIJM8lbkdhhthIRQqO_3INWCeI,"[u'point_of_interest', u'establishment']"
0,43.4504032,4.4160184,"Cabane ""Lou Vibre""",ChIJD_YJIsdhthIRnZ6wUyK4DK0,"[u'lodging', u'point_of_interest', u'establishment']"
0,43.4495561,4.4161378,Lifeguard,ChIJ5dvLBcdhthIRnUIZcGlfGMg,"[u'health', u'point_of_interest', u'establishment']"
0,43.449788,4.4182063,Calypso plage Lou Santen,ChIJMRugYsdhthIRG7Poy3Iz63U,"[u'restaurant', u'food', u'point_of_interest', u'establishment']"
0,43.4499777,4.4211227,Bus parking,ChIJ4_81GblhthIRT_4ne5K0PC0,"[u'parking', u'point_of_interest', u'establishment']"
0,43.4499229,4.422621,L'Escapade,ChIJMwnWbrlhthIRCzciPZJqbrw,"[u'bar', u'point_of_interest', u'establishment']"
0,43.450321,4.416702,Pont du Mort,ChIJb1-RFcdhthIRlAsrqJz6kvw,"[u'premise', u'point_of_interest', u'establishment']"
0,43.564758,4.4108029,13460,ChIJ6fucVER9thIR6P5uG7k6i8U,"[u'point_of_interest', u'establishment']"
0,43.532941,4.372786,Brenda Centre de tourisme équestre,ChIJh_Kwm0GIthIRX72WA9HcvWk,"[u'travel_agency', u'point_of_interest', u'establishment']"
0,43.530851,4.373776,Eymard Vivian Jeanclaude H,ChIJw1sfO0GIthIRWFIlDP68ZyY,"[u'general_contractor', u'point_of_interest', u'establishment']"
0,43.5298708,4.3687676,Chez Brigitte,ChIJGR3FhESIthIR435ttlSQXeQ,"[u'lodging', u'point_of_interest', u'establishment']"
0,43.516554,4.367225,Baumelles,ChIJ989wWk2IthIR63tiTxGYol0,"[u'sublocality_level_1', u'sublocality', u'political']"
0,43.508636,4.352221,CIAM,ChIJY5xtbwaJthIRkBkiQ8jj32o,"[u'point_of_interest', u'establishment']"
0,43.50863,4.35222,Neri Christian,ChIJL5cGZgKJthIRutg84_JC-e8,"[u'food', u'point_of_interest', u'establishment']"
0,43.572142,4.408761,13460,ChIJad9cHGh9thIRwLedHAvV4ks,"[u'point_of_interest', u'establishment']"
0,43.5846262,4.4205822,Crpsud,ChIJ1dIc9Qx9thIRQLBN8aKrwvw,"[u'point_of_interest', u'establishment']"
0,43.5846262,4.4205822,Fastout,ChIJ1dIc9Qx9thIRWptAAYZowPk,"[u'general_contractor', u'point_of_interest', u'establishment']"
0,43.5846262,4.4205822,Rozière Jean,ChIJ1dIc9Qx9thIRgojjqVwHqcE,"[u'point_of_interest', u'establishment']"
0,43.5846262,4.4205822,Les Fontanilles,ChIJ1dIc9Qx9thIRsWvEVUZjz70,"[u'point_of_interest', u'establishment']"
0,43.5846262,4.4205822,Gfa Domaine de Bel Air,ChIJhzowAw18thIRAsGncfnde1A,"[u'food', u'point_of_interest', u'establishment']"
0,43.551705,4.381147,Garage le Brasinvert,ChIJLy4pRqNhthIR7T7lU65RH-Q,"[u'car_repair', u'point_of_interest', u'establishment']"
0,43.552372,4.388126,Bergerie Duroure,ChIJh80x6AeIthIRXtRdzq70NIE,"[u'point_of_interest', u'establishment']"
0,43.5311189,4.369494,Lugherini Dupuy Beatrice,ChIJA6XRnUOIthIRCHNGNxtoOxA,"[u'store', u'point_of_interest', u'establishment']"
0,43.5320373,4.3688588,Bertrand Mazel,ChIJb1gpb0OIthIR1AjoF-pOPzA,"[u'point_of_interest', u'establishment']"
0,43.531024,4.368417,Château d'Astouin,ChIJb1gpb0OIthIR4_LcrtetvSI,"[u'premise', u'point_of_interest', u'establishment']"
0,43.520949,4.354792,Hôtel Lou Mas Doù Juge,ChIJLy4pRqNhthIR7oAgedcBens,"[u'lodging', u'restaurant', u'food', u'point_of_interest', u'establishment']"
0,43.520949,4.354792,Lou Mas Doù Juge,ChIJez_FM_-IthIR1zPFBpotLas,"[u'lodging', u'restaurant', u'food', u'point_of_interest', u'establishment']"
0,43.5154334,4.3517721,Bec de la Petite Camargue S.C.A.,ChIJLy4pRqNhthIR_6Hucs1QJvE,"[u'point_of_interest', u'establishment']"
0,43.515694,4.349422,Pin Fourcat,ChIJRVJdrwCJthIRQbI7_KYZCCY,"[u'neighborhood', u'political']"
0,43.562226,4.385649,Station de Pompage de Montcalm,ChIJF-ZDbOWHthIRgJDFQnZK8dY,"[u'point_of_interest', u'establishment']"
0,43.564924,4.391842,Journe Catherine,ChIJ3QuC2vCHthIRG6HYV2A181s,"[u'lodging', u'point_of_interest', u'establishment']"
0,43.573554,4.526982,Pont de Méjanes,ChIJEXgJcuR6thIRZRm5VYmPct8,"[u'premise', u'point_of_interest', u'establishment']"
0,43.467933,4.354834,Manade Raynaud,ChIJUdg1ZM2LthIRS2KD-FhnA9E,"[u'point_of_interest', u'establishment']"
0,43.46796,4.354887,Raynaud Aurelie Francoise Chantal,ChIJkSokZM2LthIRCYHPVpVfnSg,"[u'point_of_interest', u'establishment']"
0,43.549904,4.369819,ASA Assainissement Marais de Soutayran,ChIJPwX80HaIthIRPjMUe7p9kOo,"[u'point_of_interest', u'establishment']"
0,43.5039976,4.3206954,Manade de Clamador,ChIJrWMbFTSJthIRxAuTzYdZAQw,"[u'point_of_interest', u'establishment']"
0,43.45485,4.570313,Phare de la Gacholle,ChIJubHTeKNothIRz7f-tr41vUU,"[u'point_of_interest', u'establishment']"
0,43.692984,4.278326,Vauvert,ChIJFxo6q4uCthIReAbFQnveSVI,"[u'locality', u'political']"
0,43.5448155,4.3471288,Camargue,ChIJw6jg7o-IthIR1lPEE9nXQfc,"[u'convenience_store', u'food', u'store', u'point_of_interest', u'establishment']"
0,43.5446774,4.347058,Terrat Desponge Valerie,ChIJw6jg7o-IthIR3U6fjGE4AvA,"[u'lodging', u'point_of_interest', u'establishment']"
0,43.544735,4.348567,30600,ChIJ2U7tnI-IthIRU4p0RFEA7eY,"[u'campground', u'park', u'lodging', u'point_of_interest', u'establishment']"
0,43.546408,4.350092,Pont de Sylvéréal,ChIJQdYs64WIthIRTIBqYhXtb6A,"[u'premise', u'point_of_interest', u'establishment']"
0,43.5354,4.34016,Sep Gard Toros,ChIJ6RIsROuIthIR8zCtn6Isv1E,"[u'point_of_interest', u'establishment']"
0,43.471428,4.333246,Caves de la Pinède,ChIJxVX-VOaLthIRp-iflD7Mv1c,"[u'premise', u'point_of_interest', u'establishment']"
0,43.569445,4.560448,Dunant SCEA,ChIJuy8nXZ56thIRPJ8E7TfzvME,"[u'point_of_interest', u'establishment']"
0,43.569445,4.560448,Sci Callebaut Camargue,ChIJ0cwmXZ56thIRueUFIVLSY7I,"[u'point_of_interest', u'establishment']"
0,43.547928,4.3472091,Mas De Sylvereal,ChIJg3ZlJ4WIthIR6dRMbPja6wE,"[u'lodging', u'restaurant', u'food', u'point_of_interest', u'establishment']"
0,43.633443,4.195484,Saint-Laurent-d'Aigouze,ChIJF5hVbEqFthIRkDdrFiGIBwQ,"[u'locality', u'political']"
0,43.454075,4.583919,Pertuis de la Comtesse,ChIJOdmNsMBothIR0JrVTlcVze8,"[u'premise', u'point_of_interest', u'establishment']"
0,43.51491,4.301473,La Larbière,ChIJe5nhFNmOthIR9nMbZZf6Eno,"[u'premise', u'point_of_interest', u'establishment']"
0,43.518648,4.301701,unnamed,ChIJdSHrYyePthIRvhPPPtQrc8U,"[u'point_of_interest', u'establishment']"
0,43.5235,4.636515,Pont de Fumemorte,ChIJh6ICw3JuthIRbNmzc7bCdeo,"[u'premise', u'point_of_interest', u'establishment']"
0,43.4857269,4.6444481,Ulmet Parcours sonore de Camargue,ChIJw87GAqButhIRCJ7lBI7EN4s,"[u'museum', u'point_of_interest', u'establishment']"
0,43.5686,4.594717,Brissot Martin,ChIJyfVmx0hwthIRZVHlxESR6e4,"[u'point_of_interest', u'establishment']"
0,43.521944,4.644762,Pont de Saint-Vincent,ChIJf9Mlf3VuthIR-l0mktADwaI,"[u'premise', u'point_of_interest', u'establishment']"
0,43.5536389,4.626248,13200,ChIJU1o32OdxthIR45OV6uf5ivU,"[u'point_of_interest', u'establishment']"
0,43.5454378,4.6307912,Vaccarès Parcours sonore de Camargue,ChIJ6QNQP-JxthIRlrtH-orBU9U,"[u'museum', u'point_of_interest', u'establishment']"
0,43.5353624,4.6443431,Centre d'information de la Réserve Nationale de Camargue,ChIJN8SGOAluthIRTB3FYUENfRU,"[u'park', u'point_of_interest', u'establishment']"
0,43.5087113,4.2586673,Fort de Peccais,ChIJTczgY4eathIRQaA3h4Ddr4k,"[u'point_of_interest', u'establishment']"
0,43.512608,4.264506,unnamed,ChIJl3o101GOthIRRuhDkS1uPhc,"[u'point_of_interest', u'establishment']"
0,43.508434,4.258748,Ancien Fort de Peccais,ChIJEbUNeUaOthIRMFpfbL03fLQ,"[u'premise', u'point_of_interest', u'establishment']"
0,43.439549,4.616736,13129,ChIJG-tszRFpthIRgaf8lLs6zEs,"[u'parking', u'point_of_interest', u'establishment']"
0,43.5748559,4.611932,Gilbert Ingrid,ChIJZcVRpNgKthIRTG1cEhOV3gQ,"[u'point_of_interest', u'establishment']"
0,43.5058239,4.247224,Ancien Mas de l'Abbé,ChIJy6tDdDyOthIRRiFqVbxjDo0,"[u'premise', u'point_of_interest', u'establishment']"
0,43.570659,4.624503,Mas Saint Germain en Camargue,ChIJc-8k1ZdxthIRQ3IxAMjhSiI,"[u'lodging', u'point_of_interest', u'establishment']"
0,43.5725994,4.6237704,Le Mas du Petit Romieu,ChIJT4jNUb1xthIRzZJ65U3dLew,"[u'lodging', u'point_of_interest', u'establishment']"
0,43.572743,4.624173,13200,ChIJd_YlVL1xthIR0hD9xPy6rWI,"[u'church', u'place_of_worship', u'point_of_interest', u'establishment']"
0,43.567172,4.1925869,Aigues-Mortes,ChIJBWEumbeQthIRcEhrFiGIBwQ,"[u'locality', u'political']"
0,43.537476,4.137918,Le Grau-du-Roi,ChIJK4QLoSSRthIRgEBrFiGIBwQ,"[u'locality', u'political']"
