,Latitude,Longitude,Name,Place_id,Type
0,43.550669,5.034508,Saint-Chamas,ChIJTRirTeoCthIRTIH89NUuxbE,"[u'locality', u'political']"
0,43.5429101,5.0745557,Pavillon Les Cresets,ChIJ-T4XPEL9yRIRCk0PxSI7x-o,"[u'restaurant', u'food', u'point_of_interest', u'establishment']"
0,43.548451,5.069684,Dauba Eric,ChIJAfX2GWb9yRIR7B1fAdug12M,"[u'point_of_interest', u'establishment']"
0,43.548696,5.069621,Le Château des Plaines Saintes-Marthe,ChIJgfoKEGb9yRIRTuAMVxZGaBI,"[u'sublocality_level_1', u'sublocality', u'political']"
0,43.532813,5.067682,CT2M,ChIJPVXAZeoCthIRtPC0VP_JKeo,"[u'point_of_interest', u'establishment']"
0,43.527454,5.0797481,EDF-GRPH Méditerranée Groupe Régional de Production Hydraulique Méditerranée,ChIJDSR0hlL9yRIR_XvRF2nqXbc,"[u'point_of_interest', u'establishment']"
0,43.531705,5.080188,unnamed,ChIJnYqm0Un9yRIRVBaE7p9UkTg,"[u'point_of_interest', u'establishment']"
0,43.527432,5.073186,13250,ChIJ1wXO_kz9yRIRMZhU44ZLmU0,"[u'point_of_interest', u'establishment']"
0,43.5269267,5.0727737,Centrale Electrique Saint Chamas,ChIJ-yYOHU39yRIRLUDwcl_VCsU,"[u'point_of_interest', u'establishment']"
0,43.5269229,5.067505,France,ChIJ46OJHlP9yRIRYkg3Mpu61no,"[u'parking', u'point_of_interest', u'establishment']"
0,43.557698,5.075454,PL2G Immobilier,ChIJ06PFVtwDthIRp34D0mHxDBE,"[u'real_estate_agency', u'point_of_interest', u'establishment']"
0,43.55815,5.076102,SOS Informatique 13,ChIJu0yY-nP9yRIRopf6JN6mxDU,"[u'point_of_interest', u'establishment']"
0,43.5565805,5.0758107,Zone d'activité La Pecette,ChIJXwTn0HP9yRIRRPEJy6tk63M,"[u'point_of_interest', u'establishment']"
0,43.5567962,5.0756112,SARL MARTINEZ RENE ET FILS,ChIJPVXAZeoCthIR5L3HfhxkmKU,"[u'local_government_office', u'point_of_interest', u'establishment']"
0,43.5606748,5.071571,MSS record,ChIJL8FqDXf9yRIRbAUYhU_ZC8A,"[u'point_of_interest', u'establishment']"
0,43.56073,5.071668,A-P-R-CLAUDE,ChIJp5rd7OsCthIRbJ1C4fKj_Iw,"[u'point_of_interest', u'establishment']"
0,43.55605,5.075326,Conseil Formation Création,ChIJm_1M2GL9yRIRSae3lYx3lig,"[u'point_of_interest', u'establishment']"
0,43.558002,5.075465,SWYD,ChIJt8NjoukCthIRTQDdKV3Ozvo,"[u'point_of_interest', u'establishment']"
0,43.560466,5.0743562,Chapelle Saint-Vincent,ChIJ9Xs15nb9yRIR3Mja-r_YFaE,"[u'church', u'place_of_worship', u'point_of_interest', u'establishment']"
0,43.561546,5.072442,Atelier du Carton,ChIJldR2ZTP8yRIR7WaWtJsKMiM,"[u'point_of_interest', u'establishment']"
0,43.56219,5.0722569,Cornillon-Confoux,ChIJzRaqCXj9yRIR_yAzkDXzIo0,"[u'locality', u'political']"
0,43.544233,5.053008,SUDCOSMETICS,ChIJE2DIhF0BthIRXXqbuT4CC3A,"[u'point_of_interest', u'establishment']"
0,43.539976,5.053722,Le Mas du Roseau,ChIJWaFKjXf9yRIRbYyP0gCYndI,"[u'point_of_interest', u'establishment']"
0,43.543289,5.052747,L'age de Pierre,ChIJgVPAZeoCthIRiHpioBWiY18,"[u'point_of_interest', u'establishment']"
0,43.543423,5.052312,Medica plus,ChIJjVTAZeoCthIRX78vRkhDvMw,"[u'health', u'store', u'point_of_interest', u'establishment']"
0,43.5432174,5.0564415,MARTINS ET L'ART DU TOIT,ChIJgcd8r6ECthIRmQcVGEuqFpk,"[u'point_of_interest', u'establishment']"
0,43.543209,5.0545289,Sarl Amdo,ChIJhekJUqICthIRkBZ24qCKm-4,"[u'point_of_interest', u'establishment']"
0,43.54312,5.0545111,Medica,ChIJL3krKqICthIRvmtCK1UF_3Y,"[u'health', u'store', u'point_of_interest', u'establishment']"
0,43.543165,5.052709,Zone Artisanale des Plaines Sud,ChIJhekJUqICthIRZbRUWgXcuu8,"[u'point_of_interest', u'establishment']"
0,43.52762,5.08299,La Pinède,ChIJDSR0hlL9yRIRoWbwe4WwmbE,"[u'restaurant', u'food', u'point_of_interest', u'establishment']"
0,43.527838,5.082515,Beau Rivage,ChIJIUXQujX9yRIRFgNWlkaEmkg,"[u'sublocality_level_1', u'sublocality', u'political']"
0,43.588896,5.002136,Miramas,ChIJza-aYrADthIRQFNhmV8_0cw,"[u'locality', u'political']"
0,43.557381,5.058774,Le Mas de la Rabassière,ChIJUSbFZoICthIRiUcRbmLWbgw,"[u'lodging', u'point_of_interest', u'establishment']"
0,43.5532614,5.0600836,L'Escapade,ChIJp9OGVesCthIReTKd1-tRMk0,"[u'lodging', u'point_of_interest', u'establishment']"
0,43.5440577,5.0462175,Tennis Club de Saint Chamas,ChIJRaTuSL4CthIRvstDHu5b-r4,"[u'point_of_interest', u'establishment']"
0,43.5425835,5.048778,Les Charpentiers de Provence,ChIJ5RUU0LwCthIRXSyfrrAWsLo,"[u'point_of_interest', u'establishment']"
0,43.539507,5.050238,RM2S Revêtements Métallisations Soudures Spéciales,ChIJjVTAZeoCthIRsKhZcnMNHbM,"[u'store', u'point_of_interest', u'establishment']"
0,43.5461061,5.0487737,Parcomvet,ChIJj_T575cCthIR1-I57G067FU,"[u'store', u'point_of_interest', u'establishment']"
0,43.5394923,5.050444,RM2S,ChIJu49Kv6QCthIRTd69JmZ1u1Q,"[u'store', u'point_of_interest', u'establishment']"
0,43.5486879,5.0460176,Abeel,ChIJJf5e7pYCthIRwPt8Uelwock,"[u'electrician', u'point_of_interest', u'establishment']"
0,43.536571,5.048196,Deshons Hydraulique,ChIJmTxbvboCthIR147NuAqXUc0,"[u'point_of_interest', u'establishment']"
0,43.54509,5.047522,13250,ChIJO2gqZb0CthIR-Pki0V7vn2Y,"[u'church', u'place_of_worship', u'point_of_interest', u'establishment']"
0,43.539542,5.048407,13250,ChIJnZaiQLsCthIRIwW3qpSKuKw,"[u'parking', u'point_of_interest', u'establishment']"
0,43.5428687,5.0461286,Roubaud Sophie,ChIJm0MIb3j9yRIRq9ZtVV85UmE,"[u'point_of_interest', u'establishment']"
0,43.5465368,5.0467149,Alighieri Christian,ChIJf_mLNJYCthIRvgMCcWWrtFs,"[u'point_of_interest', u'establishment']"
0,43.53944,5.047497,13250,ChIJYy9jDbsCthIRWq8ig9tVWmo,"[u'stadium', u'point_of_interest', u'establishment']"
0,43.548599,5.04603,Aouabdia Amar,ChIJ-cnV8ZYCthIRRP09NVtRQZA,"[u'point_of_interest', u'establishment']"
0,43.5455298,5.0439212,SNV,ChIJH4uNAb4CthIRhYzopHRWnOs,"[u'general_contractor', u'point_of_interest', u'establishment']"
0,43.5489416,5.0458397,Dumas Olivier,ChIJd4Xw65YCthIRbBX5cNvLmIw,"[u'point_of_interest', u'establishment']"
0,43.545219,5.049847,Pont de la Roquette,ChIJ0wJqqaICthIRFS-kfeCjbjs,"[u'premise', u'point_of_interest', u'establishment']"
0,43.543663,5.048735,Pont Saint-Léger,ChIJG0xIJb0CthIRpTbl4iQt-j0,"[u'premise', u'point_of_interest', u'establishment']"
0,43.5277338,5.0909024,Sarl SuperPlan,ChIJT88UZSn9yRIR8KXYAIJEpW4,"[u'food', u'point_of_interest', u'establishment']"
0,43.5278235,5.0908943,SN2A,ChIJT88UZSn9yRIRtSqgR0LCKZA,"[u'point_of_interest', u'establishment']"
0,43.5277338,5.0909024,Linde France,ChIJT88UZSn9yRIR9iXFZ9Lu5es,"[u'point_of_interest', u'establishment']"
0,43.5277338,5.0909024,Mairie,ChIJZWdGdDL9yRIRJ8GXZw6LCeY,"[u'point_of_interest', u'establishment']"
0,43.5277338,5.0909024,Les Jardins de Baptiste,ChIJT88UZSn9yRIRshZdCoeQmco,"[u'general_contractor', u'point_of_interest', u'establishment']"
0,43.5278235,5.0908943,Lyondellbasell Services France SAS,ChIJZWdGdDL9yRIRE8Bhf0H3pl8,"[u'point_of_interest', u'establishment']"
0,43.5278235,5.0908943,Garig,ChIJZWdGdDL9yRIRu-zw0kSnIl8,"[u'point_of_interest', u'establishment']"
0,43.5278235,5.0908943,Faure Collecte d'Huiles,ChIJZWdGdDL9yRIRMuSrSeKqIRE,"[u'point_of_interest', u'establishment']"
0,43.5278235,5.0908943,La Jasso de Calissanne,ChIJZWdGdDL9yRIRaFMldFBbMAY,"[u'point_of_interest', u'establishment']"
0,43.5277338,5.0909024,Castres Equipement,ChIJZWdGdDL9yRIRXKimywABc_A,"[u'point_of_interest', u'establishment']"
0,43.526417,5.0931073,Camping Le Canet Plage,ChIJ7yI2BC39yRIRXKsWYiRJn2A,"[u'campground', u'park', u'lodging', u'point_of_interest', u'establishment']"
0,43.5278235,5.0908943,Kessler,ChIJZWdGdDL9yRIR8cbX758CTPo,"[u'point_of_interest', u'establishment']"
0,43.5278235,5.0908943,Cofathec ADF,ChIJZWdGdDL9yRIRXE2esxR7YUc,"[u'finance', u'point_of_interest', u'establishment']"
0,43.5277338,5.0909024,Eco Recycling Systems Limited,ChIJT88UZSn9yRIRxfLCWLJSa9Q,"[u'point_of_interest', u'establishment']"
0,43.5277338,5.0909024,Galleazzi Serge,ChIJT88UZSn9yRIRQWtDwQrcOaE,"[u'moving_company', u'point_of_interest', u'establishment']"
0,43.5277338,5.0909024,Stef Gassier Gaston Et Bruno,ChIJT88UZSn9yRIRktfBwoVJa14,"[u'food', u'point_of_interest', u'establishment']"
0,43.5277338,5.0909024,Cabalero Alain,ChIJT88UZSn9yRIRjWCHv2dcKwc,"[u'real_estate_agency', u'point_of_interest', u'establishment']"
0,43.5625121,5.0718127,Mairie,ChIJK7o-GOwCthIR-wq2tO5AztM,"[u'city_hall', u'local_government_office', u'point_of_interest', u'establishment']"
0,43.56219,5.0722569,Lacroix Loic | Compositeur Arrangeur,ChIJu4P_2Xf9yRIRY9XXpnKBWcI,"[u'art_gallery', u'point_of_interest', u'establishment']"
0,43.5619907,5.0714928,Bar-Restaurant Le Beffroy,ChIJnayDvXf9yRIRgO2CoX3GzDU,"[u'restaurant', u'bar', u'food', u'point_of_interest', u'establishment']"
0,43.562507,5.071803,La Poste,ChIJ0-eTwHf9yRIRYSGYbbkB5ns,"[u'point_of_interest', u'establishment']"
0,43.563531,5.072057,Mairie et Office de Tourisme de Cornillon-Confoux,ChIJzQz32Hf9yRIROfSTMbyCNm8,"[u'point_of_interest', u'establishment']"
0,43.562507,5.071803,Ass Fonciere Remembrement Romegoux,ChIJi1aRwHf9yRIRvByFrtS01h8,"[u'city_hall', u'local_government_office', u'point_of_interest', u'establishment']"
0,43.5623201,5.071586,SARL le Printemps,ChIJ0QrVv3f9yRIR3_4FQ2M-xWQ,"[u'convenience_store', u'food', u'store', u'point_of_interest', u'establishment']"
0,43.562613,5.071477,Musicadanse,ChIJvw_26nf9yRIRITVmS2kuivg,"[u'point_of_interest', u'establishment']"
0,43.56255,5.071546,Town De Cornillon Confoux,ChIJqbmZ6nf9yRIRXGFabluJDOw,"[u'school', u'point_of_interest', u'establishment']"
0,43.563768,5.071849,"Maison de la Santé (Médecin généraliste, kinésithérapeute et infirmières)",ChIJzTaaYZ39yRIR5K3b5s7pkCw,"[u'doctor', u'health', u'point_of_interest', u'establishment']"
0,43.562469,5.0708,Taberner Fleurs,ChIJWaFKjXf9yRIRZO_e_msLumI,"[u'food', u'point_of_interest', u'establishment']"
0,43.569695,5.088043,Les écuries Kanel,ChIJ3TzgaZH9yRIRDl9FdFJHHSA,"[u'point_of_interest', u'establishment']"
0,43.56219,5.0722569,Multimédia Services,ChIJu4P_2Xf9yRIRhQVLQ6csUKY,"[u'point_of_interest', u'establishment']"
0,43.561709,5.072421,Tabac Presse Cazenave,ChIJB8RRrnf9yRIRE_v9yOHjY4Y,"[u'store', u'point_of_interest', u'establishment']"
0,43.5622637,5.072186,PLOMBIÊR Marc,ChIJWw3OuXf9yRIRrmKK1f5o-Tg,"[u'point_of_interest', u'establishment']"
0,43.5622432,5.071978,Deschamps Edmond,ChIJX7Q9uXf9yRIR0-sovCpXo48,"[u'point_of_interest', u'establishment']"
0,43.5633051,5.0720781,Sci Da Silva,ChIJ96w32nf9yRIRRAVXzL06xf0,"[u'point_of_interest', u'establishment']"
0,43.562507,5.071803,Arima Renaud Eriko,ChIJ0-eTwHf9yRIRYAvAN8-oEPM,"[u'point_of_interest', u'establishment']"
0,43.563562,5.071922,ARC,ChIJ26cgAZdw5kcRlAo5uWCR5j8,"[u'painter', u'general_contractor', u'point_of_interest', u'establishment']"
0,43.5620203,5.07161,Des Aires Scm,ChIJ96w32nf9yRIR9HKcHf0OcFs,"[u'health', u'point_of_interest', u'establishment']"
0,43.562168,5.071523,13250,ChIJ3xbilXf9yRIRYL6vz3OQAiw,"[u'church', u'place_of_worship', u'point_of_interest', u'establishment']"
0,43.56255,5.071546,Couderc Alain Jean,ChIJqbmZ6nf9yRIRaMmHv--5wjo,"[u'finance', u'point_of_interest', u'establishment']"
0,43.562725,5.071442,13250,ChIJt-wx6nf9yRIRZpA2vvBYwRw,"[u'city_hall', u'local_government_office', u'point_of_interest', u'establishment']"
0,43.564005,5.071461,Da Silva Laura,ChIJ51rFXZ39yRIR-19j7mO_3_Q,"[u'point_of_interest', u'establishment']"
0,43.5627317,5.0709881,Elementary School,ChIJvZKdlxn8yRIRsPdvg19BGWE,"[u'school', u'point_of_interest', u'establishment']"
0,43.5625446,5.0708156,Froment Jean-Marie,ChIJWaFKjXf9yRIRRnK3nB2lreI,"[u'point_of_interest', u'establishment']"
0,43.562469,5.0708,Straland,ChIJWaFKjXf9yRIR1rBsSJ0N5OA,"[u'point_of_interest', u'establishment']"
0,43.562469,5.0708,Flaud Richard,ChIJiVEujXf9yRIRtC6HZTAiLd8,"[u'point_of_interest', u'establishment']"
0,43.562469,5.0708,Martini Fabien,ChIJWaFKjXf9yRIRaoai3V0xPlI,"[u'general_contractor', u'food', u'point_of_interest', u'establishment']"
0,43.56247,5.0708,Bonhomme Lionel,ChIJWaFKjXf9yRIRfzgupCBkBbA,"[u'point_of_interest', u'establishment']"
0,43.56247,5.0708,Dossetto Denis,ChIJ5bFqKRj-yRIRyl-okZ3uG4M,"[u'point_of_interest', u'establishment']"
0,43.56247,5.0708,Zavarella Pierre,ChIJWaFKjXf9yRIRnuxB8fAS9Xk,"[u'point_of_interest', u'establishment']"
0,43.5652625,5.0715592,Touche Jean-Louis,ChIJnZ1kPZ39yRIRK7qxQZ3ARtg,"[u'point_of_interest', u'establishment']"
0,43.553252,5.051757,Castaing Roland,ChIJk4Bj45oCthIRM4_HzKW_GqQ,"[u'point_of_interest', u'establishment']"
0,43.5533091,5.0516612,Pagan Gilbert,ChIJk4Bj45oCthIRLiUotnsS6wg,"[u'point_of_interest', u'establishment']"
0,43.552971,5.048637,13250,ChIJn4KBY5ACthIRNSwxP3CWXlQ,"[u'campground', u'park', u'lodging', u'point_of_interest', u'establishment']"
0,43.591912,5.126824,Lançon-Provence,ChIJ4YHdMLr7yRIRYAKX_aUZCAQ,"[u'locality', u'political']"
0,43.541381,5.042964,Pont Flavien,ChIJzygqtr4CthIRrzklZ8fXt5M,"[u'point_of_interest', u'establishment']"
0,43.542052,5.0412167,chambres d'hôtes ***CHEZ NICOLE***,ChIJ4yMQI78CthIRjQtvwRzEiic,"[u'lodging', u'point_of_interest', u'establishment']"
0,43.548077,5.0375703,Middle School René Seyssaud,ChIJV7S85uoCthIRbVE1R2q29jw,"[u'school', u'point_of_interest', u'establishment']"
0,43.542264,5.0413301,Restaurant La Bergerie,ChIJR9NUIr8CthIR5aNOGMXs9Bk,"[u'restaurant', u'food', u'point_of_interest', u'establishment']"
0,43.5447533,5.0399137,Lidl,ChIJTRirTeoCthIRbUFeJB-lutA,"[u'grocery_or_supermarket', u'food', u'store', u'point_of_interest', u'establishment']"
0,43.543451,5.040322,Tradulangues,ChIJsRtXdb8CthIRX1f6M63r0vM,"[u'point_of_interest', u'establishment']"
0,43.544376,5.042202,stylism'ongles,ChIJ5bFqKRj-yRIR3G1zYwQlTTU,"[u'beauty_salon', u'hair_care', u'point_of_interest', u'establishment']"
0,43.548077,5.0375703,Mariton Sa,ChIJac_u5uoCthIRS6ZYB3vYwMI,"[u'furniture_store', u'home_goods_store', u'store', u'point_of_interest', u'establishment']"
0,43.5430842,5.0405829,Club Alpin Français La Crau En Provence,ChIJTRv0i74DthIRhXZ4WkAXnv4,"[u'point_of_interest', u'establishment']"
0,43.5481403,5.0431122,Dj Animation Sonomoov,ChIJx6W-ypUCthIRfTHV4heyXdI,"[u'point_of_interest', u'establishment']"
0,43.542362,5.041395,Restaurant La Bergerie,ChIJsRtXdb8CthIRqoS0yKjtwh0,"[u'restaurant', u'food', u'point_of_interest', u'establishment']"
0,43.5444664,5.0421938,Schmitt Eric,ChIJRaTuSL4CthIRQehE8m-dtlE,"[u'point_of_interest', u'establishment']"
0,43.538573,5.041262,Arcadia,ChIJe5EWVrgCthIRdZRtp7Oiebg,"[u'sublocality_level_1', u'sublocality', u'political']"
0,43.540621,5.041234,Mairie,ChIJIRkX0bgCthIRXdT6d-C8Aig,"[u'local_government_office', u'point_of_interest', u'establishment']"
0,43.548845,5.03941,Logirem,ChIJ64MozpQCthIRZUB7DfBLU9c,"[u'point_of_interest', u'establishment']"
0,43.5379334,5.0394591,BB Pixel Photos,ChIJ3QsicbgCthIRx1OG63HBgiQ,"[u'point_of_interest', u'establishment']"
0,43.5365718,5.042439,Dance and Co,ChIJF9pO2rkCthIRZMa2f_cXj7s,"[u'point_of_interest', u'establishment']"
0,43.546899,5.035847,2RC Consult,ChIJkY7d7OsCthIR8kLlSqHAiEw,"[u'real_estate_agency', u'point_of_interest', u'establishment']"
0,43.5460313,5.0360109,Casado Richard,ChIJKdwl1sECthIR9LLcASXaHyA,"[u'point_of_interest', u'establishment']"
0,43.5469182,5.0359899,Les Amaryllis,ChIJ8f-N2rwcthIR3Yx-xL5OALU,"[u'hospital', u'point_of_interest', u'establishment']"
0,43.5469182,5.0359899,Marseille Modelage Mécanique,ChIJPVXAZeoCthIR6jRVuUaEF_Q,"[u'point_of_interest', u'establishment']"
0,43.5469182,5.0359899,Ipsos Electric,ChIJPVXAZeoCthIRJ6KFPa8k9t0,"[u'electronics_store', u'store', u'point_of_interest', u'establishment']"
0,43.5469182,5.0359899,Martins Tradicharpentes,ChIJPVXAZeoCthIR5uAlJ29_xGw,"[u'point_of_interest', u'establishment']"
0,43.5469182,5.0359899,Ambles Nature et Chimie,ChIJPVXAZeoCthIRsq4sH_oWQoo,"[u'point_of_interest', u'establishment']"
0,43.5469182,5.0359899,T.g. 6,ChIJPVXAZeoCthIR9_rxD3LZ20I,"[u'point_of_interest', u'establishment']"
0,43.5469182,5.0359899,Reliure et Création,ChIJPVXAZeoCthIRwr7CDAbgGso,"[u'point_of_interest', u'establishment']"
0,43.5469182,5.0359899,M.P.G.6,ChIJPVXAZeoCthIRaweovISGNSc,"[u'point_of_interest', u'establishment']"
0,43.5468795,5.0358578,Phytorem,ChIJXTiTZeoCthIRPDb2_50yV3M,"[u'point_of_interest', u'establishment']"
0,43.5468895,5.035892,Mairie,ChIJgVPAZeoCthIRZLTd870uatE,"[u'city_hall', u'local_government_office', u'point_of_interest', u'establishment']"
0,43.5468895,5.035892,A.n.c.o Sa,ChIJgVPAZeoCthIRoVame8KXI3Q,"[u'point_of_interest', u'establishment']"
0,43.5376951,5.038401,Roche Valérie,ChIJGZJBjccCthIR0WHvpCiOd6w,"[u'furniture_store', u'home_goods_store', u'store', u'point_of_interest', u'establishment']"
0,43.5376951,5.038401,Forclum Mediterranee Saint Chamas,ChIJGZJBjccCthIR6EBdh00Ksj4,"[u'point_of_interest', u'establishment']"
0,43.5376951,5.038401,IRSERVICES,ChIJGZJBjccCthIRSOTuswWWj-s,"[u'electronics_store', u'store', u'point_of_interest', u'establishment']"
0,43.5376951,5.038401,MB Service,ChIJGZJBjccCthIRURwUz9Zpyag,"[u'point_of_interest', u'establishment']"
0,43.5458036,5.0348264,Colline du Baou,ChIJv02wCOoCthIRG-svrd2Vrxg,"[u'point_of_interest', u'establishment']"
0,43.55071,5.038869,Electricite de France,ChIJp9OGVesCthIRksHbh1i40u4,"[u'point_of_interest', u'establishment']"
0,43.55071,5.038869,La Ferme D'helene,ChIJp9OGVesCthIR8h_ZXLnI18Y,"[u'food', u'point_of_interest', u'establishment']"
0,43.55071,5.038869,Cercle Nautique St Chamas,ChIJE9GGVesCthIRjEBNTQoQZjQ,"[u'point_of_interest', u'establishment']"
0,43.537317,5.037699,Samt,ChIJpcfxwccCthIRPAjomNm3Jog,"[u'point_of_interest', u'establishment']"
0,43.5443767,5.0422021,Aillaud Patrick,ChIJRaTuSL4CthIR_Q7PnrDRYTw,"[u'point_of_interest', u'establishment']"
0,43.5444664,5.0421938,Cocordano Georges,ChIJRaTuSL4CthIRBjRcniYrVqo,"[u'electrician', u'point_of_interest', u'establishment']"
0,43.5444664,5.0421938,Caoutchoucs Plastiques Méditerranéens SARL,ChIJRaTuSL4CthIRJawl98RJ858,"[u'hardware_store', u'store', u'point_of_interest', u'establishment']"
0,43.5444664,5.0421938,Garage de l'Etoile,ChIJRaTuSL4CthIRz12Tm6XWtJA,"[u'car_repair', u'point_of_interest', u'establishment']"
0,43.5444664,5.0421938,Pichou Corinne,ChIJRaTuSL4CthIRrTtfpzTeCmg,"[u'real_estate_agency', u'point_of_interest', u'establishment']"
0,43.526959,5.099332,Le Canet,ChIJt7u9USr9yRIRzK03Z44RIfU,"[u'sublocality_level_1', u'sublocality', u'political']"
0,43.536493,5.038379,SAMT Armaturiers,ChIJ3Y3W4scCthIRLN2olT8bDPs,"[u'point_of_interest', u'establishment']"
0,43.536198,5.03663,Sud Services Environnement,ChIJRaTuSL4CthIRGBR0K9Qqrd8,"[u'general_contractor', u'point_of_interest', u'establishment']"
0,43.53753,5.035344,Clinique SSR Korian Les Alcides,ChIJGZJBjccCthIR0naBVo4oOr0,"[u'health', u'point_of_interest', u'establishment']"
0,43.5369993,5.0356307,Home AFFINITY,ChIJL_0yO8YCthIRmIBTZnK56mU,"[u'point_of_interest', u'establishment']"
0,43.537084,5.035589,SUDEXPE RAIDS 4X4 RAIDS AVENTURE,ChIJn3-hPMYCthIRxuQGrhco-Tc,"[u'point_of_interest', u'establishment']"
0,43.5381382,5.0351698,ASSOCIATION PLANETE DES LUTINS,ChIJecuXQsYCthIRhaVxvRntZD4,"[u'school', u'point_of_interest', u'establishment']"
0,43.53565,5.0427478,Rue Des Gardians,ChIJ2yzDY7cCthIR73x6oAz8WEw,"[u'point_of_interest', u'establishment']"
0,43.5361074,5.041328,Alonso Gilles,ChIJLTYth7cCthIR7GUlCDyh5jE,"[u'point_of_interest', u'establishment']"
0,43.5373413,5.0418249,Donadio Jean Louis,ChIJwZdhyrkCthIRHgkDPElgXB0,"[u'point_of_interest', u'establishment']"
0,43.5375941,5.0415677,Richard Patrick,ChIJEd9OS7gCthIRc9hTpkAyE58,"[u'point_of_interest', u'establishment']"
0,43.5373171,5.040861,Kaloustian Roger,ChIJA2WWR7gCthIRd7PF326szpE,"[u'point_of_interest', u'establishment']"
0,43.53844,5.0406,Ausdard Frederic,ChIJBdPBXrgCthIRJ75hpDp08Jk,"[u'painter', u'point_of_interest', u'establishment']"
0,43.5376951,5.038401,Manade Cyril Camille Clau,ChIJGZJBjccCthIRILXy9dr3OR8,"[u'point_of_interest', u'establishment']"
0,43.539676,5.040608,13250,ChIJwarJ67gCthIRLMJrcym3ps0,"[u'police', u'point_of_interest', u'establishment']"
0,43.537317,5.037699,Lubrano Jean-Paul,ChIJpcfxwccCthIRMFhsd06EXoo,"[u'point_of_interest', u'establishment']"
0,43.5372654,5.0376546,Sarl Transports Sud-inter,ChIJT-QjwscCthIRbjm6Dca3Emg,"[u'point_of_interest', u'establishment']"
0,43.536341,5.036953,Sébastien Mazzoni ébéniste,ChIJwyVeeMgCthIReRr5OBohpTc,"[u'point_of_interest', u'establishment']"
0,43.540621,5.041234,Boy Veronique,ChIJIRkX0bgCthIRWaIEjn4WCVM,"[u'point_of_interest', u'establishment']"
0,43.536281,5.036707,Sud Services Environnement,ChIJvbiv8rsDthIRwYh5rqOvn3A,"[u'point_of_interest', u'establishment']"
0,43.5409054,5.0399863,Bouvet Martine,ChIJ6zCbs7gCthIRxLVubr2iWUQ,"[u'point_of_interest', u'establishment']"
0,43.5369993,5.0356307,Copro Residnece Hameau de Saint Chamas,ChIJL_0yO8YCthIRcM_uBWyjJac,"[u'real_estate_agency', u'point_of_interest', u'establishment']"
0,43.5369993,5.0356307,Gil,ChIJL_0yO8YCthIRJaORXRtSOHQ,"[u'point_of_interest', u'establishment']"
0,43.537084,5.035589,Bellusci Elisabeth,ChIJL_0yO8YCthIRR07ihAt-V5I,"[u'hair_care', u'point_of_interest', u'establishment']"
0,43.5379474,5.035966,MB Taxi Grans,ChIJg_vlQsYCthIRgh1u0ylMZGo,"[u'point_of_interest', u'establishment']"
0,43.5383168,5.0360973,Herve Patrick,ChIJXdlnrMcCthIRY0gHo_1GoKg,"[u'electrician', u'point_of_interest', u'establishment']"
0,43.537519,5.035306,13250,ChIJL3pWPsYCthIRKMi3iTZmLEU,"[u'health', u'point_of_interest', u'establishment']"
0,43.5424513,5.0415123,Polo Burger,ChIJ8UphHr8CthIRtuhDvpLQ0IU,"[u'restaurant', u'food', u'point_of_interest', u'establishment']"
0,43.536066,5.034657,unnamed,ChIJN24ApcgCthIRghsA_uzbZj4,"[u'point_of_interest', u'establishment']"
0,43.5381524,5.0351501,Moroy Sandrine,ChIJp0hiQsYCthIRg7QjoaIMY4Y,"[u'beauty_salon', u'hair_care', u'point_of_interest', u'establishment']"
0,43.5542583,5.0394866,Marius Bernard La Boutique,ChIJ8f9MofICthIRTlZP7kFN7dk,"[u'grocery_or_supermarket', u'restaurant', u'food', u'store', u'point_of_interest', u'establishment']"
0,43.5531584,5.0399552,DN France,ChIJ8f9MofICthIRPuDLfj9OW9c,"[u'point_of_interest', u'establishment']"
0,43.5523229,5.0402231,V.m.r 60,ChIJjUe0PZMCthIRrDpjoPqleaM,"[u'general_contractor', u'point_of_interest', u'establishment']"
0,43.5536376,5.0386019,Sci la Fabrique,ChIJ8f9MofICthIR0al1x5-SAhg,"[u'point_of_interest', u'establishment']"
0,43.5524616,5.0401939,L Atelier Dell Arte,ChIJQ1LVIpMCthIREM5ZiCsNAbA,"[u'painter', u'point_of_interest', u'establishment']"
0,43.5542353,5.0395811,Société MARIUS BERNARD SAS,ChIJ8f9MofICthIRv0UyrJnSevk,"[u'food', u'point_of_interest', u'establishment']"
0,43.5509879,5.0364496,Post Office,ChIJ012Jf-wCthIRIK_7KQpCvsQ,"[u'post_office', u'finance', u'point_of_interest', u'establishment']"
0,43.550106,5.0369672,Maison de Retraite Saint Chamas,ChIJleyPf-wCthIRfgnKa714qhs,"[u'health', u'point_of_interest', u'establishment']"
0,43.5507919,5.0360662,Boulanger,ChIJA9KYh-sCthIRqPKz-SEjkmc,"[u'general_contractor', u'point_of_interest', u'establishment']"
0,43.555282,5.0520189,Medon,ChIJz5zvKYUCthIRf2adrU9U6e0,"[u'sublocality_level_1', u'sublocality', u'political']"
0,43.5519754,5.0343245,Mairie - comité feux forêts,ChIJK7o-GOwCthIRiuqbz-F6fBc,"[u'point_of_interest', u'establishment']"
0,43.549881,5.034563,Caisse d'Epargne Saint Chamas,ChIJDwGM6OsCthIRrywF_42v4FE,"[u'bank', u'finance', u'point_of_interest', u'establishment']"
0,43.5502259,5.0346148,Crédit Agricole Alpes Provence,ChIJX6X75esCthIRqRAxms5OYHk,"[u'bank', u'atm', u'finance', u'point_of_interest', u'establishment']"
0,43.5515296,5.0365869,Etude Jean Et Gauthier Nicolas,ChIJ5ycOiOwCthIR_OoQY_9WznE,"[u'finance', u'point_of_interest', u'establishment']"
0,43.5528239,5.0340966,Fournier Pauline,ChIJs2boF-4CthIR375DJNG5ntY,"[u'health', u'point_of_interest', u'establishment']"
0,43.5500373,5.0346481,Crédit Agricole Alpes Provence,ChIJsd0o7-sCthIRXBWK6ULWois,"[u'point_of_interest', u'establishment']"
0,43.550316,5.034449,Mairie - point information jeunesse,ChIJTdNM5esCthIRGi3o6F5_vTQ,"[u'city_hall', u'local_government_office', u'point_of_interest', u'establishment']"
0,43.5523568,5.0414293,Global Valves Services,ChIJ-Zn4CJMCthIRDI_NN3FQa7c,"[u'point_of_interest', u'establishment']"
0,43.5502791,5.0414716,Lrce Multi Services,ChIJ_SrRhpQCthIRWrKA82NEUiI,"[u'point_of_interest', u'establishment']"
0,43.5523229,5.0402231,Pleindoux Couzidakis Dominique Sylvie,ChIJYUe0PZMCthIRwRvRB3xvFsI,"[u'hair_care', u'point_of_interest', u'establishment']"
0,43.5523907,5.0399632,Andre Guy,ChIJNRwIO5MCthIRRjRmOpC82XE,"[u'point_of_interest', u'establishment']"
0,43.55116,5.040228,13250,ChIJj2gaXZMCthIRmaZAPFIe4m8,"[u'train_station', u'transit_station', u'point_of_interest', u'establishment']"
0,43.5509225,5.0364156,Callamand Jean-Claude,ChIJKzmB5usCthIRYp9EwN4X0hw,"[u'doctor', u'health', u'point_of_interest', u'establishment']"
0,43.5480815,5.0430184,Buixeda Jean-Michel,ChIJx6W-ypUCthIR76yO5kXc3LA,"[u'point_of_interest', u'establishment']"
0,43.5480815,5.0430184,Zettwoog Robert,ChIJx6W-ypUCthIRFS-oxs0T_hQ,"[u'point_of_interest', u'establishment']"
0,43.556032,5.0399037,CGF PICCOLI,ChIJ6VglW40CthIR9QYOdM1QDp8,"[u'accounting', u'finance', u'point_of_interest', u'establishment']"
0,43.55071,5.03887,Melusine Et Max,ChIJp9OGVesCthIR1MUw6U2kKJU,"[u'point_of_interest', u'establishment']"
0,43.55071,5.03887,Liotard Lionel Christian Emilien,ChIJp9OGVesCthIR1fVHOQhIv2A,"[u'food', u'point_of_interest', u'establishment']"
0,43.55071,5.038869,Martins Jorge,ChIJE9GGVesCthIR-h5VzY2nXsw,"[u'point_of_interest', u'establishment']"
0,43.55071,5.038869,Prunck Jean-Pierre,ChIJE9GGVesCthIRd_l1djR5W54,"[u'bar', u'point_of_interest', u'establishment']"
0,43.55071,5.038869,Transport Yacoub,ChIJp9OGVesCthIRYv2U2oGtzXA,"[u'moving_company', u'point_of_interest', u'establishment']"
0,43.55071,5.038869,Evolutif Coiffure Virginie,ChIJE9GGVesCthIRUozDCY6Ko2k,"[u'point_of_interest', u'establishment']"
0,43.55071,5.038869,Riéra Martine,ChIJp9OGVesCthIR8GOOE16P9BM,"[u'health', u'point_of_interest', u'establishment']"
0,43.5509574,5.0385077,Maille Thierry,ChIJE-3pqOwCthIRtpw1skpkAGQ,"[u'point_of_interest', u'establishment']"
0,43.5566544,5.0397539,Fa.mi.ly,ChIJudnwR40CthIReUxeCNo1SRk,"[u'point_of_interest', u'establishment']"
0,43.549295,5.0392184,Societe Civile Amiot,ChIJwfxny5QCthIRZo270mq3oVE,"[u'finance', u'point_of_interest', u'establishment']"
0,43.5499486,5.0386169,Carreno Frédéric,ChIJv8zxTusCthIRRRZGu9jRHCg,"[u'electronics_store', u'store', u'point_of_interest', u'establishment']"
0,43.5499486,5.0386169,Schmitt Jean-Michel,ChIJv8zxTusCthIRaMEPU2_73Sc,"[u'point_of_interest', u'establishment']"
0,43.548845,5.03941,V.d.s. Auto,ChIJ64MozpQCthIReeGrAvyNYE8,"[u'car_dealer', u'car_repair', u'store', u'point_of_interest', u'establishment']"
0,43.5502706,5.0381737,Le Fournil Du Pont Flavien,ChIJM_SgXOsCthIRQwVkiFvo_OQ,"[u'bakery', u'food', u'store', u'point_of_interest', u'establishment']"
0,43.5500655,5.0382902,Sci Saphyr Delay,ChIJjUzuROsCthIRFJNwRdFbd9w,"[u'point_of_interest', u'establishment']"
0,43.5497118,5.0311074,Office du Tourisme,ChIJf-S66KBr9UcRCnW-ygoxNRI,"[u'travel_agency', u'point_of_interest', u'establishment']"
0,43.5501029,5.0344125,Société Générale,ChIJX1-X5OsCthIRDRWBkzjwcb8,"[u'bank', u'atm', u'finance', u'point_of_interest', u'establishment']"
0,43.5394756,5.0319157,Ecole de voile municipale,ChIJC0t7OcQCthIRAjTtmu-nDYA,"[u'point_of_interest', u'establishment']"
0,43.5503126,5.0334853,COQUELICOT,ChIJCXdIW-kCthIRV-G-6HJIiDo,"[u'florist', u'store', u'point_of_interest', u'establishment']"
0,43.5499445,5.0342016,Euro Immobilier,ChIJ8w-O5usCthIRJRX1b9DM8-0,"[u'real_estate_agency', u'point_of_interest', u'establishment']"
0,43.547449,5.032142,Bar Restaurant du Champs de Mars,ChIJg0pMx-kCthIRCe4VZv79vYk,"[u'bar', u'restaurant', u'food', u'point_of_interest', u'establishment']"
0,43.550234,5.032247,Le Rabelais,ChIJ5_-sPOkCthIR_pkaWeHHun0,"[u'restaurant', u'bar', u'food', u'point_of_interest', u'establishment']"
0,43.5503881,5.0342542,Mairie,ChIJ8SCz-usCthIRKeGaoE3upfo,"[u'city_hall', u'local_government_office', u'point_of_interest', u'establishment']"
0,43.5478633,5.0352605,La Toile d'Art,ChIJCTQOD8ICthIRZnOPli0-g8U,"[u'point_of_interest', u'establishment']"
0,43.5484739,5.0347417,Grout Dépannage,ChIJv6apzOsCthIRUNmLUTm7VZc,"[u'plumber', u'point_of_interest', u'establishment']"
0,43.5503042,5.0341451,Votre Maison - Agence Immobilière,ChIJqadR4-sCthIRGTlJTH_DoXI,"[u'real_estate_agency', u'point_of_interest', u'establishment']"
0,43.548002,5.032753,Rovellotti Rene,ChIJadsgmOkCthIRRL_yk2U91-U,"[u'point_of_interest', u'establishment']"
0,43.5492352,5.0333326,MUSÉE MUNICIPAL PAUL LAFRAN,ChIJK7o-GOwCthIR-W7BDruCk9U,"[u'museum', u'point_of_interest', u'establishment']"
0,43.550577,5.0341012,Le Cercle,ChIJq0kL_OsCthIR-A5nBObajAY,"[u'local_government_office', u'point_of_interest', u'establishment']"
0,43.539243,5.0338064,Locquet Claude,ChIJpYtGKsQCthIRuNHUOLlnAZo,"[u'point_of_interest', u'establishment']"
0,43.5483939,5.0353381,Ma.Fret,ChIJJScZS-oCthIRepPP5-AWXW8,"[u'point_of_interest', u'establishment']"
0,43.5397824,5.032851,Mairie,ChIJC0t7OcQCthIRlpvtvQ8yMEo,"[u'city_hall', u'local_government_office', u'point_of_interest', u'establishment']"
0,43.539527,5.032339,La Digue,ChIJuc_tSMQCthIR1eiCgrTyNvo,"[u'restaurant', u'food', u'point_of_interest', u'establishment']"
0,43.5481887,5.0323357,Electricité Plomberie Lançonnaise,ChIJ40AUo-kCthIROgvHqUL2hjk,"[u'plumber', u'point_of_interest', u'establishment']"
0,43.531842,5.113835,SCEA Domaine de Suriane,ChIJ7-bll8_8yRIR6yYjSVnF97M,"[u'food', u'point_of_interest', u'establishment']"
0,43.536715,5.033342,Nautic Club Miramas,ChIJ84ZT-MUCthIRWJhkR5vy5UM,"[u'point_of_interest', u'establishment']"
0,43.5369,5.036535,Les Ragues,ChIJy6Pg0scCthIRrG-IuJMYZA0,"[u'sublocality_level_1', u'sublocality', u'political']"
0,43.5382137,5.0344191,Batbedat Marc,ChIJu1UzdsYCthIR4Cd6G0ovTLQ,"[u'furniture_store', u'home_goods_store', u'store', u'point_of_interest', u'establishment']"
0,43.538458,5.033605,Lamy Eric,ChIJ04r6RMYCthIRRroaKSHh5VA,"[u'furniture_store', u'home_goods_store', u'store', u'point_of_interest', u'establishment']"
0,43.5397546,5.032969,Base Nautique,ChIJC0t7OcQCthIR5kAXGXYV8RU,"[u'point_of_interest', u'establishment']"
0,43.539674,5.032475,13250,ChIJb0HqR8QCthIRyV6fCK5iLvY,"[u'parking', u'point_of_interest', u'establishment']"
0,43.5409278,5.0365658,Locquet Valérie,ChIJIzGIKccCthIRB4cjOw3c6oI,"[u'point_of_interest', u'establishment']"
0,43.5423441,5.039805,Ostermann Sebastien,ChIJA6s-aL8CthIRo87VvCOaAfw,"[u'general_contractor', u'point_of_interest', u'establishment']"
0,43.5423441,5.039805,Meysson Frederic,ChIJA6s-aL8CthIREYDURktAnNc,"[u'electrician', u'point_of_interest', u'establishment']"
0,43.5423922,5.0398514,Dumont Thiérry,ChIJ9ePZNb8CthIRARrJGKBEaR4,"[u'furniture_store', u'general_contractor', u'home_goods_store', u'store', u'point_of_interest', u'establishment']"
0,43.5424196,5.0397258,Venturi Corinne Veronique,ChIJw0URaL8CthIRbr_zvhBudX8,"[u'beauty_salon', u'point_of_interest', u'establishment']"
0,43.542515,5.034637,Carle Jean-Francois,ChIJ4c1SXcECthIRPTjcbnKXovw,"[u'point_of_interest', u'establishment']"
0,43.5423574,5.0336702,Bargier Régis,ChIJNZr-4MMCthIRGJQaTsVndDw,"[u'point_of_interest', u'establishment']"
0,43.5604,5.03956,Pigt,ChIJ-8t3qIwCthIRlRWDG6Tedzc,"[u'point_of_interest', u'establishment']"
0,43.568036,5.0402196,L'Auberge Des Cavaliers,ChIJA74C0pz9yRIRzAlVM0vniIQ,"[u'restaurant', u'food', u'point_of_interest', u'establishment']"
0,43.560196,5.035876,Ere Bio Deco,ChIJK30yhvMCthIRH1R7UJd6zwc,"[u'point_of_interest', u'establishment']"
0,43.5602504,5.0357299,Savon Marseille Huile Olive - Mas du Roseau,ChIJK30yhvMCthIR01efGP5dFBw,"[u'grocery_or_supermarket', u'food', u'store', u'point_of_interest', u'establishment']"
0,43.5686427,5.0526444,Domaine de Lunard,ChIJ4e9GZXwCthIR2usjPi4p4Jo,"[u'lodging', u'point_of_interest', u'establishment']"
0,43.56141,5.037854,13250,ChIJ1520v_QCthIRqX9KoaMU5P4,"[u'parking', u'point_of_interest', u'establishment']"
0,43.559906,5.038102,Louys Gasson Myriam Yvonne,ChIJz23UUfMCthIReLKe-aGCSMM,"[u'point_of_interest', u'establishment']"
0,43.559906,5.038102,Fleutot Pierre,ChIJz23UUfMCthIRgWRmC91wjp4,"[u'point_of_interest', u'establishment']"
0,43.559906,5.038102,Allouis Gray Laurence Marie Therese,ChIJz23UUfMCthIRBcVabwP9BlU,"[u'point_of_interest', u'establishment']"
0,43.5623572,5.0369417,Missir Frederic Yves Jean Louis,ChIJl4FB-vQCthIRiVjH1E5zMfI,"[u'point_of_interest', u'establishment']"
0,43.5625268,5.036596,Tse Provence,ChIJzSXH-PQCthIRujMdZPC05T8,"[u'point_of_interest', u'establishment']"
0,43.557942,5.0377033,Melanie Alfred,ChIJeXQb4PICthIRq_g03lEqYk0,"[u'point_of_interest', u'establishment']"
0,43.5621114,5.0359916,Eberhart Joelle,ChIJdXW5W_QCthIR8zCDd-bkDa4,"[u'health', u'point_of_interest', u'establishment']"
0,43.560196,5.035876,Achats Transports Et Vent,ChIJTW4ThvMCthIRTUMRP0XXIfY,"[u'point_of_interest', u'establishment']"
0,43.560196,5.035876,Achats Transports Et Vente,ChIJTW4ThvMCthIR11wJoP7UMOM,"[u'point_of_interest', u'establishment']"
0,43.5602504,5.0357299,Trescarte Olinda,ChIJK30yhvMCthIRtf6xrYohFjQ,"[u'point_of_interest', u'establishment']"
0,43.5580822,5.0357451,C Pros Pose,ChIJ8f9MofICthIRt0tvBuowFN4,"[u'furniture_store', u'home_goods_store', u'store', u'point_of_interest', u'establishment']"
0,43.5557741,5.0379509,Chaix Christian,ChIJ8f9MofICthIRlt3a_gJP_GY,"[u'food', u'point_of_interest', u'establishment']"
0,43.5557741,5.0379509,Pointin Charles,ChIJ8f9MofICthIRJIztzFR0YRc,"[u'point_of_interest', u'establishment']"
0,43.5557741,5.0379509,Gimet Frederic,ChIJ8f9MofICthIRq-bTlyDIpgs,"[u'general_contractor', u'point_of_interest', u'establishment']"
0,43.5547456,5.032781,Ricochet .,ChIJpSIJFe4CthIRJSwSLk7Z3WY,"[u'point_of_interest', u'establishment']"
0,43.5547456,5.032781,Les Restos du Coeur,ChIJK7o-GOwCthIRtZc8DuNfNOQ,"[u'point_of_interest', u'establishment']"
0,43.5503749,5.0341281,Maison De La Presse,ChIJ23a7_OsCthIRBikBInzY7V4,"[u'point_of_interest', u'establishment']"
0,43.5504397,5.0315023,International Engineering Assistance,ChIJFQg1PekCthIRBjDLKi-4nek,"[u'point_of_interest', u'establishment']"
0,43.5534462,5.0335181,Laboratoire de biologie médicale ANALYS,ChIJzemz5-sCthIRqVzau4qau88,"[u'health', u'point_of_interest', u'establishment']"
0,43.55008,5.0305853,Danse Et Expressions,ChIJ16nbwugCthIRS6o937GJlX8,"[u'point_of_interest', u'establishment']"
0,43.5501272,5.0323373,MEDIATECHNIC,ChIJ5apbPukCthIRNGsWqKLTfIY,"[u'electronics_store', u'store', u'point_of_interest', u'establishment']"
0,43.549859,5.032292,L Ambrera,ChIJ8-sfQekCthIRAkoB7NclZcw,"[u'restaurant', u'food', u'point_of_interest', u'establishment']"
0,43.549986,5.032725,Saint Chamas Vision,ChIJE2lPaukCthIRdPJYY4mmSWM,"[u'health', u'store', u'point_of_interest', u'establishment']"
0,43.5497118,5.0311074,Office de Tourisme,ChIJK7o-GOwCthIRdr0FhupKhyg,"[u'travel_agency', u'point_of_interest', u'establishment']"
0,43.5501521,5.03393,L Atelier de Mary,ChIJnYqP4usCthIR4y7bn9h_d9E,"[u'florist', u'store', u'point_of_interest', u'establishment']"
0,43.5495476,5.0321308,Franck Bometon,ChIJRaKPEukCthIRJokPi-9wOME,"[u'point_of_interest', u'establishment']"
0,43.5498528,5.0343806,Ecorama,ChIJZzaX5-sCthIRPT2Ls5SmSV0,"[u'point_of_interest', u'establishment']"
0,43.5496794,5.0346039,PSD Services,ChIJZzaX5-sCthIRcZ6lZC5aV14,"[u'point_of_interest', u'establishment']"
0,43.5492188,5.032022,Beugnies Benjamin,ChIJR144EOkCthIRfgGVXomKsKg,"[u'point_of_interest', u'establishment']"
0,43.55006,5.031626,La Table D'Anaelle,ChIJ--TDKekCthIRa0CywC-2XmY,"[u'restaurant', u'bar', u'food', u'point_of_interest', u'establishment']"
0,43.550305,5.031609,recotoit,ChIJQ0fSJekCthIRlSateb4yiDI,"[u'general_contractor', u'point_of_interest', u'establishment']"
0,43.5495806,5.0321922,Formateur Consultant Coach,ChIJW5lTEekCthIRodenPH1EJpQ,"[u'point_of_interest', u'establishment']"
0,43.5494031,5.0347203,Lassus M. et Lacaille Y.,ChIJbdGXw-sCthIROauI8_sujcw,"[u'point_of_interest', u'establishment']"
0,43.5492684,5.0311769,Lefebvre Thomas,ChIJTQS14ugCthIR3cMwZgVqEKI,"[u'point_of_interest', u'establishment']"
0,43.5534793,5.0336571,Castillo Christophe,ChIJPStXfu4CthIRxsVFErYx8IM,"[u'point_of_interest', u'establishment']"
0,43.523729,5.112696,Ancien Moulin de Merveille,ChIJp1rbTc38yRIR8Z3Vu93Uvks,"[u'point_of_interest', u'establishment']"
0,43.5666778,5.033777,Domaine de Lunard,ChIJN-u-ylgCthIRFb9QlvDXqMU,"[u'real_estate_agency', u'food', u'point_of_interest', u'establishment']"
0,43.5648228,5.0302211,Les Ecuries Du Haut Canadel,ChIJvU6bxPcCthIRbCWfNPSd3Og,"[u'point_of_interest', u'establishment']"
0,43.5589337,5.0292991,Parc de l'Ancienne Poudrerie de Saint-Chamas,ChIJPSdZnvACthIRCluzZPARIqA,"[u'park', u'point_of_interest', u'establishment']"
0,43.5648228,5.0302211,écuries du haut canadel,ChIJvU6bxPcCthIRNv2eU6M-rJ4,"[u'point_of_interest', u'establishment']"
0,43.559604,5.030225,Chaleil Simon,ChIJvbiv8rsDthIRfa_mYi01Jxg,"[u'general_contractor', u'restaurant', u'food', u'point_of_interest', u'establishment']"
0,43.5661749,5.0325675,Jardinerie Vignolo,ChIJU8SIvVgCthIRnx6vxHsupBI,"[u'point_of_interest', u'establishment']"
0,43.5597759,5.0288523,Parc de l'Ancienne Poudrerie de Saint-Chamas,ChIJlfgXofACthIRVDIA_QC43J4,"[u'park', u'point_of_interest', u'establishment']"
0,43.563932,5.026991,Le Manjador,ChIJS8BB4KoDthIRuLNmCoKZMII,"[u'restaurant', u'bar', u'food', u'point_of_interest', u'establishment']"
0,43.5613736,5.0336641,Moulin de la Gardière,ChIJhTTcpvYCthIRDthYlZ3wJRk,"[u'point_of_interest', u'establishment']"
0,43.558602,5.03395,Rigot Gilles,ChIJfaW21_MCthIRwShP7hOFrfs,"[u'general_contractor', u'point_of_interest', u'establishment']"
0,43.5666778,5.033777,Lerda Claudine,ChIJN-u-ylgCthIR9Syo4Uh73rA,"[u'grocery_or_supermarket', u'food', u'store', u'point_of_interest', u'establishment']"
0,43.559604,5.030225,Mira-Elec,ChIJvbiv8rsDthIRGjhoNj1n0Ns,"[u'plumber', u'point_of_interest', u'establishment']"
0,43.559604,5.030225,Jouffre Olivier Marc Eugene,ChIJvbiv8rsDthIRiENZhjRFQqk,"[u'electrician', u'point_of_interest', u'establishment']"
0,43.559604,5.030225,M.B.Service,ChIJL3mQwfACthIREe8iV6azR4o,"[u'point_of_interest', u'establishment']"
0,43.5661749,5.0325675,Casado Eric,ChIJU8SIvVgCthIRXLYVmj3SOsA,"[u'point_of_interest', u'establishment']"
0,43.5661749,5.0325675,Michel Francois,ChIJU8SIvVgCthIRvnX12SiR3G0,"[u'point_of_interest', u'establishment']"
0,43.5657038,5.0295041,La Grange du clos Ambroise,ChIJD8atC1gCthIR4aV7kA8uxwE,"[u'point_of_interest', u'establishment']"
0,43.563847,5.028113,Martin Laurent Laurent,ChIJWw9tJfgCthIRQK0Z0NUgqlk,"[u'point_of_interest', u'establishment']"
0,43.563847,5.028113,Arzeno Mathieu,ChIJWw9tJfgCthIRngvJjc9keQc,"[u'point_of_interest', u'establishment']"
0,43.5552469,5.031649,Laboratoire Analyse Monat-Golfart,ChIJ6xAfLu4CthIRx9BkyrBCens,"[u'health', u'point_of_interest', u'establishment']"
0,43.5547456,5.032781,Fournier Paulette,ChIJTxrFyL4DthIRe00xOtdFX74,"[u'health', u'point_of_interest', u'establishment']"
0,43.5547456,5.032781,Sci la Romane,ChIJpSIJFe4CthIRBfVu0p-RoIs,"[u'real_estate_agency', u'point_of_interest', u'establishment']"
0,43.5547456,5.032781,Club Jeunes Loisirs Amis Instruct Lois,ChIJpSIJFe4CthIR8f_lH9rGhkY,"[u'point_of_interest', u'establishment']"
0,43.5536061,5.0336745,Stolle Tania,ChIJo32Wfu4CthIRRLyh7uyfIfM,"[u'veterinary_care', u'point_of_interest', u'establishment']"
0,43.5543492,5.0327617,Sssc,ChIJZTyPa-4CthIRiXQEaoB-KpA,"[u'point_of_interest', u'establishment']"
0,43.5541907,5.0331171,La Cuisine de Sabine,ChIJk3JAbu4CthIRZmNF7yZ68cc,"[u'restaurant', u'food', u'point_of_interest', u'establishment']"
0,43.554793,5.0312356,Tougay Etienne Francis,ChIJu_Ttyu8CthIR59LXO6nKUYc,"[u'food', u'point_of_interest', u'establishment']"
0,43.553642,5.032882,13250,ChIJUc_iY-4CthIRoL0_aEgeIkw,"[u'police', u'point_of_interest', u'establishment']"
0,43.5618989,5.025251,13140,ChIJCRO0bfkCthIR4dArKslJvEU,"[u'church', u'place_of_worship', u'point_of_interest', u'establishment']"
0,43.5492392,5.0321745,Centre Réhabilitation Electroportatif,ChIJx-QRDukCthIRAg3SlHuAsJ0,"[u'plumber', u'point_of_interest', u'establishment']"
0,43.5502765,5.0310892,Françoise Lacombe - Sexologue,ChIJ7cxY9-sCthIR0EEUvesnbro,"[u'health', u'point_of_interest', u'establishment']"
0,43.5494261,5.031142,Mairie,ChIJhRRZ4ugCthIRj6dY5UEw2UA,"[u'point_of_interest', u'establishment']"
0,43.549957,5.032256,Belle en Bio,ChIJE7yxPekCthIR7rUFv_DGc-k,"[u'beauty_salon', u'hair_care', u'spa', u'grocery_or_supermarket', u'health', u'food', u'store', u'point_of_interest', u'establishment']"
0,43.5587914,5.0255127,La poudrerie Saint-Chamas,ChIJ--TDKekCthIRKjjmwDgU3k0,"[u'point_of_interest', u'establishment']"
0,43.5491213,5.033441,Mairie,ChIJ3RA4e-kCthIR16_0VC_G4pI,"[u'museum', u'point_of_interest', u'establishment']"
0,43.549785,5.0342609,Bar Tabac Le Marigny,ChIJnayDvXf9yRIRJNzxKV3dlw8,"[u'bar', u'point_of_interest', u'establishment']"
0,43.5587914,5.0255127,Service Technique de la Mairie,ChIJK7o-GOwCthIRTH_ipTHzSvk,"[u'point_of_interest', u'establishment']"
0,43.4757729,5.167309,Berre-l'Étang,ChIJG8xNj1fkyRIRrlEg1sJNbJA,"[u'locality', u'political']"
