,Latitude,Longitude,Name,Place_id,Type
0,43.780147,4.72617,Saint-Étienne-du-Grès,ChIJfYiNo13ntRIRsP-W_aUZCAQ,"[u'locality', u'political']"
0,43.7808869,4.7418421,Gite du Moulin de la Croix,ChIJIwwMu0XntRIRgeU9-uC6klM,"[u'lodging', u'point_of_interest', u'establishment']"
0,43.7865944,4.7451222,Mas de Ravert,ChIJTxrLsEHntRIRKJ8Mq7uu6is,"[u'lodging', u'point_of_interest', u'establishment']"
0,43.77813,4.743736,Chapelle de Notre-Dame du Château,ChIJkT02rkjntRIRsaWgYqOOj4w,"[u'church', u'place_of_worship', u'point_of_interest', u'establishment']"
0,43.7809313,4.7420946,Mas Calbret,ChIJzRyex0XntRIRGTIkrHGS5_E,"[u'lodging', u'point_of_interest', u'establishment']"
0,43.7811182,4.7328759,Alpilles Natural Regional Park,ChIJN0fQ9DPjtRIROJluW1ocWos,"[u'park', u'point_of_interest', u'establishment']"
0,43.781289,4.730371,Via Domitia Immobilier,ChIJAeR3VFjntRIRoY5N1KUfDwk,"[u'real_estate_agency', u'point_of_interest', u'establishment']"
0,43.7815214,4.7292198,Salle des Fêtes,ChIJI8HveVjntRIRpns38zZyJxE,"[u'local_government_office', u'point_of_interest', u'establishment']"
0,43.781626,4.732437,LOCATION SAISONNIERE Rhones Alpes,ChIJFetXeFnntRIRFj_Hi5B0DKU,"[u'travel_agency', u'real_estate_agency', u'point_of_interest', u'establishment']"
0,43.7835034,4.7386202,SCEA Domaine Trevallon,ChIJK8_LqUTntRIRAY8I57cbM4g,"[u'food', u'point_of_interest', u'establishment']"
0,43.7852936,4.7431746,Mairie,ChIJWVAa2EPntRIRAPgv4Py2nBU,"[u'city_hall', u'local_government_office', u'point_of_interest', u'establishment']"
0,43.7814,4.7323727,Deltapack,ChIJMSnmglnntRIRTqvbJWAdxbo,"[u'point_of_interest', u'establishment']"
0,43.7812783,4.7316245,Sarl Merandal,ChIJK9YCnFnntRIRLS9q8ml6h7Q,"[u'food', u'point_of_interest', u'establishment']"
0,43.780107,4.7325762,Famille Et Provence,ChIJI3Gy81nntRIRLs4qtC6cm58,"[u'point_of_interest', u'establishment']"
0,43.7790088,4.7328608,AFITCH studio graphique et éditions,ChIJCz48VVfntRIRRoByD6fu5yM,"[u'point_of_interest', u'establishment']"
0,43.778881,4.732823,Patrice Fender Studio Afitch,ChIJ3-OhFffdtRIRWSp0Ramv0hg,"[u'point_of_interest', u'establishment']"
0,43.7813277,4.7320402,J.c.b,ChIJG0Xoh1nntRIRZKu3OPJYhQw,"[u'restaurant', u'bar', u'food', u'point_of_interest', u'establishment']"
0,43.7854864,4.7455897,Le Mas dou Favre,ChIJww6hBkHntRIRPn2n9shuads,"[u'lodging', u'point_of_interest', u'establishment']"
0,43.78112,4.725946,Le Garde-Manger,ChIJV8RZpffdtRIRu0CKQT1G1mM,"[u'restaurant', u'bar', u'food', u'point_of_interest', u'establishment']"
0,43.7811472,4.7259759,Tabac-Presse,ChIJNY6GuvfdtRIR_HtxPuPC7eE,"[u'store', u'point_of_interest', u'establishment']"
0,43.7813374,4.7256699,Town Hall,ChIJS2err_fdtRIRmvfzkJ3LpRM,"[u'school', u'point_of_interest', u'establishment']"
0,43.7793384,4.7274576,Sicot Bertrand Sarl,ChIJwRyzAvjdtRIRfiNr-NGOGTY,"[u'point_of_interest', u'establishment']"
0,43.7828349,4.7245705,Ehpad La Mourgue des Alpilles,ChIJGxuf5fbdtRIRHmxpucn1x18,"[u'health', u'point_of_interest', u'establishment']"
0,43.7831543,4.74678,Mas de Rey,ChIJOzxUMkfntRIRyqhGdMup8e8,"[u'real_estate_agency', u'point_of_interest', u'establishment']"
0,43.7824757,4.7243766,La Poste,ChIJzXhl5fbdtRIRzaNSKZ5rKjw,"[u'point_of_interest', u'establishment']"
0,43.7823745,4.7243445,Mairie,ChIJGxuf5fbdtRIR-01st183KkE,"[u'local_government_office', u'point_of_interest', u'establishment']"
0,43.7811646,4.731935,Hotel Mas Vidau,ChIJDRMzmVnntRIR9jF3vxVvCT0,"[u'lodging', u'point_of_interest', u'establishment']"
0,43.783287,4.735311,13103,ChIJEXcQg1vntRIR98irQXq3GLA,"[u'fire_station', u'point_of_interest', u'establishment']"
0,43.7832646,4.7351097,CS SEG,ChIJfwWF2UPntRIRgWVPal6sA7E,"[u'fire_station', u'point_of_interest', u'establishment']"
0,43.783569,4.738568,Lantoni,ChIJg_i1qUTntRIRI_yxkDW0QoM,"[u'point_of_interest', u'establishment']"
0,43.782805,4.733,unnamed,ChIJS1s24FvntRIREnMBvTrY7zU,"[u'point_of_interest', u'establishment']"
0,43.7826189,4.7325,Marche Saint Etienne De Gres,ChIJe3oTZ1nntRIRgVIClas6_64,"[u'restaurant', u'food', u'point_of_interest', u'establishment']"
0,43.781474,4.732787,13103,ChIJQ6QugFnntRIR9x27V7pzPio,"[u'point_of_interest', u'establishment']"
0,43.781553,4.732447,La Marmite Provençale,ChIJuetXeFnntRIRmSu_Pr6__l0,"[u'restaurant', u'bar', u'food', u'point_of_interest', u'establishment']"
0,43.7811525,4.7332658,ドーテの風車,ChIJZxAg28XftRIRo-2POgPOuZA,"[u'point_of_interest', u'establishment']"
0,43.7810076,4.732901,Vallejos Eric Gabriel,ChIJZUToh1nntRIRIZcdMCgSg98,"[u'general_contractor', u'point_of_interest', u'establishment']"
0,43.7810076,4.732901,Guerid Michel,ChIJZUToh1nntRIRrVZropUrZIw,"[u'finance', u'point_of_interest', u'establishment']"
0,43.7811616,4.7319446,Clement Bernard,ChIJmS1kPEXntRIRGcXwLoBOsKQ,"[u'dentist', u'health', u'point_of_interest', u'establishment']"
0,43.7803358,4.7347819,Sarl Merandal,ChIJm4S6XUbntRIRsVMq2qHtbV4,"[u'park', u'general_contractor', u'food', u'point_of_interest', u'establishment']"
0,43.7803358,4.7347819,Musichini Louis,ChIJm4S6XUbntRIRw2XTTPdXfy0,"[u'general_contractor', u'point_of_interest', u'establishment']"
0,43.7813968,4.7307392,Sarl Alpilles Motoculture Franck,ChIJc71yqVnntRIRUJ_xXC2iykc,"[u'point_of_interest', u'establishment']"
0,43.7814008,4.7306332,Alpilles Motoculture,ChIJB5dyqVnntRIRtUW4clQ2aRk,"[u'store', u'point_of_interest', u'establishment']"
0,43.780463,4.739132,Low Price Lingerie,ChIJvSBkPEXntRIRMEYCJw4xx9M,"[u'point_of_interest', u'establishment']"
0,43.780463,4.739132,Emballage Industriel,ChIJvSBkPEXntRIRmYOUEckq24c,"[u'point_of_interest', u'establishment']"
0,43.7852936,4.7431746,Julien Pierre-Auguste,ChIJWVAa2EPntRIR2ZuW_-51T-g,"[u'health', u'point_of_interest', u'establishment']"
0,43.7852936,4.7431746,Mfreo Rhone-Alpilles,ChIJWVAa2EPntRIRp3Cq8qplC2Q,"[u'school', u'point_of_interest', u'establishment']"
0,43.7822198,4.7290274,Coopérative de Blé,ChIJJTQ9jVjntRIRCYe2huiMr9U,"[u'point_of_interest', u'establishment']"
0,43.781154,4.7295912,Brun Isabelle Coiffure Isabelle,ChIJdXb61_fdtRIRxLIqTyRzcLs,"[u'hair_care', u'point_of_interest', u'establishment']"
0,43.781154,4.7295912,Kiné 2000,ChIJdXb61_fdtRIRjQlpbSoXPlc,"[u'health', u'point_of_interest', u'establishment']"
0,43.7808584,4.7417832,Gautier Claire,ChIJve0vtEXntRIRc7okaslgwxw,"[u'point_of_interest', u'establishment']"
0,43.7803446,4.7412021,Rueda Gilles Nicolas Emmanuel,ChIJQQwMu0XntRIRKjP2LdTYBrs,"[u'point_of_interest', u'establishment']"
0,43.7792974,4.7313854,Chardenon Nicolas,ChIJr0uv31nntRIRT_y3tE7BBe0,"[u'point_of_interest', u'establishment']"
0,43.7810399,4.7285558,Castells Agnès,ChIJSWSJZ1jntRIR52ORZfEwVG0,"[u'clothing_store', u'store', u'point_of_interest', u'establishment']"
0,43.7850702,4.7446038,Maison vacance Nijsten,ChIJWyTQEkHntRIRHLi3x-yMQGA,"[u'travel_agency', u'real_estate_agency', u'point_of_interest', u'establishment']"
0,43.7811385,4.7280314,Salon D Aure Aurelie,ChIJI8HveVjntRIR1j5EDWHWOf0,"[u'hair_care', u'point_of_interest', u'establishment']"
0,43.7810487,4.728025,Durand Schickele Dominiqu,ChIJI8HveVjntRIRNlmHNzo2gLQ,"[u'pharmacy', u'health', u'store', u'point_of_interest', u'establishment']"
0,43.7810487,4.728025,Mairie - Foyer Socio Culturel Pierre Emmanuel,ChIJI8HveVjntRIRUcjliJbbDUU,"[u'point_of_interest', u'establishment']"
0,43.7810487,4.728025,Terrin Michel,ChIJI8HveVjntRIROsGTbtjroCA,"[u'pharmacy', u'health', u'store', u'point_of_interest', u'establishment']"
0,43.7819547,4.7266316,Villa The Green Retreat,ChIJTX5MNPbdtRIRUt5SHTpQu3k,"[u'point_of_interest', u'establishment']"
0,43.7796854,4.7287335,Billard Plus,ChIJgQ5cHljntRIROlYOkL-n4bw,"[u'point_of_interest', u'establishment']"
0,43.7775345,4.7262025,Les Alpilles,ChIJZ5CZXvjdtRIRclC6LS1ZL8w,"[u'lodging', u'point_of_interest', u'establishment']"
0,43.770877,4.728842,Les mathurins,ChIJlVHFQVXntRIRofOkr2WDyk0,"[u'point_of_interest', u'establishment']"
0,43.777652,4.7327285,Lacourt,ChIJdb56NFfntRIR0D2hHwIrQSw,"[u'point_of_interest', u'establishment']"
0,43.7781892,4.7319379,Sci Ferdani,ChIJAW62Q1fntRIR5i-EK8siCfs,"[u'point_of_interest', u'establishment']"
0,43.7777698,4.7295587,Renaut Thierry,ChIJN3eEvFfntRIRmoSB8XE-q-A,"[u'point_of_interest', u'establishment']"
0,43.7734784,4.7291732,Van Thuan Bonneville Vincenette,ChIJCV6V7lXntRIRujHCJS1JoCM,"[u'point_of_interest', u'establishment']"
0,43.7743738,4.7283692,Gfa Du Mas de Grasset,ChIJ1bIp_VXntRIRuw8LcImBnj0,"[u'point_of_interest', u'establishment']"
0,43.7793384,4.7274576,Bertrand SICOT : Agréé Qualitoit,ChIJbfhW__fdtRIR2uXwq3Hc8eE,"[u'roofing_contractor', u'point_of_interest', u'establishment']"
0,43.7724953,4.7273771,Marin Volfin Francoise,ChIJfVHke__dtRIRd0_Rs9Y9YeM,"[u'finance', u'point_of_interest', u'establishment']"
0,43.77115,4.7281,Fromont Axel,ChIJJwoRS_fdtRIRbBZudBViLVU,"[u'point_of_interest', u'establishment']"
0,43.7793054,4.7260401,Moulinas Michel,ChIJMVXgJvjdtRIR7CjauhqE8QI,"[u'point_of_interest', u'establishment']"
0,43.7793164,4.7260135,Tessonniere Jacques,ChIJUR_jJvjdtRIR69sLpjeNXpM,"[u'doctor', u'health', u'point_of_interest', u'establishment']"
0,43.7889392,4.7256387,Transports Louma,ChIJk8pApYrdtRIRBA3vZOn2fDA,"[u'moving_company', u'point_of_interest', u'establishment']"
0,43.7808386,4.7469731,Domaine Dalmeran,ChIJK8_LqUTntRIRUOJ34_OPWNo,"[u'food', u'point_of_interest', u'establishment']"
0,43.787907,4.755476,Restaurant les lavandes,ChIJKzZGJhbntRIRVIJi4RhxaEo,"[u'restaurant', u'food', u'point_of_interest', u'establishment']"
0,43.7880574,4.7557444,Hôtel Mistral de Provence,ChIJLzHZLhbntRIRbgJOT7hz9rs,"[u'point_of_interest', u'establishment']"
0,43.7831543,4.74678,SCI Fontchâteau,ChIJOzxUMkfntRIRjdJamIduk6M,"[u'point_of_interest', u'establishment']"
0,43.7831543,4.74678,Gherardi de Greling Catherine,ChIJOzxUMkfntRIR4ycxzkhJL44,"[u'real_estate_agency', u'point_of_interest', u'establishment']"
0,43.7898566,4.7613926,Mas-Blanc-des-Alpilles,ChIJ73C_xxjntRIRAAKX_aUZCAQ,"[u'locality', u'political']"
0,43.7892627,4.7546483,Tillberq Nils Peter,ChIJo96daRbntRIRkJyWSjpW6WA,"[u'point_of_interest', u'establishment']"
0,43.7893653,4.7547327,Ecole Marie Mauron Town Hall,ChIJw2gEaRbntRIR0Wl9UP1RzFI,"[u'school', u'point_of_interest', u'establishment']"
0,43.78799,4.755723,JMC Immobilier - M. Bonvalet,ChIJv4aynPoVthIRS9K6Wjz2Hnc,"[u'real_estate_agency', u'point_of_interest', u'establishment']"
0,43.7880574,4.7557444,Le Passeur,ChIJLzHZLhbntRIRNR287k-5SNs,"[u'point_of_interest', u'establishment']"
0,43.7880574,4.7557444,Squilbin Frederic,ChIJLzHZLhbntRIRBXAwYdRnp2k,"[u'point_of_interest', u'establishment']"
0,43.7880574,4.7557444,Assante Di Capillo Bernard Bernard,ChIJLzHZLhbntRIRDaXW6KX7MAQ,"[u'point_of_interest', u'establishment']"
0,43.7879634,4.7229511,La Vigueirado,ChIJ6WDEmPTdtRIRJLji6-ANE3s,"[u'lodging', u'point_of_interest', u'establishment']"
0,43.781507,4.718899,Le Nid des Alpilles,ChIJZcyPSPDdtRIR_huNaHEPO2Q,"[u'lodging', u'point_of_interest', u'establishment']"
0,43.784975,4.719164,"Villa de vacances Alpilles provence "" The Green Retreat """,ChIJs4qPdfHdtRIRmhEAsJaWLls,"[u'travel_agency', u'real_estate_agency', u'point_of_interest', u'establishment']"
0,43.7827318,4.7210002,Rensch Paul,ChIJ54-cW1jntRIR-wYNQI3Ubpc,"[u'campground', u'park', u'lodging', u'point_of_interest', u'establishment']"
0,43.7808261,4.7222132,l'oeil des suds : photographe avignon,ChIJUUW6yvDdtRIRv8qYHx7ENqU,"[u'point_of_interest', u'establishment']"
0,43.7835528,4.7201936,iMakeit4U s.a.r.l.,ChIJFTmedfHdtRIRmtaL8qwz-e8,"[u'point_of_interest', u'establishment']"
0,43.78052,4.72269,Reveny,ChIJJwoRS_fdtRIROdTHYzojM2w,"[u'food', u'point_of_interest', u'establishment']"
0,43.7805137,4.7230656,L Ami Louis,ChIJV18LyPfdtRIRBcG6iUruU14,"[u'bakery', u'food', u'store', u'point_of_interest', u'establishment']"
0,43.7862678,4.716639,Les Olivades,ChIJr1aVYPLdtRIRqEOX3ftzLwE,"[u'clothing_store', u'home_goods_store', u'store', u'point_of_interest', u'establishment']"
0,43.7800436,4.7202396,Ets ELMA JARDINS,ChIJGUVXhfDdtRIR9L0OqrQ5XgE,"[u'general_contractor', u'point_of_interest', u'establishment']"
0,43.7799526,4.7205962,PELUCHES PROVENCE TOURS,ChIJGUVXhfDdtRIRWLEo5xxSZVo,"[u'travel_agency', u'point_of_interest', u'establishment']"
0,43.7788499,4.7234561,Marie Laure Guy,ChIJT_aO5fndtRIR-x6icQjJCtM,"[u'point_of_interest', u'establishment']"
0,43.7793699,4.7211107,ALPILLES INTENDANCE,ChIJAbCQjPDdtRIRzh8CnjdLc7g,"[u'point_of_interest', u'establishment']"
0,43.7799448,4.7188801,Villa Saint Eloi,ChIJiat8dPDdtRIR_umd0GiZqGk,"[u'point_of_interest', u'establishment']"
0,43.785471,4.720001,Chez Gigi,ChIJA4_UyvPdtRIRYuyl-Wrf1Zg,"[u'point_of_interest', u'establishment']"
0,43.7862242,4.7230234,Gousse Alain,ChIJaVZNevTdtRIRCBGgE2kvYoc,"[u'point_of_interest', u'establishment']"
0,43.7823933,4.7244668,Franchini Planchenault Odile,ChIJx0N15fbdtRIRnpA0inlndLg,"[u'food', u'point_of_interest', u'establishment']"
0,43.7811472,4.7259759,Roxdim,ChIJNY6GuvfdtRIRb0aycYP_juw,"[u'store', u'point_of_interest', u'establishment']"
0,43.7884853,4.7245774,Studio Les Muscadelles,ChIJ_y880PTdtRIRn7PqPU4Ma-E,"[u'point_of_interest', u'establishment']"
0,43.7884984,4.7246161,Petit Jouve Arlette Simone Genev,ChIJKRPJ0fTdtRIReRfHrphjlQs,"[u'point_of_interest', u'establishment']"
0,43.7810913,4.7268717,De Mortillet Pierre,ChIJOaaLxffdtRIRUvV0uq10ld8,"[u'doctor', u'health', u'point_of_interest', u'establishment']"
0,43.7810913,4.7268717,Favre Fulco,ChIJOaaLxffdtRIRejzMIJCEZ3U,"[u'doctor', u'health', u'point_of_interest', u'establishment']"
0,43.7811116,4.7258349,Cafe Du Vieux Gres,ChIJQYu4Z1jntRIRFUmnsaZIzaE,"[u'cafe', u'bar', u'food', u'point_of_interest', u'establishment']"
0,43.7877675,4.7229586,Ass Artistique de St Etienne Du Gres,ChIJ6WDEmPTdtRIRR7ab8z7s-tY,"[u'point_of_interest', u'establishment']"
0,43.7820124,4.722826,I.d.e.m. Froid,ChIJH-BO1PbdtRIRHXwJ59fhDiQ,"[u'general_contractor', u'point_of_interest', u'establishment']"
0,43.7809853,4.725059,xgotto,ChIJKXuquvfdtRIReQaoujmpoNw,"[u'point_of_interest', u'establishment']"
0,43.7809699,4.7248212,Dagon Laurent Xavier Andre,ChIJEfuvDvfdtRIRfg9q1wAUHTE,"[u'bakery', u'food', u'store', u'point_of_interest', u'establishment']"
0,43.7810092,4.7244854,Maury Philippe,ChIJq8ljt_fdtRIRWQfXIoC8GkU,"[u'food', u'store', u'point_of_interest', u'establishment']"
0,43.780768,4.725487,13103,ChIJ6Rl-offdtRIRX_TaV0WaF5w,"[u'point_of_interest', u'establishment']"
0,43.78113,4.723992,Gomez Corinne,ChIJiRmyF_fdtRIRcoEnlgFU54g,"[u'beauty_salon', u'point_of_interest', u'establishment']"
0,43.725522,4.70941,Fontvieille,ChIJV35J3rXftRIRzjh6N8YM9x4,"[u'locality', u'political']"
0,43.7782,4.71713,Pomeyrol,ChIJ3fHoM-XdtRIRAGpaRBbqgZg,"[u'point_of_interest', u'establishment']"
0,43.778995,4.7242037,Sci Barret IV,ChIJbdB92_ndtRIRaHoVTQUb1rQ,"[u'point_of_interest', u'establishment']"
0,43.7792399,4.7245327,Madame Mireille Nougier,ChIJZ2th1_ndtRIRjKznM-4W5hU,"[u'health', u'point_of_interest', u'establishment']"
0,43.780342,4.723834,Chetail Cecile Irene,ChIJ3zYFQvfdtRIReufVYQnvWSE,"[u'point_of_interest', u'establishment']"
0,43.7808426,4.7245853,Boulangerie du Grès,ChIJbXr4DvfdtRIR_gjFIFgEEtU,"[u'bakery', u'food', u'store', u'point_of_interest', u'establishment']"
0,43.7806463,4.7235589,Tauro Bertrand Valerie,ChIJw4B6eljntRIR-8RNer8iTCQ,"[u'florist', u'store', u'point_of_interest', u'establishment']"
0,43.7808694,4.7242334,Durand Pascale,ChIJ75yNE_fdtRIRZ0KAnsjWmuo,"[u'grocery_or_supermarket', u'food', u'store', u'point_of_interest', u'establishment']"
0,43.804646,4.740922,SCEA REVENY,ChIJ9QKq8nTntRIRkeRcaUKIpHY,"[u'point_of_interest', u'establishment']"
0,43.804421,4.735896,Sauvan-Magnet Nicolas,ChIJd3s-pHnntRIRIJqCFsrUecY,"[u'point_of_interest', u'establishment']"
0,43.804421,4.735896,Alla Fabre Camille Berthe,ChIJd3s-pHnntRIRAXl4Qaqx2jY,"[u'point_of_interest', u'establishment']"
0,43.804421,4.735896,Saud Fabre Karine Angelique,ChIJ-dI9pHnntRIR7x6cPSAP5hU,"[u'point_of_interest', u'establishment']"
0,43.804421,4.735896,Vernet,ChIJvV3xnvXdtRIRXPGn7qPNQRE,"[u'point_of_interest', u'establishment']"
0,43.807009,4.7393089,Sci Le Trident Bleu,ChIJvV3xnvXdtRIRl6YIQS1XaDE,"[u'real_estate_agency', u'point_of_interest', u'establishment']"
0,43.807009,4.7393089,Pelouzet Denis,ChIJvV3xnvXdtRIRhx2Ax0wB4Sk,"[u'point_of_interest', u'establishment']"
0,43.8051042,4.7244177,Pont Rouillé,ChIJDTMnEIHdtRIR4UOVGMb0F1k,"[u'premise', u'point_of_interest', u'establishment']"
0,43.788854,4.7570779,Hôtel Mistral,ChIJ-VvmdIb6tRIRqjpdPF9HgPg,"[u'lodging', u'point_of_interest', u'establishment']"
0,43.791849,4.75995,La Bastide des Alpilles,ChIJ3UT-8hnntRIRsUywMxoBVBw,"[u'lodging', u'point_of_interest', u'establishment']"
0,43.789501,4.759692,CLIC INFORMATIQUE,ChIJc7nMKBbntRIRQWKic91xtcM,"[u'electronics_store', u'store', u'point_of_interest', u'establishment']"
0,43.78935,4.75993,Maudoigt Norbert,ChIJ51t4NxjntRIR0jMKsNl3wvI,"[u'point_of_interest', u'establishment']"
0,43.788677,4.757155,TAXIS LAURENT,ChIJ1x7XxhfntRIRPB2ESB7w6HY,"[u'point_of_interest', u'establishment']"
0,43.7892761,4.7599852,Ste Exploit Fabrique Meubles Babsky,ChIJ51t4NxjntRIRtLqWfcBSeQo,"[u'furniture_store', u'home_goods_store', u'store', u'point_of_interest', u'establishment']"
0,43.7892761,4.7599852,Devimeux Laurent Roger,ChIJuetXeFnntRIRgJJcCh2aGSs,"[u'point_of_interest', u'establishment']"
0,43.7849252,4.7636408,Mas Carlin,ChIJ51t4NxjntRIRVXEE7wTZkS8,"[u'food', u'point_of_interest', u'establishment']"
0,43.7914791,4.7592465,Triomphe Laurent,ChIJNb065BnntRIRSbeNx_KhuFM,"[u'point_of_interest', u'establishment']"
0,43.786661,4.758039,Chapelle de Saint-Lambert,ChIJn0VvRj3ntRIRKvebKjiyqY4,"[u'church', u'place_of_worship', u'point_of_interest', u'establishment']"
0,43.788651,4.756331,13103,ChIJ8csSyxfntRIRa4tzBz7YH7c,"[u'city_hall', u'local_government_office', u'point_of_interest', u'establishment']"
0,43.789067,4.757022,13103,ChIJ2RqguRfntRIRM3GHLMd_tk0,"[u'point_of_interest', u'establishment']"
0,43.7894026,4.7562822,Deville Charles,ChIJKxW_shfntRIRYrVkeNdNvfk,"[u'food', u'point_of_interest', u'establishment']"
0,43.7894026,4.7562822,Ardizzone Armand,ChIJKxW_shfntRIR4EO9AEdVp4g,"[u'food', u'point_of_interest', u'establishment']"
0,43.788269,4.758764,Mas Jaro,ChIJvarc9xfntRIRBsDhMySSYPY,"[u'lodging', u'point_of_interest', u'establishment']"
0,43.7892761,4.7599852,Riondel Emile,ChIJ51t4NxjntRIRbucg4hNBvcM,"[u'point_of_interest', u'establishment']"
0,43.78935,4.75993,La Voile Blanche,ChIJ51t4NxjntRIR43ySKrSk0_4,"[u'restaurant', u'bar', u'food', u'point_of_interest', u'establishment']"
0,43.78935,4.75993,Le Bistrot by M & J,ChIJ51t4NxjntRIRvfZr3J9AEn8,"[u'restaurant', u'food', u'point_of_interest', u'establishment']"
0,43.789353,4.759929,Blanchin Jean-Claude,ChIJ51t4NxjntRIRTdurbjkC8M8,"[u'plumber', u'point_of_interest', u'establishment']"
0,43.789353,4.759929,Balme Michel,ChIJ51t4NxjntRIRjMn8-FB4QXI,"[u'painter', u'point_of_interest', u'establishment']"
0,43.789353,4.759929,Germain Ramirez Marie-Antoinette,ChIJ51t4NxjntRIRsAC--AfHBGE,"[u'food', u'point_of_interest', u'establishment']"
0,43.789353,4.759929,Roux Gerard Marius Yves,ChIJ51t4NxjntRIRlSm1X3IliD4,"[u'store', u'point_of_interest', u'establishment']"
0,43.789353,4.759929,Domaine du Petit Mauleon SCI,ChIJeUh4NxjntRIRbF85Z7JvLTM,"[u'point_of_interest', u'establishment']"
0,43.789353,4.759929,Schneider Didier,ChIJ51t4NxjntRIR4xnqnDDEeQ8,"[u'plumber', u'point_of_interest', u'establishment']"
0,43.790353,4.7593544,Grosjean Nelly Yvette,ChIJL0AszhnntRIRAFnxorXVMCc,"[u'real_estate_agency', u'point_of_interest', u'establishment']"
0,43.7876543,4.7630836,SCI Villabianca,ChIJr4TZphjntRIRyMC9FdeWjvQ,"[u'real_estate_agency', u'point_of_interest', u'establishment']"
0,43.791951,4.757466,unnamed,ChIJT3HNNxfntRIRwal0CTayJM4,"[u'point_of_interest', u'establishment']"
0,43.7912519,4.7593572,Boisson Brigitte,ChIJ4yB_6BnntRIRh7sitdZg0M0,"[u'health', u'point_of_interest', u'establishment']"
0,43.7912519,4.7593572,Echaiti Mohamed,ChIJ4yB_6BnntRIRkDFMqoA2MJA,"[u'plumber', u'health', u'point_of_interest', u'establishment']"
0,43.806044,4.65752,Tarascon,ChIJ49cp50zctRIR0P6W_aUZCAQ,"[u'locality', u'political']"
0,43.7898164,4.7107316,Guintoli SA,ChIJVTAf0ZLdtRIR1p6FuzPyWLE,"[u'general_contractor', u'point_of_interest', u'establishment']"
0,43.7801633,4.7141647,"get2dev, Agence de communication",ChIJw2cHQe_dtRIR_Xa2ZTqAYuE,"[u'point_of_interest', u'establishment']"
0,43.7898244,4.7154199,Le Presbytere en Provence,ChIJscYy0JLdtRIR4cK4XKw4d44,"[u'point_of_interest', u'establishment']"
0,43.7859547,4.708561,Boutaud Olivier,ChIJ0THqPurdtRIRnF2YhLr1qME,"[u'point_of_interest', u'establishment']"
0,43.7903851,4.7109502,NGE,ChIJVTAf0ZLdtRIRE4U6NS6Lrq0,"[u'general_contractor', u'point_of_interest', u'establishment']"
0,43.785569,4.717901,unnamed,ChIJw1QCDfLdtRIRDYAEyRXoFIQ,"[u'point_of_interest', u'establishment']"
0,43.78422,4.719107,Deslys Claude,ChIJx0RUifHdtRIRGk37OhAAcVc,"[u'restaurant', u'food', u'point_of_interest', u'establishment']"
0,43.7861459,4.716854,Sait,ChIJv5tIju3dtRIR6gFEXb0f0dQ,"[u'point_of_interest', u'establishment']"
0,43.786357,4.717667,SAINT ETIENNE CENTRE DEUX,ChIJM_LrefLdtRIRkHPEkRN1Ozg,"[u'restaurant', u'food', u'point_of_interest', u'establishment']"
0,43.7848312,4.7202922,Maison Saint-Etienne-du-Grès,ChIJbQfcYfHdtRIRYlVa3J5ms60,"[u'point_of_interest', u'establishment']"
0,43.7856999,4.7204867,Chambon Marc,ChIJX-SIuPPdtRIRcO7ugVQQCOM,"[u'painter', u'point_of_interest', u'establishment']"
0,43.7826179,4.7187741,Derderian Maurice,ChIJSZfst_HdtRIRORh8GPF5hhk,"[u'point_of_interest', u'establishment']"
0,43.7818363,4.7184756,Eurl les Fontetes,ChIJ83s8NPDdtRIR4i5-augxN1w,"[u'point_of_interest', u'establishment']"
0,43.7811114,4.7184383,Issartel Stephane Sandy,ChIJvdCVPvDdtRIR7n_LGf_4Vow,"[u'general_contractor', u'point_of_interest', u'establishment']"
0,43.7884423,4.7148761,Lallemand Christophe,ChIJI-DwIO3dtRIR7qvl30LXirY,"[u'point_of_interest', u'establishment']"
0,43.7819717,4.7215644,Mistral Eugène,ChIJwe0O2PDdtRIRDy4ACbB3q6U,"[u'point_of_interest', u'establishment']"
0,43.7819009,4.7218515,Lucchesi Daniel,ChIJwe0O2PDdtRIRFLvwZlbeEdI,"[u'furniture_store', u'home_goods_store', u'store', u'point_of_interest', u'establishment']"
0,43.7884375,4.7139758,Villemin Patrick,ChIJ8yUTxOzdtRIRaJkFCLen0xU,"[u'general_contractor', u'point_of_interest', u'establishment']"
0,43.781871,4.7221615,Mison Thibault Bernard Fran Ois,ChIJ-Zo-2PDdtRIR_kQloP91O0o,"[u'point_of_interest', u'establishment']"
0,43.7817337,4.7222045,Casti-froid,ChIJIRyR1vDdtRIRlIlagggGadM,"[u'general_contractor', u'point_of_interest', u'establishment']"
0,43.7808062,4.7147625,Madame Christine Roch,ChIJ6edFCu_dtRIRrXbeIzkfnaA,"[u'health', u'point_of_interest', u'establishment']"
0,43.7890309,4.7141289,Khelifi Faicel,ChIJxUA7zuzdtRIRgf3AtOCysQ4,"[u'point_of_interest', u'establishment']"
0,43.789503,4.715191,13103,ChIJA1pw05LdtRIRku7Hv2D4eVM,"[u'church', u'place_of_worship', u'point_of_interest', u'establishment']"
0,43.7809733,4.7134888,Caire-dufau,ChIJm0oHQe_dtRIRB0_l7SN1GFI,"[u'point_of_interest', u'establishment']"
0,43.7802863,4.7204511,Eurl Fernandez Damien,ChIJm-m4j_DdtRIRBUvUvLPDSPk,"[u'point_of_interest', u'establishment']"
0,43.7800436,4.7202396,Tedesco Pietro,ChIJAT2NhvDdtRIRT9bXnh1Xvk4,"[u'general_contractor', u'point_of_interest', u'establishment']"
0,43.789425,4.713814,Boudin Freres,ChIJF2xeM5PdtRIRc65pl3TgVWg,"[u'finance', u'point_of_interest', u'establishment']"
0,43.7895522,4.7140256,Boudin,ChIJVTAf0ZLdtRIR1KAfZouNXtw,"[u'furniture_store', u'home_goods_store', u'store', u'point_of_interest', u'establishment']"
0,43.789586,4.714055,Gonfond Marc Pierre,ChIJdTBYMpPdtRIRqyH1NvodTa0,"[u'food', u'point_of_interest', u'establishment']"
0,43.780824,4.722914,13103,ChIJi9F5NvfdtRIRS3Gg6hs3K-Q,"[u'church', u'place_of_worship', u'point_of_interest', u'establishment']"
0,43.7799493,4.7139732,Assali Patrick,ChIJvx-sQe_dtRIRHVcoAV0Cdfk,"[u'painter', u'point_of_interest', u'establishment']"
0,43.78052,4.722688,Rossi Norbert,ChIJJwoRS_fdtRIRPxDRowcedPs,"[u'food', u'point_of_interest', u'establishment']"
0,43.7571643,4.7363787,Cabane de la Lèque,ChIJhSwSSKDgtRIRFa_ZVxEbcz4,"[u'lodging', u'point_of_interest', u'establishment']"
0,43.7567763,4.7378183,Chapelle Saint-Peïre,ChIJrbT5zaTgtRIRtemgDH8TRuI,"[u'premise', u'point_of_interest', u'establishment']"
0,43.7567329,4.737782,Saint-Peire,ChIJC5nfzaTgtRIR15kO01qZUV4,"[u'premise', u'point_of_interest', u'establishment']"
0,43.7760374,4.7096063,Le Mas Predon,ChIJP_2CJ-fdtRIRFt5aZdyE5_Q,"[u'lodging', u'point_of_interest', u'establishment']"
0,43.776151,4.708678,Tanzi Sarl,ChIJA5gvyuXdtRIREd96wieRCww,"[u'general_contractor', u'point_of_interest', u'establishment']"
0,43.773206,4.717543,MDJ Sci,ChIJ4RR6zfzdtRIRFBLjjZP-SOY,"[u'point_of_interest', u'establishment']"
0,43.78052,4.722688,Teixeira Isabelle,ChIJK5nFcpXmtRIRVHkNXtAOdak,"[u'health', u'point_of_interest', u'establishment']"
0,43.78052,4.722688,Quatuor,ChIJJwoRS_fdtRIRLEjyxaJarWs,"[u'point_of_interest', u'establishment']"
0,43.78052,4.722688,Le Jardin de Pomeyrol,ChIJ-w0RS_fdtRIRrtmy6YYp2w4,"[u'food', u'point_of_interest', u'establishment']"
0,43.78052,4.72269,Tardieu Max,ChIJJwoRS_fdtRIR2FTmvzR44Xs,"[u'point_of_interest', u'establishment']"
0,43.78052,4.72269,Nicolas Louis,ChIJJwoRS_fdtRIRDlJymB045W4,"[u'point_of_interest', u'establishment']"
0,43.7806342,4.7122865,Aubert Louis,ChIJBxQsTe_dtRIRzlgnXUApvWo,"[u'point_of_interest', u'establishment']"
0,43.7806342,4.7122865,Pépin Earl,ChIJBxQsTe_dtRIRharTCejWRwE,"[u'point_of_interest', u'establishment']"
0,43.780793,4.723397,Bouchet Gibelin Nathalie Begonia,ChIJTWeZOPfdtRIR6O89XcB4oUQ,"[u'grocery_or_supermarket', u'food', u'store', u'point_of_interest', u'establishment']"
0,43.779989,4.709871,unnamed,ChIJp9RrKubdtRIRxXDgO77yvQs,"[u'point_of_interest', u'establishment']"
0,43.8149293,4.7275786,Portes Anciennes,ChIJV9scgX3dtRIRPsCXPdKfXus,"[u'point_of_interest', u'establishment']"
0,43.8149293,4.7275786,Lambol Vital,ChIJV9scgX3dtRIReGSw94TGl-Y,"[u'point_of_interest', u'establishment']"
0,43.8149293,4.7275786,Dragon Baculard Marie-France,ChIJV9scgX3dtRIRafqwFTHgbok,"[u'point_of_interest', u'establishment']"
0,43.8149293,4.7275786,Laville Catherine,ChIJV9scgX3dtRIR1z5TtnG9_Gk,"[u'point_of_interest', u'establishment']"
0,43.8155651,4.728054,Fayolle Pascal,ChIJnwd8hofntRIRFuKFzll8QuM,"[u'furniture_store', u'home_goods_store', u'store', u'point_of_interest', u'establishment']"
0,43.8155651,4.728054,Giovannetti Robert,ChIJnwd8hofntRIR5Q2TC6PM590,"[u'point_of_interest', u'establishment']"
0,43.8155651,4.728054,Dalmais Gerin Francoise Marie Paule,ChIJnwd8hofntRIRJS1_J8eN-s0,"[u'furniture_store', u'home_goods_store', u'store', u'point_of_interest', u'establishment']"
0,43.8155651,4.728054,Cristianini Stéphane,ChIJnwd8hofntRIR7nyGvjR980E,"[u'car_repair', u'point_of_interest', u'establishment']"
0,43.8156087,4.727945,Jardins de Provence Creation,ChIJnwd8hofntRIREYosLKJ5kzo,"[u'food', u'point_of_interest', u'establishment']"
0,43.8156087,4.727945,CIP,ChIJnwd8hofntRIRUCiUNik3sQ0,"[u'point_of_interest', u'establishment']"
0,43.8531509,4.769296,Graveson,ChIJkVZLW33otRIRwAKX_aUZCAQ,"[u'locality', u'political']"
0,43.808078,4.722419,Pony Club Equestrian Center Des Alpilles,ChIJ0THqPurdtRIRpEskHX-BxkM,"[u'point_of_interest', u'establishment']"
0,43.799279,4.716353,Pepiniere Rouy,ChIJKY69o5rdtRIRIP8q7-FUL_I,"[u'food', u'point_of_interest', u'establishment']"
0,43.80511,4.720028,Chassefière Thierry,ChIJtep6p4PdtRIRQyhiwXOraE0,"[u'point_of_interest', u'establishment']"
0,43.80511,4.720028,Mas Carré (Earl),ChIJtep6p4PdtRIR7GHtoG8voQE,"[u'point_of_interest', u'establishment']"
0,43.8050242,4.7188677,Mistral Bernard,ChIJNWQrFIPdtRIRHpj6UcyKsWY,"[u'point_of_interest', u'establishment']"
0,43.788652,4.831343,Saint-Rémy-de-Provence,ChIJ80hgrDHktRIR3XcOUlvR8rU,"[u'locality', u'political']"
0,43.7934758,4.7122446,Pallas Cuir,ChIJF2xeM5PdtRIRVtzeRkZYkEc,"[u'clothing_store', u'store', u'point_of_interest', u'establishment']"
0,43.7926997,4.7118576,FITNESS CLUB CONCEPT,ChIJbag7cZTdtRIRJ57_vXz4qcM,"[u'gym', u'health', u'point_of_interest', u'establishment']"
0,43.789966,4.710806,unnamed,ChIJD7GlyZTdtRIRWDic2Lc3XSM,"[u'point_of_interest', u'establishment']"
0,43.78987,4.709557,Parc d'Activités de Laurade,ChIJwx09KpXdtRIRMX68rM63-80,"[u'point_of_interest', u'establishment']"
0,43.785867,4.7085887,Provence Benergie,ChIJ0THqPurdtRIRguCpJRLsgeQ,"[u'point_of_interest', u'establishment']"
0,43.7808,4.709599,13103,ChIJ4_qIYujdtRIRRb23lF1TuFs,"[u'point_of_interest', u'establishment']"
0,43.779793,4.718559,Château de Pomeyrol,ChIJ9UvxCvDdtRIRuQ2YNZqSTto,"[u'premise', u'point_of_interest', u'establishment']"
0,43.7773574,4.6978951,Equi-créa Sarl,ChIJDwkE5eLctRIRU_UIZ849A8o,"[u'point_of_interest', u'establishment']"
0,43.7737361,4.6993322,étang de brèche,ChIJfzJ7B9ndtRIRWsGG3O826jY,"[u'park', u'point_of_interest', u'establishment']"
0,43.8157121,4.747173,Clamasix Domaine Breuil,ChIJ58XcDprntRIRfFJdGBTcNYI,"[u'travel_agency', u'real_estate_agency', u'point_of_interest', u'establishment']"
0,43.8136449,4.7157558,Tartarin de Tarascon,ChIJg-nQznDdtRIRnO4CbArb23w,"[u'point_of_interest', u'establishment']"
0,43.813645,4.715756,L'Ambassy,ChIJg-nQznDdtRIR3Z7ElZlQN_4,"[u'restaurant', u'bar', u'food', u'point_of_interest', u'establishment']"
0,43.8136449,4.7157558,Niro Père et Fille,ChIJg-nQznDdtRIRxUqYRyac9oY,"[u'point_of_interest', u'establishment']"
0,43.8136449,4.7157558,Carrosserie Giraudo,ChIJ06kysLXdtRIRQy91jw07pUA,"[u'car_repair', u'point_of_interest', u'establishment']"
0,43.7667257,4.6980148,Ruine d'Ernaginum,ChIJTRnfN3fetRIRQoclo_Wmo9E,"[u'premise', u'point_of_interest', u'establishment']"
0,43.8154253,4.763524,Le mas de la Christine - Location saisonnière,ChIJk4L_Ba7ntRIRg420gB05jTM,"[u'lodging', u'point_of_interest', u'establishment']"
0,43.815568,4.756907,La Perdrigone,ChIJG2zaOqXntRIRHy--0mIJkhk,"[u'food', u'point_of_interest', u'establishment']"
0,43.812871,4.762474,unnamed,ChIJmX9E7K7ntRIRyEKSr9xLsKU,"[u'point_of_interest', u'establishment']"
0,43.8154253,4.763524,Durand Jean-Pierre,ChIJk4L_Ba7ntRIRK-oHO8kjULg,"[u'food', u'point_of_interest', u'establishment']"
