,Latitude,Longitude,Name,Place_id,Type
0,43.332412,5.11057,Sausset-les-Pins,ChIJEY9760beyRIREP-W_aUZCAQ,"[u'locality', u'political']"
0,43.340346,5.113982,Golf Côte Bleue,ChIJfyop6FreyRIRVQBLzC6mrLY,"[u'health', u'point_of_interest', u'establishment']"
0,43.3409864,5.1151145,Cape Reussite,ChIJVRKw1kTeyRIROidQjukIXVs,"[u'point_of_interest', u'establishment']"
0,43.3425987,5.1260747,ceva logistics formatilies,ChIJRVLQ4WjeyRIReCC8yPYYTho,"[u'point_of_interest', u'establishment']"
0,43.339599,5.110015,F.C.C.B. (Football Club Côte Bleue) - Sausset les Pins,ChIJBbjTR1DeyRIRtNrt7pQ_GYA,"[u'stadium', u'point_of_interest', u'establishment']"
0,43.3379515,5.1128461,ACTIVES TECHNEWLOGIES,ChIJqXRqZVreyRIRoilSkJGROh8,"[u'point_of_interest', u'establishment']"
0,43.3414388,5.1150729,Cavalliere-Panaciulli Christel,ChIJoeJH2ETeyRIRF2p9P02Xt4Q,"[u'health', u'point_of_interest', u'establishment']"
0,43.341428,5.1149762,Sci Contard And Co,ChIJz-lF2kTeyRIRcB1scEBBMP8,"[u'point_of_interest', u'establishment']"
0,43.3417126,5.1137081,Carvalho Jean-Jacques,ChIJt333PEXeyRIRYgrIxB5gJZw,"[u'plumber', u'point_of_interest', u'establishment']"
0,43.3417308,5.1136327,Delphin Patricia,ChIJFSsvPEXeyRIRrFcjTCxYQHY,"[u'point_of_interest', u'establishment']"
0,43.340122,5.1155945,Adra Thierry,ChIJMbGoMFveyRIRPeNj706mBvE,"[u'car_repair', u'point_of_interest', u'establishment']"
0,43.3386673,5.1133124,Ramadier Frederick,ChIJN1TSiFreyRIRHhHr-HfIdAc,"[u'physiotherapist', u'health', u'point_of_interest', u'establishment']"
0,43.3385439,5.1131645,Matte Emilie,ChIJHxAgi1reyRIR6HWtrzcgU2k,"[u'point_of_interest', u'establishment']"
0,43.339731,5.109617,13960,ChIJqUYPSlDeyRIREe65Y8pvAsw,"[u'stadium', u'point_of_interest', u'establishment']"
0,43.3382665,5.1119616,Poulain Eloise,ChIJUYB7f1reyRIRMa4wpywdM_g,"[u'point_of_interest', u'establishment']"
0,43.3382731,5.111937,Paul Claude,ChIJURHWgVDeyRIRJSbhxBAqfh0,"[u'point_of_interest', u'establishment']"
0,43.3382742,5.1118318,Lanteri Danielle,ChIJ8RPWgVDeyRIR27GVEDAuzsE,"[u'point_of_interest', u'establishment']"
0,43.337865,5.1121533,Etablissement Laffitte,ChIJRePaeVreyRIRgFndr7GmJ2w,"[u'clothing_store', u'store', u'point_of_interest', u'establishment']"
0,43.3378737,5.1119407,Rodriguez Pascal,ChIJS-SueFreyRIRAGgmYaXhpFQ,"[u'point_of_interest', u'establishment']"
0,43.332002,5.109535,Mairie de Sausset les pins,ChIJ3ZQCdPjeyRIR8a8UZy85eg4,"[u'local_government_office', u'point_of_interest', u'establishment']"
0,43.3310042,5.1117128,Projet immobilier,ChIJI-MeAfjeyRIRK0TRJKmPQio,"[u'real_estate_agency', u'point_of_interest', u'establishment']"
0,43.3317765,5.1235613,Laforêt Sausset les Pins,ChIJiw4_TGDeyRIRD8B2Lv3zkDY,"[u'real_estate_agency', u'point_of_interest', u'establishment']"
0,43.3311336,5.1128813,Agence Nouvelle,ChIJWbBF4vfeyRIRd8A2I41ROUU,"[u'real_estate_agency', u'point_of_interest', u'establishment']"
0,43.332838,5.11002,Surf Shop De La Gare,ChIJbwOsv1feyRIRIKCNzr5-4CY,"[u'clothing_store', u'store', u'point_of_interest', u'establishment']"
0,43.3314009,5.1118248,Thomas Cook,ChIJsd4rBvjeyRIRVgIlfJW3ovI,"[u'travel_agency', u'point_of_interest', u'establishment']"
0,43.331156,5.108495,L'Amphore,ChIJ7Ss8oPjeyRIRF6UbVWveuBA,"[u'restaurant', u'bar', u'food', u'point_of_interest', u'establishment']"
0,43.332747,5.1155414,AZUTEK - Informatique - Multimedia - Communication,ChIJvRj851jeyRIRtXmrK-4wNJ4,"[u'electronics_store', u'store', u'point_of_interest', u'establishment']"
0,43.3305463,5.1146322,Informatique Cote Bleue,ChIJEQoXLfbeyRIRPckTNgsWOTQ,"[u'hardware_store', u'electronics_store', u'store', u'point_of_interest', u'establishment']"
0,43.3311251,5.1100594,Agence Montamer,ChIJ06VNf_jeyRIRPOwTe7j4KAQ,"[u'real_estate_agency', u'point_of_interest', u'establishment']"
0,43.3310536,5.1104737,OK Immo Sarl,ChIJxZz6dPjeyRIRbbuYIZQwp20,"[u'real_estate_agency', u'point_of_interest', u'establishment']"
0,43.3322874,5.1245148,LIDL,ChIJiw4_TGDeyRIReNlXCBx8lhk,"[u'grocery_or_supermarket', u'food', u'store', u'point_of_interest', u'establishment']"
0,43.3343979,5.1099045,Primary School Victor Hugo,ChIJs7ANEFfeyRIRJdU0_ISS-gE,"[u'city_hall', u'local_government_office', u'school', u'point_of_interest', u'establishment']"
0,43.3309594,5.1099336,Immobilière du Forum,ChIJ7Ss8oPjeyRIRHh4bBYoyePg,"[u'real_estate_agency', u'travel_agency', u'point_of_interest', u'establishment']"
0,43.3353794,5.1165484,VERNAL,ChIJb5T8UFneyRIRvnfg1CJmOuo,"[u'lodging', u'point_of_interest', u'establishment']"
0,43.3346785,5.1159976,Flexodev,ChIJd8T_c1neyRIRVD7-mwNAT1s,"[u'point_of_interest', u'establishment']"
0,43.3318066,5.1155204,The Aloha Company,ChIJ9XM2kVjeyRIR-yo7ZUXLpNA,"[u'point_of_interest', u'establishment']"
0,43.33269,5.114549,P'titatelier,ChIJpzK0wZBTsRIRSTzBRrEIThk,"[u'store', u'point_of_interest', u'establishment']"
0,43.3306399,5.1142404,Une Pensée à L'Envers,ChIJdQVRzffeyRIRpLbqHbXCQlU,"[u'florist', u'store', u'point_of_interest', u'establishment']"
0,43.3326101,5.1216448,Benarroche Paul,ChIJs1Aww1_eyRIRfW7xLuDRxRw,"[u'point_of_interest', u'establishment']"
0,43.3343954,5.1112371,L'Escale Côte Bleue - Chambres d'hôtes,ChIJTxp4QlfeyRIRj8mR1W-GEYI,"[u'lodging', u'point_of_interest', u'establishment']"
0,43.331147,5.1123,Crédit Agricole Alpes Provence,ChIJ1W_m_ffeyRIRzXV_VXr9ouQ,"[u'bank', u'finance', u'point_of_interest', u'establishment']"
0,43.3311981,5.1120173,Elite informatique,ChIJa_GB_1feyRIR0hX5gH12VmM,"[u'point_of_interest', u'establishment']"
0,43.330546,5.114632,Bullen Christophe assurance,ChIJdQVRzffeyRIRO5OAYQ9_eH0,"[u'insurance_agency', u'point_of_interest', u'establishment']"
0,43.3350867,5.1095867,Albert Philippe,ChIJy0O3JFfeyRIR3uagmBzUVf4,"[u'point_of_interest', u'establishment']"
0,43.3311489,5.1132567,Jayko,ChIJMZP-3_feyRIRzGIX6kfQV1k,"[u'point_of_interest', u'establishment']"
0,43.3320998,5.1109133,AXA Assurance EIRL COMBARET CEDRIC,ChIJYYf3wlPeyRIR6GQRHwO2BQE,"[u'insurance_agency', u'bank', u'health', u'finance', u'point_of_interest', u'establishment']"
0,43.3306809,5.1143704,Cave à vin à sausset les pins Vincent & Co,ChIJa32p0_feyRIRoDY_NLhvK1o,"[u'liquor_store', u'food', u'store', u'point_of_interest', u'establishment']"
0,43.3309851,5.1118236,Librairie Les Anges Bleus,ChIJI-MeAfjeyRIRosE3SzjFP3s,"[u'book_store', u'store', u'point_of_interest', u'establishment']"
0,43.3316927,5.1107069,Pirate Surf Shop,ChIJyRP55lfeyRIRUrhzKlv1U5c,"[u'store', u'point_of_interest', u'establishment']"
0,43.3306469,5.1143211,Agence A2MIMMO,ChIJg4bHgGHeyRIRV--j6E0yOkg,"[u'real_estate_agency', u'travel_agency', u'point_of_interest', u'establishment']"
0,43.3313198,5.1115241,vizz optique,ChIJQV25B_jeyRIRbXMO8RN0Q4I,"[u'health', u'store', u'point_of_interest', u'establishment']"
0,43.3316927,5.1107069,Driving School Le Galion,ChIJyRP55lfeyRIRMj19jEj8n3Y,"[u'point_of_interest', u'establishment']"
0,43.3310042,5.1117128,Srpl plomberie,ChIJI-MeAfjeyRIR3uSHJTHYhWg,"[u'plumber', u'point_of_interest', u'establishment']"
0,43.3297697,5.1150675,Mairie - école primaire,ChIJVb53SPbeyRIRdFxjVJ_kpJ0,"[u'point_of_interest', u'establishment']"
0,43.330297,5.113054,Caisse d'Epargne Sausset les Pins,ChIJ6bR76ffeyRIRbr56gGAM7m4,"[u'bank', u'atm', u'finance', u'point_of_interest', u'establishment']"
0,43.3309851,5.1118236,Sarl Farrugia Peinture,ChIJI-MeAfjeyRIRbpnqStNHk08,"[u'painter', u'point_of_interest', u'establishment']"
0,43.3310042,5.1117128,Societe d'exploitation Plantel,ChIJI-MeAfjeyRIRnsX9NxCTOfQ,"[u'general_contractor', u'point_of_interest', u'establishment']"
0,43.331155,5.1112938,Toubon Guy,ChIJhwCCCPjeyRIRw6EIULvLNVI,"[u'point_of_interest', u'establishment']"
0,43.329765,5.115191,Town Hall Nursery School,ChIJVb53SPbeyRIRbBQ4bnbHxfk,"[u'school', u'point_of_interest', u'establishment']"
0,43.328696,5.119081,L'Hermitage,ChIJc1hsUPbeyRIRQhCX6WTI4x0,"[u'restaurant', u'food', u'point_of_interest', u'establishment']"
0,43.329612,5.115187,Christophe Conti Coiffure,ChIJ52IsOPbeyRIRWS1Sn5fDfW0,"[u'hair_care', u'health', u'store', u'point_of_interest', u'establishment']"
0,43.3345117,5.1070011,Entente Sportive Taekwondo Cote Bleue,ChIJZaDUVFreyRIRfRGQq_2J8zk,"[u'point_of_interest', u'establishment']"
0,43.331102,5.110454,Casino Shop Sausset-Les-Pins,ChIJX2djdPjeyRIRjc2G852LgSs,"[u'grocery_or_supermarket', u'food', u'store', u'point_of_interest', u'establishment']"
0,43.331171,5.1099975,Société Marseillaise de Crédit - Sausset les Pins,ChIJsyTAd_jeyRIRPbQVszS56ZE,"[u'bank', u'atm', u'finance', u'point_of_interest', u'establishment']"
0,43.3311066,5.1101185,Le Regal Boise,ChIJmWrXdvjeyRIRQdYI6I6HGPs,"[u'restaurant', u'food', u'point_of_interest', u'establishment']"
0,43.3301117,5.1225875,"Centre Ligue de L'Enseignement, Vacances Pour Tous, UFOVAL",ChIJc1hsUPbeyRIRnO_yhsNs7mM,"[u'point_of_interest', u'establishment']"
0,43.3310536,5.1104737,ADONIA INSTITUT,ChIJEa_6dPjeyRIRdiHUJpMUN5c,"[u'beauty_salon', u'point_of_interest', u'establishment']"
0,43.3311026,5.1102398,Une pause pour soi,ChIJD8K_dvjeyRIRiXaQh9-UmB8,"[u'beauty_salon', u'spa', u'health', u'point_of_interest', u'establishment']"
0,43.329188,5.115143,DEALVALUE,ChIJZaGZZ_beyRIRsmVgzpsEBW0,"[u'finance', u'point_of_interest', u'establishment']"
0,43.3309209,5.1104212,Société Noharet,ChIJSQt2dPjeyRIRHvdpf_fHXHQ,"[u'bakery', u'food', u'store', u'point_of_interest', u'establishment']"
0,43.3311361,5.1101741,La Sante En Beaute,ChIJq0D5dvjeyRIREikf2oJf9kE,"[u'point_of_interest', u'establishment']"
0,43.3311066,5.1101185,Valente Herve,ChIJDYqqd_jeyRIRJK7UHmTANeQ,"[u'point_of_interest', u'establishment']"
0,43.331039,5.110026,Boutique Le Dressing (prêt à porter femmes),ChIJYSJQd_jeyRIRy4DC9H7xsCQ,"[u'clothing_store', u'store', u'point_of_interest', u'establishment']"
0,43.331452,5.109427,Société Marseillaise de Crédit,ChIJ80oY1VfeyRIRoCLPhJCyrr8,"[u'bank', u'finance', u'point_of_interest', u'establishment']"
0,43.38296,5.164636,Châteauneuf-les-Martigues,ChIJXQqlUDTnyRIR8AOX_aUZCAQ,"[u'locality', u'political']"
0,43.330673,5.151576,Carry-le-Rouet,ChIJOV4ogsHdyRIRQASX_aUZCAQ,"[u'locality', u'political']"
0,43.404811,5.053728,Martigues,ChIJSdKFn9EfthIRmlyw6ck9db4,"[u'locality', u'political']"
0,43.3392896,5.101239,Middle School Pierre Matraja,ChIJnQfK8EzeyRIRQae4gBYeKPc,"[u'school', u'point_of_interest', u'establishment']"
0,43.3399666,5.1026246,Amicale Sapeurs Pompiers,ChIJx5YzUf_eyRIR1A2OUN58VBM,"[u'point_of_interest', u'establishment']"
0,43.339917,5.102839,GDP Vendome Immobilier,ChIJaReB6lLeyRIRgTtC5uKPZNU,"[u'point_of_interest', u'establishment']"
0,43.3408343,5.101014,Dechetterie,ChIJYY3lTq3fyRIRm4jhgND177U,"[u'park', u'point_of_interest', u'establishment']"
0,43.3399709,5.10036,Les Jardins de Sausset,ChIJwdC1Oa3fyRIRHYp0N4cWiKU,"[u'health', u'point_of_interest', u'establishment']"
0,43.3388544,5.1081519,Savournin Artigas Nancy Francoise,ChIJzTodolHeyRIRc2l9Dfu-r1k,"[u'point_of_interest', u'establishment']"
0,43.3409382,5.1015439,Antenne MPM Sausset,ChIJPffJrFLeyRIRlvmgnEP1EMo,"[u'local_government_office', u'point_of_interest', u'establishment']"
0,43.3408299,5.100892,13960,ChIJuYBzUK3fyRIR_AQM7po7Yg8,"[u'point_of_interest', u'establishment']"
0,43.337626,5.1071961,Maes Jean-Charles,ChIJIy0MZ1HeyRIRJnHBxUfReeA,"[u'point_of_interest', u'establishment']"
0,43.338918,5.101395,13960,ChIJQ5iCKq3fyRIRdMZ9IlNHTnQ,"[u'point_of_interest', u'establishment']"
0,43.3381689,5.1028287,Didelot Veronique,ChIJnY0WPVPeyRIR5xIDPHFLKDI,"[u'point_of_interest', u'establishment']"
0,43.3381689,5.1028287,Didelot Damien,ChIJnY0WPVPeyRIRG9YSEB2AURA,"[u'general_contractor', u'point_of_interest', u'establishment']"
0,43.3374236,5.1039445,Biscay Pascale,ChIJKTM8dFPeyRIR_bLQW2ZN0Nk,"[u'point_of_interest', u'establishment']"
0,43.3374518,5.1039825,Pyxis Hospitality,ChIJ48gAdVPeyRIR-1VEqa2Gol4,"[u'point_of_interest', u'establishment']"
0,43.3369951,5.1058128,Duton Lacues Guilaine Marie-Madeleine,ChIJv6tS7lPeyRIRaZ3JOtikzrI,"[u'point_of_interest', u'establishment']"
0,43.331335,5.128544,MAQUILLEUSE PROFESSIONNELLE DANS LE 13 : GRAZIE,ChIJk4pYEWLeyRIR1M4nXKZgsMU,"[u'point_of_interest', u'establishment']"
0,43.3298716,5.1269537,Compagnie Nicol David,ChIJiZoHCIreyRIRw7REh_8h4Ak,"[u'point_of_interest', u'establishment']"
0,43.3306301,5.1296161,Leroy,ChIJWSIbeWLeyRIRYu06j6qq5WU,"[u'point_of_interest', u'establishment']"
0,43.3317065,5.1340602,"Diagamter Diagnostic immobilier Martigues, Marignane",ChIJV-0EPn3eyRIRD_RBjTrhlb0,"[u'health', u'finance', u'point_of_interest', u'establishment']"
0,43.331131,5.133408,Town De Carry-Le-Rouet,ChIJ7ZRQT33eyRIRkXbqHWy9czQ,"[u'point_of_interest', u'establishment']"
0,43.3296012,5.1310329,"Emmanuelle,esthéticienne à Sausset",ChIJMXInC_jeyRIRwocL4mA8mC4,"[u'point_of_interest', u'establishment']"
0,43.329244,5.13178,Matchou Animation,ChIJE3Wp9FDeyRIRwDegzJFcd6M,"[u'point_of_interest', u'establishment']"
0,43.330026,5.1340993,L'Alliance - Restaurant Sausset-les-Pins,ChIJz0mT9IfeyRIRhmzxtxjWGS8,"[u'restaurant', u'food', u'point_of_interest', u'establishment']"
0,43.3286048,5.1302864,TAXI ROUX,ChIJvbJjTYjeyRIRz1V6DMMvMC0,"[u'point_of_interest', u'establishment']"
0,43.3299661,5.1342467,Tao,ChIJh9x3i4feyRIRFrVNXVP5pqA,"[u'point_of_interest', u'establishment']"
0,43.329966,5.134247,L’Envie,ChIJh9x3i4feyRIR2tLoGx4XHEo,"[u'bar', u'point_of_interest', u'establishment']"
0,43.3332977,5.1234922,Rouzaud Christian,ChIJmXs-iGDeyRIRdap67oZyssU,"[u'point_of_interest', u'establishment']"
0,43.3319561,5.1234835,Olivieri Yannick,ChIJ3_1Pa2DeyRIR9UAsWOgoRkg,"[u'point_of_interest', u'establishment']"
0,43.335591,5.124578,Martin Patricia,ChIJc5oXLmfeyRIRA0sl4HNUc6I,"[u'point_of_interest', u'establishment']"
0,43.3344493,5.1268353,Martin Elodie,ChIJUUlkQWHeyRIRMiz2vMLuVbA,"[u'health', u'point_of_interest', u'establishment']"
0,43.3361054,5.1233265,Le Panorama - Maison de vacances,ChIJcaZTT2feyRIR1jiKOiftLCY,"[u'lodging', u'point_of_interest', u'establishment']"
0,43.3341559,5.1254961,Marais Roland Philippe,ChIJy7z4RGHeyRIR_7QRiM_WXJs,"[u'point_of_interest', u'establishment']"
0,43.3357549,5.1230294,Cesco Gilles,ChIJK5KLTWfeyRIR3jLKmdqulCU,"[u'general_contractor', u'point_of_interest', u'establishment']"
0,43.3344794,5.1239785,Dubois Julie,ChIJt657wWDeyRIRsyT9WiPM-p4,"[u'health', u'point_of_interest', u'establishment']"
0,43.3361763,5.1225666,Voisey Concepts Realisations,ChIJX0svq2DeyRIR02kUwuwnWpY,"[u'general_contractor', u'point_of_interest', u'establishment']"
0,43.3361763,5.1225666,Boyer Valerie Elisabeth,ChIJFdDZWWfeyRIRVThl0CURunU,"[u'hair_care', u'point_of_interest', u'establishment']"
0,43.3356047,5.1225278,Costa Multi-services,ChIJkTqW-13eyRIRBXEE-MFtMQQ,"[u'general_contractor', u'point_of_interest', u'establishment']"
0,43.3342479,5.123755,Dufly David,ChIJq42ulGDeyRIRUyLP7sdBtXM,"[u'general_contractor', u'point_of_interest', u'establishment']"
0,43.3337626,5.1245465,Lamalle Caroline,ChIJG3js5GDeyRIR4u_xrisIYck,"[u'point_of_interest', u'establishment']"
0,43.3330816,5.1275344,Sci Societe Civile Tortola,ChIJVWF01WPeyRIRPM3p9IJNmQo,"[u'real_estate_agency', u'point_of_interest', u'establishment']"
0,43.3328259,5.1250448,Alborghetti Pauline Ostéopathe,ChIJzc8_q2HeyRIRdplBkrZYH3U,"[u'health', u'point_of_interest', u'establishment']"
0,43.3354172,5.1210792,Fayolle Remy,ChIJ_542C17eyRIRdVaVwhxRtLE,"[u'point_of_interest', u'establishment']"
0,43.332543,5.125038,Cabinet d'Orthoptie et d'Optométrie MASSENET Arnaud,ChIJ-bI9rWHeyRIR_0PNZd-1VTA,"[u'physiotherapist', u'health', u'point_of_interest', u'establishment']"
0,43.3343907,5.121603,Le Bivouac Motard,ChIJR8hjPV7eyRIRkeQlvziLGwQ,"[u'lodging', u'point_of_interest', u'establishment']"
0,43.332488,5.125006,Cabinet Dentaire Dr Dubois et Associés,ChIJ5YhPrWHeyRIRRx4dMidlhFk,"[u'dentist', u'doctor', u'health', u'point_of_interest', u'establishment']"
0,43.3324674,5.1249486,Pédiatre Dr Pecry,ChIJm363smHeyRIRwbgh-AZ72Q4,"[u'doctor', u'health', u'point_of_interest', u'establishment']"
0,43.332449,5.124995,Cabinet Médical de Sausset-Les-Pins,ChIJ2UlWrWHeyRIRnYEYWevP3-Q,"[u'dentist', u'doctor', u'health', u'point_of_interest', u'establishment']"
0,43.3323261,5.1250856,Bascetto Jara Sandra,ChIJG1u4u2HeyRIR3FEFpZCEl28,"[u'point_of_interest', u'establishment']"
0,43.332358,5.124916,antoine van hove,ChIJBZ85TWDeyRIRwdus5SXFIVw,"[u'doctor', u'health', u'point_of_interest', u'establishment']"
0,43.332442,5.124521,13960,ChIJU-0lTmDeyRIRPIyHSUa2Bn8,"[u'parking', u'point_of_interest', u'establishment']"
0,43.3320925,5.128674,Lothe Claire,ChIJ1U0FOWLeyRIRzGbsc2VIVzA,"[u'point_of_interest', u'establishment']"
0,43.3322182,5.1236898,Petit Patrick,ChIJi40DQmDeyRIRy0t4QobxNFU,"[u'point_of_interest', u'establishment']"
0,43.3317148,5.1252366,Ricci Jean Paul,ChIJzwOSyWHeyRIR4l88JoBVho0,"[u'point_of_interest', u'establishment']"
0,43.331714,5.1250181,Maffei Collin Marjorie,ChIJF8rbymHeyRIRnZS_z_0LUZg,"[u'point_of_interest', u'establishment']"
0,43.3315273,5.1267291,G M T,ChIJCxkkk2HeyRIR81TAm7gk27Q,"[u'moving_company', u'point_of_interest', u'establishment']"
0,43.3324405,5.122621,Tellenne René,ChIJp37NC2DeyRIR0nTXQJ_VDac,"[u'finance', u'point_of_interest', u'establishment']"
0,43.331504,5.125142,Prato Guillaume,ChIJgeV8zGHeyRIRzgCslZTvlO8,"[u'electrician', u'point_of_interest', u'establishment']"
0,43.3331107,5.1210011,Villalonga Frederic,ChIJMaI0zV_eyRIRNczI4vMZBWw,"[u'electrician', u'point_of_interest', u'establishment']"
0,43.3332103,5.1208104,Mucchielli Clary Marie-Laurence,ChIJG8rutF_eyRIRnqLOMtujNvU,"[u'point_of_interest', u'establishment']"
0,43.3348185,5.1193891,Rambaud Marie-Françoise,ChIJ_azE9F7eyRIR9tR9vcTIUu4,"[u'health', u'point_of_interest', u'establishment']"
0,43.3314335,5.1232615,Financiere Chemaris,ChIJrYLGEGDeyRIRY80-Ln29T7U,"[u'bakery', u'food', u'store', u'point_of_interest', u'establishment']"
0,43.333972,5.133775,Station D'Épuration Carry-Sausset,ChIJX40tv3zeyRIRfJy-_7aT86U,"[u'point_of_interest', u'establishment']"
0,43.3329043,5.1204244,Daziano Recouly Christine Nathalie,ChIJJ3_7rV_eyRIR8OyU6crvTMo,"[u'point_of_interest', u'establishment']"
0,43.3310006,5.1235928,Lambicchi Veronique,ChIJo6JqH2DeyRIRtA_1l7XffYE,"[u'doctor', u'health', u'point_of_interest', u'establishment']"
0,43.3340371,5.1190769,Costa Pierre Gilbert,ChIJI1FtK1neyRIR-u0rpDa_Aa4,"[u'point_of_interest', u'establishment']"
0,43.330281,5.106432,Best Western Hotel Paradou Mediterranee,ChIJCRPiIVbeyRIRqpLw6SOvyC4,"[u'lodging', u'point_of_interest', u'establishment']"
0,43.3313618,5.1076108,Office du Tourisme - Sausset-les-pins,ChIJLUQwp_jeyRIRIX1J0tZXHi4,"[u'travel_agency', u'point_of_interest', u'establishment']"
0,43.331326,5.1079929,L'Immobilière Bleue,ChIJ7Ss8oPjeyRIRX_Hmi10ovnY,"[u'real_estate_agency', u'point_of_interest', u'establishment']"
0,43.331478,5.10627,Top Fishing,ChIJozXJ-VXeyRIRcZX6KAn0BHI,"[u'store', u'point_of_interest', u'establishment']"
0,43.3313979,5.1062407,Côte Bleue Plongée,ChIJx5YzUf_eyRIR2hsgh7WG-3E,"[u'store', u'point_of_interest', u'establishment']"
0,43.331154,5.108522,Le Pirate,ChIJHQ_gnPjeyRIR7EkgoDqN0fY,"[u'restaurant', u'bar', u'food', u'point_of_interest', u'establishment']"
0,43.3337958,5.1043627,Carry France Distribution,ChIJM7dQqlXeyRIRK4aWp_5DOdo,"[u'general_contractor', u'point_of_interest', u'establishment']"
0,43.3311155,5.1060494,Pharmacie du Port,ChIJ6yX1m1XeyRIRUaKgcUV7uck,"[u'pharmacy', u'health', u'store', u'point_of_interest', u'establishment']"
0,43.3310663,5.109348,Garage Du Centre,ChIJ-aDogPjeyRIR-caIhVEqTKw,"[u'car_dealer', u'car_repair', u'store', u'point_of_interest', u'establishment']"
0,43.3313134,5.1079737,Institut Amande Douce,ChIJ7Ss8oPjeyRIRPEGpgFdbJBs,"[u'beauty_salon', u'point_of_interest', u'establishment']"
0,43.3313,5.10669,Banque Populaire Provençale et Corse,ChIJmVBnU__eyRIRGrRAMO4uqLA,"[u'bank', u'finance', u'point_of_interest', u'establishment']"
0,43.3332586,5.1049874,BEST OF BEAUTE,ChIJkW2FulXeyRIRLixUGo_0hGI,"[u'beauty_salon', u'hair_care', u'point_of_interest', u'establishment']"
0,43.331146,5.106285,Centre de Secours,ChIJAxYuUf_eyRIRNX_9ceToTFQ,"[u'point_of_interest', u'establishment']"
0,43.3312248,5.1079527,Atelier Méditerranée Services,ChIJ7Ss8oPjeyRIRtq-SUtOEThc,"[u'store', u'point_of_interest', u'establishment']"
0,43.3369881,5.1041052,Phoenix Développement Informatique,ChIJ9YSHd1PeyRIRkwDPZ4M2UBI,"[u'point_of_interest', u'establishment']"
0,43.3312227,5.1079695,D L M,ChIJxyNQd_jeyRIRwQ9ye4TQ3po,"[u'physiotherapist', u'health', u'point_of_interest', u'establishment']"
0,43.332386,5.104461,Virtuelimmo,ChIJ6yX1m1XeyRIRUJRMnbPhSHE,"[u'real_estate_agency', u'point_of_interest', u'establishment']"
0,43.3316135,5.1091254,Bureau De Poste Sausset Les Pins BP,ChIJlwZqK1beyRIRG6FLH8_J5Bg,"[u'bank', u'finance', u'point_of_interest', u'establishment']"
0,43.3346141,5.1023064,Krist Détective,ChIJ_6rb2lTeyRIRXRzWnfHJR1M,"[u'point_of_interest', u'establishment']"
0,43.3314016,5.1078948,sodeport,ChIJv6Z4oPjeyRIRwz6oJUylN4k,"[u'point_of_interest', u'establishment']"
0,43.3364864,5.1004689,Andrew Ingenierie,ChIJNaYuu6zfyRIRdgCT-vIoZ0o,"[u'point_of_interest', u'establishment']"
0,43.357197,5.103832,Pascal Vachey Paysagiste,ChIJS6raDjPeyRIRJks7e01cVgA,"[u'general_contractor', u'point_of_interest', u'establishment']"
0,43.3555468,5.1032352,Les Cavaliers de la Main Douce,ChIJp5C1nTTeyRIRW0uxMumTHu0,"[u'point_of_interest', u'establishment']"
0,43.3582186,5.1015213,Club Canin de la Venise Provencale,ChIJLTKzKs3fyRIRAnZqbHqsP_8,"[u'point_of_interest', u'establishment']"
0,43.357277,5.103764,Maggio Michel,ChIJS6raDjPeyRIRd0FeNTEIQak,"[u'food', u'point_of_interest', u'establishment']"
0,43.357277,5.103764,Olive Bertrand,ChIJS6raDjPeyRIR0oXclMQmtwQ,"[u'food', u'point_of_interest', u'establishment']"
0,43.362179,5.102047,Chapelle Saint-Julien,ChIJVWD6MC3eyRIRQdoK5zo7mIA,"[u'church', u'place_of_worship', u'point_of_interest', u'establishment']"
0,43.358693,5.09799,Château d'Agut,ChIJYa1Hsc3fyRIRRIZhPy3IBBE,"[u'premise', u'point_of_interest', u'establishment']"
0,43.3337013,5.0973697,SCI KUDSZUS PETIT,ChIJIZ6EN6rfyRIR33yNKDUzMbI,"[u'real_estate_agency', u'lodging', u'point_of_interest', u'establishment']"
0,43.3311287,5.0986581,Promoval,ChIJHTdviM3dyRIRlt85R29gHYo,"[u'real_estate_agency', u'point_of_interest', u'establishment']"
0,43.3315194,5.099439,Tennis Club De Sausset Les Pins,ChIJszC5_6rfyRIRtzMBxgARfas,"[u'point_of_interest', u'establishment']"
0,43.33573,5.0995046,Self Déco,ChIJaeVpZKvfyRIRvUYlRTEnwlQ,"[u'hardware_store', u'store', u'point_of_interest', u'establishment']"
0,43.3317329,5.0984486,Corinne Pennachio Communication,ChIJ25N-ggDfyRIRu-ACLzeyuPE,"[u'point_of_interest', u'establishment']"
0,43.3314422,5.1008836,Lou Fanau,ChIJe596BwDfyRIRgyME-8dQths,"[u'point_of_interest', u'establishment']"
0,43.3322858,5.1004536,Co oL Executive,ChIJR30Po6rfyRIRAF-328WKajc,"[u'point_of_interest', u'establishment']"
0,43.3372877,5.1005738,Synacom,ChIJwYOhvKzfyRIRbN2ZzkIIvh4,"[u'point_of_interest', u'establishment']"
0,43.3352842,5.100989,Tomasz Kuzel Photography,ChIJp7AxT76jrxIRSjm0EBI1UZk,"[u'point_of_interest', u'establishment']"
0,43.3348428,5.0998824,Sausset Les Pins,ChIJR4W1EKvfyRIRY9ko9VzLPk0,"[u'point_of_interest', u'establishment']"
0,43.3353431,5.0973565,Cyber Form@tion,ChIJH2CewavfyRIRru4-F9Op4DA,"[u'point_of_interest', u'establishment']"
0,43.3351155,5.0972171,Alter Ego Conseil,ChIJRXsVxKvfyRIRfLFpi3kNOGY,"[u'finance', u'point_of_interest', u'establishment']"
0,43.3324309,5.0968939,Bridge Club,ChIJY_1ABarfyRIRKwJg4hOza3g,"[u'point_of_interest', u'establishment']"
0,43.3321515,5.0970903,Tube City IMS France Sud,ChIJARfQCKrfyRIRfxaX6llx-T4,"[u'point_of_interest', u'establishment']"
0,43.33089,5.099044,Le Nid Gourmand,ChIJ15MlYgDfyRIRQOLNQp68Wco,"[u'restaurant', u'food', u'point_of_interest', u'establishment']"
0,43.3302646,5.0981347,Bois Concept,ChIJlQdn7gDfyRIRalTMXE4TYPQ,"[u'general_contractor', u'point_of_interest', u'establishment']"
0,43.332914,5.091852,La Calanque Bleue,ChIJ9dMxUf_eyRIRrPGpW_Jotpo,"[u'restaurant', u'food', u'point_of_interest', u'establishment']"
0,43.331146,5.106285,Troja Arcamone Sylvie,ChIJx5YzUf_eyRIRF10AGwc6v1Q,"[u'beauty_salon', u'point_of_interest', u'establishment']"
0,43.3313026,5.1076775,Mairie,ChIJSzMwp_jeyRIRyn9gjoL_vLw,"[u'point_of_interest', u'establishment']"
0,43.329985,5.107471,Snack Chez Fanny,ChIJr-9qxvjeyRIR6aTgxl9SUqQ,"[u'cafe', u'restaurant', u'food', u'store', u'point_of_interest', u'establishment']"
0,43.3310365,5.0991929,Centre de Radiologie de la Côte Bleue,ChIJHTdviM3dyRIRqSwnQ4AcX0c,"[u'doctor', u'health', u'point_of_interest', u'establishment']"
0,43.3312089,5.1066453,Kim Long,ChIJmVBnU__eyRIRc9jqpSb-XXk,"[u'restaurant', u'food', u'point_of_interest', u'establishment']"
